{"data":[{"id":"007d1a99-a204-4300-9301-02f01a16b390","name":"\u53f3\u820d\u5496\u5561 vicinocafe","city":"changhua","wifi":5,"seat":4,"quiet":4,"tasty":5,"cheap":4,"music":5,"url":"https:\/\/www.facebook.com\/taiwanvicinocafe\/","address":"\u5f70\u5316\u7e23\u54e1\u6797\u5e02\u842c\u5e74\u8def\u4e09\u6bb567\u865f","latitude":"23.95756180","longitude":"120.57399800","limited_time":"maybe","socket":"maybe","standing_desk":"no","mrt":"","open_time":""},{"id":"0173d45f-0bc4-4b64-98ac-c238bd1b81c5","name":"\u8001\u9f20\u5c3e\u5df4","city":"changhua","wifi":4,"seat":5,"quiet":5,"tasty":5,"cheap":5,"music":5,"url":"","address":"521\u5f70\u5316\u7e23\u5317\u6597\u93ae\u8208\u8fb2\u8def\u4e8c\u6bb5247-1\u865f","latitude":"23.86439160","longitude":"120.53307650","limited_time":"no","socket":"maybe","standing_desk":"yes","mrt":"","open_time":""},{"id":"017b8ca7-7116-41a9-8e36-e590ef94cc3f","name":"\u661f\u5df4\u514b-\u66c9\u967d\u9580\u5e02","city":"changhua","wifi":3,"seat":2,"quiet":1,"tasty":5,"cheap":3,"music":3,"url":"","address":"\u5f70\u5316\u7e23\u5f70\u5316\u5e02\u66c9\u967d\u8def358\u865f","latitude":"24.07382390","longitude":"120.53275900","limited_time":"no","socket":"maybe","standing_desk":"no","mrt":"","open_time":"07:00~22:30"},{"id":"0b45f261-7596-4cc9-80a0-d34ec7551e05","name":"\u7aa9\u5690\u5496\u5561\u81ea\u5bb6\u70d8\u7119\u9928","city":"changhua","wifi":5,"seat":5,"quiet":5,"tasty":5,"cheap":5,"music":5,"url":"https:\/\/m.facebook.com\/HCRoasters\/","address":"\u54e1\u6797\u5e02\u6e9d\u7682\u8857298\u865f","latitude":"23.94833400","longitude":"120.56739100","limited_time":"no","socket":"no","standing_desk":"no","mrt":"","open_time":"10:00-18:00"},{"id":"0ca410ca-5edc-4cbf-b170-b997f5ae58c8","name":"\u6558\u676fSobremesa","city":"changhua","wifi":5,"seat":5,"quiet":5,"tasty":5,"cheap":5,"music":5,"url":"https:\/\/m.facebook.com\/coffeesobremesa\/?ref=bookmarks","address":"\u5f70\u5316\u7e23\u5f70\u5316\u5e02\u65ed\u5149\u8def221\u865f","latitude":"24.07132900","longitude":"120.54567940","limited_time":"no","socket":"maybe","standing_desk":"yes","mrt":"","open_time":"\u661f\u671f\u4e00\u9694\u9031\u4f11"},{"id":"17cbb8d3-4d47-4e57-b122-ad134b8a887f","name":"\u5c0f\u8857\u5496\u5561","city":"changhua","wifi":5,"seat":4.5,"quiet":5,"tasty":5,"cheap":5,"music":5,"url":"https:\/\/www.facebook.com\/MinervaCafe.Yuanlin\/","address":"\u5f70\u5316\u7e23\u54e1\u6797\u5e02\u50d1\u4fe1\u885770\u865f","latitude":"23.96840900","longitude":"120.57305700","limited_time":"no","socket":"yes","standing_desk":"yes","mrt":"","open_time":"\u9031\u65e5\u56fa\u5b9a\u516c\u4f11"},{"id":"18e98010-98fb-4302-ade2-5c60a03d4946","name":"\u54aa\u5496\u5561","city":"changhua","wifi":0,"seat":5,"quiet":4,"tasty":5,"cheap":4,"music":4,"url":"https:\/\/www.facebook.com\/micafeshop\/","address":"\u5f70\u5316\u7e23\u548c\u7f8e\u93ae\u5f70\u8349\u8def\u4e8c\u6bb5442\u865f-3\u865f","latitude":"24.08140790","longitude":"120.50506600","limited_time":"maybe","socket":"maybe","standing_desk":"yes","mrt":"","open_time":""},{"id":"1b5ed511-19ef-4861-8ef9-35c818fa561e","name":"Biking16\/ \u55ae\u8eca\u65c5\u4eba","city":"changhua","wifi":4,"seat":5,"quiet":4,"tasty":5,"cheap":5,"music":5,"url":"https:\/\/www.facebook.com\/biking16Taiwan\/","address":"\u5f70\u5316\u5e02\u57ce\u4e2d\u885716\u865f","latitude":"24.07900290","longitude":"120.54117250","limited_time":"yes","socket":"maybe","standing_desk":"no","mrt":"","open_time":""},{"id":"1cc09415-5c6e-48da-ab71-c571877b6e1c","name":"\u79cb\u703e\u865f","city":"changhua","wifi":0,"seat":5,"quiet":4,"tasty":5,"cheap":4,"music":5,"url":"","address":"\u5f70\u5316\u7e23\u54e1\u6797\u5e02\u5927\u540c\u8def\u4e8c\u6bb5129\u5df727\u5f046\u865f","latitude":"23.96818440","longitude":"120.57685090","limited_time":"","socket":"","standing_desk":"","mrt":"","open_time":""},{"id":"1cc7b88c-7010-47cf-ba2e-ac4c6e6293c9","name":"Am1 CAFE","city":"changhua","wifi":0,"seat":5,"quiet":5,"tasty":5,"cheap":5,"music":4,"url":"https:\/\/www.facebook.com\/AM1CafeChanghua\/?fref=ts","address":"\u5f70\u5316\u5e02\u5efa\u5bf6\u88571-21\u865f","latitude":"24.06946140","longitude":"120.54596610","limited_time":"no","socket":"maybe","standing_desk":"yes","mrt":"","open_time":"8:30 - 18:30"},{"id":"1ec643bc-55c9-4840-a566-2e7bc62ec0eb","name":"\u884c\u677f Andante","city":"changhua","wifi":5,"seat":5,"quiet":5,"tasty":5,"cheap":4.5,"music":5,"url":"https:\/\/www.facebook.com\/andantechw\/","address":"\u5f70\u5316\u5e02\u6c38\u5b89\u8857208\u5df732\u865f ","latitude":"24.08819290","longitude":"120.54532500","limited_time":"no","socket":"yes","standing_desk":"no","mrt":"","open_time":"\u4ee5\u5206\u8a08\u8cbb\uff0c\u7b2c\u4e00\u5c0f\u664260\u5143\uff0c\u4e4b\u5f8c\u4e00\u5206\u94181\u584a\u9322\uff0c\u4e09\u5c0f\u6642\u5f8c\u4e0d\u518d\u8a08\u8cbb\u3002  \u5e97\u88e1\u6709\u66f8\uff0c\u6709\u7576\u671f\u7684\u85dd\u6587\u96dc\u8a8c\uff0c\u6709wifi\u6709\u63d2\u5ea7\uff0c\u6709\u9ed1\u5496\u5561\u548c\u5e7e\u6b3e\u98f2\u54c1\u4efb\u4f60\u559d\u3002 \u53e6\u5916\u63d0\u4f9b\u52a0\u50f9\u8cfc\u7684\u5176\u4ed6\u98f2\u54c1\u548c\u9ede\u5fc3\u3002  \u53ef\u7528\u5916\u98df\uff0c\u4f46\u5783\u573e\u8acb\u5e36\u8d70\uff0c\u4e0d\u7136\u6703\u914c\u653620\u5143\u6e05\u6f54\u8cbb\u5594!"},{"id":"2ec53c31-4806-4025-b911-bc309f2dfaa1","name":"\u55b5\u601d\u5496\u5561","city":"changhua","wifi":2,"seat":5,"quiet":5,"tasty":5,"cheap":5,"music":5,"url":"https:\/\/www.facebook.com\/muse.cofe","address":"\u5f70\u5316\u7e23\u798f\u8208\u9109\u6cbf\u6d77\u8def\u4e94\u6bb518\u865f","latitude":"24.04444090","longitude":"120.42765990","limited_time":"no","socket":"maybe","standing_desk":"no","mrt":"","open_time":""},{"id":"3052164d-3999-4426-97ea-edcc5f27a597","name":"All in coffee","city":"changhua","wifi":5,"seat":4,"quiet":4,"tasty":4.5,"cheap":4,"music":3.5,"url":"https:\/\/www.facebook.com\/AllInCoffee.tw\/","address":"510\u5f70\u5316\u7e23\u54e1\u6797\u5e02\u548c\u5e73\u6771\u885760-1\u865f","latitude":"23.95408090","longitude":"120.57798490","limited_time":"no","socket":"maybe","standing_desk":"","mrt":"","open_time":""},{"id":"317e934d-04f0-444d-b5fc-d037518268db","name":"\u91d1\u6c34\u5496\u5561","city":"changhua","wifi":0,"seat":0,"quiet":0,"tasty":0,"cheap":0,"music":0,"url":"https:\/\/www.facebook.com\/jinshuicafe\/","address":"\u5f70\u5316\u7e23\u54e1\u6797\u5e02\u60e0\u660e\u885715\u865f","latitude":"23.95115480","longitude":"120.57274210","limited_time":"maybe","socket":"maybe","standing_desk":"yes","mrt":"","open_time":""},{"id":"31fe3e0b-bf61-4264-b283-b0f94ef9e37f","name":"\u82b1\u8212\u54ff\u7cbe\u54c1\u5496\u5561","city":"changhua","wifi":5,"seat":5,"quiet":4,"tasty":5,"cheap":5,"music":5,"url":"https:\/\/m.facebook.com\/forcecafe7863286\/","address":"\u5f70\u5316\u7e23\u82b1\u58c7\u9109\u82b1\u58c7\u8857186\u865f","latitude":"24.02376690","longitude":"120.53874400","limited_time":"no","socket":"maybe","standing_desk":"no","mrt":"","open_time":"\u9031\u4e8c\u81f3\u9031\u65e511:00-18:30"},{"id":"320bb5f3-d6b7-4bb1-8607-fd1743021965","name":"\u4e8c\u672c\u5496\u5561-URBAN CAFE","city":"changhua","wifi":5,"seat":4,"quiet":5,"tasty":5,"cheap":4,"music":3,"url":"https:\/\/www.facebook.com\/yuanlin.urbancafe\/","address":"\u5f70\u5316\u7e23\u54e1\u6797\u93ae\u5357\u660c\u8def119\u865f","latitude":"23.95428440","longitude":"120.57042810","limited_time":"no","socket":"maybe","standing_desk":"yes","mrt":"","open_time":""},{"id":"32ac4b3e-f793-4296-ac8a-0f1617466302","name":"circus cafe \u5713\u5708\u5496\u5561","city":"changhua","wifi":5,"seat":5,"quiet":4,"tasty":5,"cheap":5,"music":5,"url":"https:\/\/www.facebook.com\/circusparkcafe\/","address":"\u5f70\u5316\u7e23\u54e1\u6797\u5e02\u54e1\u6771\u8def\u4e8c\u6bb5351\u5df71\u865f","latitude":"23.95828590","longitude":"120.58033950","limited_time":"no","socket":"yes","standing_desk":"no","mrt":"","open_time":""},{"id":"3501cb44-3268-4802-b4ac-804403d875ed","name":"Beginning Cafe \u4eba\u4e4b\u521d\u00b7\u624b\u4f5c\u5496\u5561","city":"changhua","wifi":5,"seat":4,"quiet":3,"tasty":5,"cheap":5,"music":5,"url":"https:\/\/www.facebook.com\/beginning150530","address":"\u5f70\u5316\u7e23\u5f70\u5316\u5e02\u5f70\u5316\u5e02\u4e2d\u5c71\u8def\u4e8c\u6bb572\u865f\u4e4b 1 \u865f","latitude":"24.06763700","longitude":"120.53984000","limited_time":"no","socket":"no","standing_desk":"yes","mrt":"","open_time":""},{"id":"371239b3-9e8e-40e7-9a98-9f3c4ccec631","name":"Origin cafe","city":"changhua","wifi":5,"seat":5,"quiet":4.5,"tasty":4.5,"cheap":4.5,"music":4.5,"url":"https:\/\/www.facebook.com\/origincafe\/","address":"\u5f70\u5316\u7e23\u5f70\u5316\u5e02\u592a\u5e73\u885716\u865f","latitude":"24.07726790","longitude":"120.54369000","limited_time":"no","socket":"yes","standing_desk":"yes","mrt":"","open_time":""},{"id":"37144277-b52e-4439-a6e0-e7c778a24389","name":"\u4e00\u5e16\u5496\u5561","city":"changhua","wifi":4,"seat":5,"quiet":4,"tasty":5,"cheap":4,"music":4,"url":"https:\/\/www.facebook.com\/theonecoffee2017\/","address":"\u5f70\u5316\u7e23\u82b1\u58c7\u9109\u82b1\u5357\u8def","latitude":"24.02129910","longitude":"120.55131230","limited_time":"no","socket":"maybe","standing_desk":"yes","mrt":"","open_time":""},{"id":"3d9d0338-4929-4eb4-9c2f-f30edd7bf236","name":"\u5929\u5916\u5561\u9bae","city":"changhua","wifi":1,"seat":5,"quiet":4,"tasty":5,"cheap":5,"music":2,"url":"https:\/\/www.facebook.com\/%E5%A4%A9%E5%A4%96%E5%95%A1%E9%AE%AE-%E6%89%8B%E4%BD%9C%E5%92%96%E5%95%A1%E8%B1%86%E5%B0%88%E9%96%80-815921811870373\/","address":"\u5f70\u5316\u7e23\u79c0\u6c34\u9109\u5f70\u6c34\u8def\u4e8c\u6bb5321\u865f","latitude":"24.02627700","longitude":"120.49274800","limited_time":"no","socket":"no","standing_desk":"no","mrt":"","open_time":"8:30 - 18:00"},{"id":"45264ff3-9b00-4b2c-bbfe-011183b3d216","name":"Tzemdas Kaffa \u624b\u4f5c.\u7368\u7acb\u601d\u8003\u5496\u5561","city":"changhua","wifi":4.5,"seat":4.5,"quiet":5,"tasty":4.5,"cheap":4,"music":5,"url":"https:\/\/www.facebook.com\/Tzemdaskaffa","address":"\u5f70\u5316\u7e23\u5f70\u5316\u5e02\u81ea\u5f37\u8def248\u865f","latitude":"24.09036990","longitude":"120.54521600","limited_time":"no","socket":"maybe","standing_desk":"no","mrt":"","open_time":"10:00 - 22:00"},{"id":"4b36a3d1-5a41-4866-be34-fc126bc0aac9","name":"La Coma Caf\u00e9 & Brunch","city":"changhua","wifi":5,"seat":5,"quiet":5,"tasty":5,"cheap":5,"music":5,"url":"","address":"\u5f70\u5316\u7e23\u5f70\u5316\u5e02\u65ed\u5149\u8def72\u865f","latitude":"24.07462300","longitude":"120.54645600","limited_time":"","socket":"","standing_desk":"","mrt":"","open_time":""},{"id":"4c42bd65-8b51-43ea-90f9-331c8a2a8b45","name":"Ace Caf\u00e9","city":"changhua","wifi":1,"seat":4,"quiet":1,"tasty":5,"cheap":5,"music":3,"url":"https:\/\/www.facebook.com\/aceacecafe","address":"\u5f70\u5316\u7e23\u5f70\u5316\u5e02\u4e2d\u6b63\u8def\u4e00\u6bb5218\u865f","latitude":"24.08391190","longitude":"120.54763300","limited_time":"no","socket":"yes","standing_desk":"no","mrt":"","open_time":"8:00 - 18:00"},{"id":"4c9766e2-f0dd-4b18-bd1b-07ceeb3c524f","name":"\u5178\u85cf\u5bb6\u5496\u5561","city":"changhua","wifi":5,"seat":5,"quiet":4,"tasty":5,"cheap":4,"music":4,"url":"https:\/\/www.facebook.com\/cafeclassicosince2005\/","address":"\u5f70\u5316\u7e23\u5f70\u5316\u5e02\u6c11\u65cf\u8def129\u5df754\u865f","latitude":"24.06912650","longitude":"120.53662560","limited_time":"no","socket":"maybe","standing_desk":"no","mrt":"","open_time":""},{"id":"4cf30e10-b28e-43d6-b68f-64d8c0b7156a","name":"\u767d\u8272\u65b9\u584a\u5496\u5561&\u5de5\u4f5c\u5ba4","city":"changhua","wifi":4,"seat":5,"quiet":3.5,"tasty":3.5,"cheap":3.5,"music":4.5,"url":"https:\/\/www.facebook.com\/whitecube23\/","address":"\u5f70\u5316\u7e23\u5f70\u5316\u5e02\u516c\u5712\u8def\u4e00\u6bb550\u865f","latitude":"24.07682500","longitude":"120.54583100","limited_time":"no","socket":"maybe","standing_desk":"no","mrt":"","open_time":""},{"id":"4f8f50ea-2b72-454f-a9fc-d970dbca3066","name":"\u7c73\u5fb7\u5496\u5561\u574a","city":"changhua","wifi":5,"seat":4,"quiet":4,"tasty":5,"cheap":5,"music":2,"url":"https:\/\/www.facebook.com\/MEDECAFE888\/","address":"\u5f70\u5316\u7e23\u9e7f\u6e2f\u93ae\u6c38\u5b89\u4e8c\u8def105\u865f","latitude":"24.06221600","longitude":"120.44023160","limited_time":"no","socket":"no","standing_desk":"no","mrt":"","open_time":""},{"id":"553116b1-cc51-40e0-9f40-34269145410e","name":" Skinny Cafe \u7626\u5b50\u5496\u5561","city":"changhua","wifi":5,"seat":4,"quiet":4,"tasty":5,"cheap":4,"music":4,"url":"www.skinnycafe.tw","address":"\u5f70\u5316\u7e23\u5f70\u5316\u5e02\u5149\u5fa9\u8def143\u5df74\u865f","latitude":"24.08029400","longitude":"120.53986900","limited_time":"maybe","socket":"maybe","standing_desk":"yes","mrt":"","open_time":"\u79ae\u62dc\u4e09\u3001\u56db\u516c\u4f11"},{"id":"56594cea-b8c8-41a2-9b37-e2d75562d984","name":"\u5929\u7a7a\u85cd\u5496\u5561","city":"changhua","wifi":4.5,"seat":4.5,"quiet":4,"tasty":3.5,"cheap":2.5,"music":4.5,"url":"https:\/\/www.facebook.com\/%E5%A4%A9%E7%A9%BA%E8%97%8D%E5%92%96%E5%95%A1CafeAozora-153822047994497\/","address":"\u5f70\u5316\u7e23\u5f70\u5316\u5e02\u6210\u529f\u8def222\u865f","latitude":"24.08037200","longitude":"120.54169800","limited_time":"","socket":"","standing_desk":"","mrt":"","open_time":""},{"id":"58f74a85-c25f-4099-a3b3-0a02074a6d71","name":"\u65c5\u3002\u5496\u5561","city":"changhua","wifi":5,"seat":5,"quiet":5,"tasty":5,"cheap":4,"music":4,"url":"https:\/\/www.facebook.com\/tripcafetw\/","address":"\u5f70\u5316\u5e02\u5f70\u5316\u5e02\u6c11\u6b0a\u8def241\u865f","latitude":"24.07687490","longitude":"120.53726800","limited_time":"","socket":"","standing_desk":"","mrt":"","open_time":""},{"id":"5c16f440-cc99-4700-9765-c1902b69f802","name":"\u5c0b\u9e7f\u5496\u5561","city":"changhua","wifi":5,"seat":4,"quiet":4,"tasty":5,"cheap":4,"music":4,"url":"","address":"\u5f70\u5316\u5e02\u6c38\u5b89\u8857476\u865f","latitude":"24.09417800","longitude":"120.54197370","limited_time":"no","socket":"maybe","standing_desk":"yes","mrt":"","open_time":"08:00\uff5e21:00"},{"id":"619c58a1-ebd5-4669-bd98-bb16fbbd3106","name":"\u7aef\u502a\u751f\u6d3b","city":"changhua","wifi":4.5,"seat":5,"quiet":2.5,"tasty":3,"cheap":3,"music":5,"url":"https:\/\/www.facebook.com\/life.clue.store","address":"\u5f70\u5316\u5e02\u4e09\u6c11\u8def\u4e5d\u865f","latitude":"24.08216300","longitude":"120.53919200","limited_time":"no","socket":"maybe","standing_desk":"no","mrt":"","open_time":"11-21"},{"id":"62253131-3a5b-4970-b39f-2a3fb92e6edc","name":"\u7f8e\u5bf6","city":"changhua","wifi":5,"seat":5,"quiet":5,"tasty":4,"cheap":5,"music":5,"url":"https:\/\/www.facebook.com\/RubyCafe186\/","address":"\u5f70\u5316\u7e23\u82b1\u58c7\u9109\u4e2d\u6b63\u8def186\u865f","latitude":"24.02674800","longitude":"120.54226400","limited_time":"","socket":"","standing_desk":"","mrt":"","open_time":""},{"id":"64bac1da-558b-4353-b903-b709bf45b4a7","name":"Free Will\u5561\u5690\u81ea\u7531","city":"changhua","wifi":4,"seat":4.5,"quiet":5,"tasty":5,"cheap":4,"music":4.5,"url":"https:\/\/www.facebook.com\/Free-Will%E5%95%A1%E5%9A%90%E8%87%AA%E7%94%B1-431925970499757","address":"\u5f70\u5316\u7e23\u5f70\u5316\u5e02\u96f2\u9577\u8def95\u865f","latitude":"24.06092610","longitude":"120.53685010","limited_time":"no","socket":"maybe","standing_desk":"no","mrt":"","open_time":""},{"id":"6de512d9-48d3-41e6-941a-cb14cf35a55e","name":"cama caf\u00e9 -\u5f70\u5316\u4e2d\u6b63\u5e97","city":"changhua","wifi":0,"seat":0,"quiet":0,"tasty":0,"cheap":0,"music":0,"url":"","address":"500\u5f70\u5316\u7e23\u5f70\u5316\u5e02\u4e2d\u6b63\u8def\u4e8c\u6bb5642\u865f","latitude":"24.06828100","longitude":"120.53508500","limited_time":"","socket":"","standing_desk":"","mrt":"","open_time":""},{"id":"6f9882d3-d68c-4478-9294-1114953c9e01","name":"\u6a02\u5c45\u5496\u5561","city":"changhua","wifi":4,"seat":3,"quiet":4,"tasty":3,"cheap":4,"music":5,"url":"https:\/\/www.facebook.com\/lovestaycafe","address":"\u5f70\u5316\u7e23\u54e1\u6797\u5e02\u842c\u5e74\u8def\u56db\u6bb5","latitude":"23.96673480","longitude":"120.60153650","limited_time":"maybe","socket":"no","standing_desk":"yes","mrt":"","open_time":"9:00-18:00"},{"id":"71ef6e0b-0aa9-405e-b4ee-32dd320b724a","name":"\u5361\u592b\u74e6\u5496\u5561 Kahve Coffee Roaster","city":"changhua","wifi":5,"seat":5,"quiet":5,"tasty":5,"cheap":5,"music":5,"url":"https:\/\/www.facebook.com\/KahveCoffeeRoaster\/","address":"\u5f70\u5316\u7e23\u9e7f\u6e2f\u93ae\u516c\u5712\u4e09\u8def69\u5df768\u865f","latitude":"24.05590170","longitude":"120.43007850","limited_time":"no","socket":"maybe","standing_desk":"yes","mrt":"","open_time":"\u4e0d\u5b9a\u671f\u516c\u4f11\uff0c\u516c\u4f11\u6703\u53ca\u767c\u5e03\u65bcFB\u53caLine @"},{"id":"7a4fc96d-680a-44fa-9459-b1a225a3f651","name":"\u786c\u5df7\u5496\u5561 Hard Ln, cafe'","city":"changhua","wifi":0,"seat":0,"quiet":0,"tasty":0,"cheap":0,"music":0,"url":"","address":"510\u5f70\u5316\u7e23\u54e1\u6797\u5e02\u6e9d\u7682\u5317\u4e09\u885770\u865f","latitude":"23.94909040","longitude":"120.56682210","limited_time":"no","socket":"maybe","standing_desk":"yes","mrt":"","open_time":""},{"id":"7fd03039-61c0-4ab7-b43a-006fba76c2ea","name":"DeerHer\u751c\u9ede\u5eda\u574a","city":"changhua","wifi":5,"seat":5,"quiet":5,"tasty":5,"cheap":5,"music":4,"url":"https:\/\/www.facebook.com\/deerherbakery\/","address":"\u5f70\u5316\u7e23\u548c\u7f8e\u93ae\u7dda\u6771\u8def\u4e8c\u6bb5712\u865f","latitude":"24.09152780","longitude":"120.51986200","limited_time":"maybe","socket":"yes","standing_desk":"yes","mrt":"","open_time":"1:00pm~7:00pm"},{"id":"83e42a65-7feb-4261-a55f-5d2b790bdafc","name":"\u5496\u5561\u70df","city":"changhua","wifi":5,"seat":4,"quiet":4,"tasty":5,"cheap":3,"music":4,"url":"https:\/\/www.facebook.com\/%E5%92%96%E5%95%A1-%E7%83%9F-1912258569078902\/?modal=admin_todo_tour","address":"\u6c38\u6a02\u8857199\u865f","latitude":"24.07721810","longitude":"120.53900550","limited_time":"no","socket":"yes","standing_desk":"no","mrt":"","open_time":""},{"id":"894e0471-438b-40dd-af36-d0779ad2b842","name":"\u677e\u679c\u5496\u5561","city":"changhua","wifi":5,"seat":5,"quiet":5,"tasty":5,"cheap":5,"music":5,"url":"https:\/\/www.facebook.com\/SungoCaffe\/","address":"\u5f70\u5316\u7e23\u54e1\u6797\u5e02\u6210\u529f\u6771\u8def162-1\u865f","latitude":"23.96141300","longitude":"120.58175400","limited_time":"no","socket":"yes","standing_desk":"yes","mrt":"","open_time":""},{"id":"8f08a06a-791d-4aaa-a1d8-31526653d6ae","name":"\u52a0\u8ca0\u5496\u5561","city":"changhua","wifi":0,"seat":0,"quiet":0,"tasty":0,"cheap":0,"music":0,"url":"","address":" 514\u5f70\u5316\u7e23\u6eaa\u6e56\u93ae\u6c11\u751f\u88571\u865f","latitude":"23.95813090","longitude":"120.48012430","limited_time":"maybe","socket":"maybe","standing_desk":"yes","mrt":"","open_time":""},{"id":"911f300c-afdb-4e27-b483-df4d612d9332","name":"\u8c6a\u73c8\u7432","city":"changhua","wifi":5,"seat":5,"quiet":4,"tasty":5,"cheap":4,"music":5,"url":"","address":"\u5f70\u5316\u7e23\u793e\u982d\u9109\u793e\u6597\u8def\u4e00\u6bb5355\u865f","latitude":"23.89661120","longitude":"120.58489330","limited_time":"","socket":"","standing_desk":"","mrt":"","open_time":""},{"id":"924f80e8-9ce2-4743-b431-58ba35f2e16b","name":"Dreasist Coffee Roasters\u00ae","city":"changhua","wifi":5,"seat":5,"quiet":5,"tasty":5,"cheap":5,"music":5,"url":"https:\/\/www.facebook.com\/dreasistcoffee\/","address":"\u5f70\u5316\u7e23\u54e1\u6797\u5e02\u60e0\u660e\u8857168\u5df772\u865f","latitude":"23.95233070","longitude":"120.56859960","limited_time":"no","socket":"maybe","standing_desk":"yes","mrt":"","open_time":"\u9031\u4e00\u3001\u9031\u4e8c\u3001\u9031\u4e94\u3001\u9031\u516d\u3001\u9031\u65e5"},{"id":"99bdb9a3-acfb-41b0-b5b1-24d18a2ce7b8","name":"53\u5496\u5561","city":"changhua","wifi":0,"seat":4,"quiet":5,"tasty":5,"cheap":5,"music":3,"url":"https:\/\/www.facebook.com\/53coffeelove","address":"\u5f70\u5316\u5e02\u6c11\u6b0a\u8def53\u5df72\u865f","latitude":"24.07537180","longitude":"120.54209120","limited_time":"","socket":"","standing_desk":"","mrt":"","open_time":""},{"id":"9c1b23f6-53c1-42a2-bf60-facc9ddec5ea","name":"Sean's cafe\u4eab\u6a02\u73a9\u5496","city":"changhua","wifi":0,"seat":5,"quiet":4,"tasty":5,"cheap":5,"music":5,"url":"Sean's cafe\u4eab\u6a02\u73a9\u5496","address":"500\u5f70\u5316\u7e23\u5f70\u5316\u5e02\u9577\u58fd\u8857157\u865f","latitude":"24.08337390","longitude":"120.54278800","limited_time":"maybe","socket":"maybe","standing_desk":"yes","mrt":"","open_time":""},{"id":"9cf818fb-16ad-412b-8a19-58ca70e825f2","name":"\u65c5\u4eba\u5496\u5561\u9928\u54e1\u6797\u5e97","city":"changhua","wifi":5,"seat":3,"quiet":3,"tasty":3,"cheap":4,"music":5,"url":"https:\/\/www.facebook.com\/thetraveleryuanlin\/","address":"\u54e1\u6797\u5927\u9053\u4e00\u6bb590\u865f","latitude":"23.94936300","longitude":"120.56798500","limited_time":"maybe","socket":"","standing_desk":"","mrt":"","open_time":""},{"id":"9f31d449-14d6-4044-b0cc-e90f78330b72","name":"Loca Caf'e","city":"changhua","wifi":4.5,"seat":3.5,"quiet":3.5,"tasty":5,"cheap":5,"music":4.5,"url":"https:\/\/m.facebook.com\/Loca-Caf%C3%A9-1779070185720438\/","address":"\u5f70\u5316\u7e23\u4e8c\u6797\u93ae\u5357\u5149\u91cc\u5357\u5b89\u8def454\u865f","latitude":"23.89471460","longitude":"120.36798200","limited_time":"maybe","socket":"yes","standing_desk":"no","mrt":"","open_time":"\u4e0d\u5b9a\u6642\u516c\u4f11"},{"id":"a07584ba-94c0-4393-93b9-6a2203d5b6ef","name":"\u7199\u820d\u5496\u5561 CICILIANO CAFE","city":"changhua","wifi":0,"seat":5,"quiet":5,"tasty":5,"cheap":5,"music":5,"url":"https:\/\/www.facebook.com\/CicilianoCafe","address":"\u5f70\u5316\u7e23\u54e1\u6797\u5e02\u4e2d\u5c71\u8def2\u6bb5121\u865f","latitude":"23.96323900","longitude":"120.57091000","limited_time":"no","socket":"no","standing_desk":"no","mrt":"","open_time":""},{"id":"a09ce260-76b9-49e5-8f07-ec6b14ec17c5","name":"\u571f\u4e3f\u5315\u6728\u5341\u8c46\u5bf8Caf'e","city":"changhua","wifi":0,"seat":0,"quiet":0,"tasty":0,"cheap":0,"music":0,"url":"","address":"510\u5f70\u5316\u7e23\u54e1\u6797\u5e02\u6d6e\u5733\u5df7224\u865f","latitude":"23.96791440","longitude":"120.59175730","limited_time":"","socket":"","standing_desk":"","mrt":"","open_time":""},{"id":"a4d0b220-8790-4593-97fb-06ec21c85465","name":"\u6cd5\u83ab\u62c9\u5496\u5561","city":"changhua","wifi":5,"seat":5,"quiet":3,"tasty":3,"cheap":3,"music":4,"url":"","address":"500\u5f70\u5316\u7e23\u5f70\u5316\u5e02\u56db\u7dad\u8def69\u5df72\u865f","latitude":"24.06647160","longitude":"120.53586040","limited_time":"no","socket":"yes","standing_desk":"yes","mrt":"","open_time":""},{"id":"a5d0caf2-e0bf-4b75-a57c-7262b2f85632","name":"\u6c90\u68ee\u5496\u5561","city":"changhua","wifi":0,"seat":5,"quiet":5,"tasty":5,"cheap":3,"music":5,"url":"http:\/\/www.musun.com.tw\/","address":"\u54e1\u6797\u5e02\u6210\u529f\u8def57\u865f","latitude":"23.96457260","longitude":"120.57966490","limited_time":"no","socket":"yes","standing_desk":"","mrt":"","open_time":"12:00-21:00"},{"id":"a62ea40b-7f5a-443f-9c06-719dbc1ea5b9","name":"All In Coffee","city":"changhua","wifi":0,"seat":0,"quiet":0,"tasty":0,"cheap":0,"music":0,"url":"","address":"510\u5f70\u5316\u7e23\u54e1\u6797\u5e02\u548c\u5e73\u6771\u885760-1\u865f","latitude":"23.96260300","longitude":"120.57559600","limited_time":"maybe","socket":"maybe","standing_desk":"yes","mrt":"","open_time":""},{"id":"aa029a72-e7e9-4c65-9d80-e3bf2e488170","name":"coco\u9b06\u9905\u5c4b","city":"changhua","wifi":4,"seat":1,"quiet":1,"tasty":4,"cheap":3,"music":3,"url":"https:\/\/www.facebook.com\/cocoffee579\/?fref=ts","address":"\u5f70\u5316\u7e23\u54e1\u6797\u93ae\u4e2d\u6b63\u8def581\u865f","latitude":"23.96121200","longitude":"120.57134000","limited_time":"","socket":"","standing_desk":"","mrt":"","open_time":"10:30 - 21:30"},{"id":"acd33b1f-ad7c-49ee-a131-da0642bfc424","name":"\u708e\u751f\u5496\u5561","city":"changhua","wifi":0,"seat":5,"quiet":5,"tasty":5,"cheap":4,"music":5,"url":"https:\/\/m.facebook.com\/YanShengCaffe\/?locale2=zh_TW","address":"\u5f70\u5316\u5e02\u5efa\u6587\u885711\u865f","latitude":"24.07045760","longitude":"120.52938020","limited_time":"no","socket":"maybe","standing_desk":"no","mrt":"","open_time":"\u5916\u5e36\u6298\u626320\uff1b\u665a\u4e0a\u53ef\u80fd\u6703\u63d0\u65e9\u6253\u70ca"},{"id":"c1cc949e-903e-4d77-836c-145587dd6c8a","name":"\u6c90\u4f48\u5496\u5561","city":"changhua","wifi":5,"seat":4,"quiet":4,"tasty":4,"cheap":4,"music":4,"url":"https:\/\/www.facebook.com\/mooboocafe\/","address":"\u5f70\u5316\u7e23\u5f70\u5316\u5e02\u4e2d\u8208\u8def171\u865f","latitude":"24.06975820","longitude":"120.54395820","limited_time":"maybe","socket":"maybe","standing_desk":"yes","mrt":"","open_time":""},{"id":"c4d04d52-cdda-4c32-8368-157a2e0dbdec","name":"kisweet coffee","city":"changhua","wifi":4,"seat":5,"quiet":4,"tasty":5,"cheap":5,"music":4,"url":"","address":"\u5f70\u5316\u7e23\u5f70\u5316\u5e02\u5f70\u65b0\u8def\u4e00\u6bb552\u865f","latitude":"24.09014620","longitude":"120.53855500","limited_time":"","socket":"yes","standing_desk":"","mrt":"","open_time":""},{"id":"c776edf3-c1a3-465d-9c47-aab2d6bc54f7","name":"sokoso\u624b\u52fe\u624b\u5496\u5561\u9928","city":"changhua","wifi":5,"seat":3,"quiet":2.5,"tasty":5,"cheap":3,"music":3.5,"url":"https:\/\/www.facebook.com\/Sokosocafe\/?fref=ts","address":"\u5f70\u5316\u7e23\u5f70\u5316\u5e02\u83ef\u5c71\u8def9\u865f","latitude":"24.07430230","longitude":"120.54328250","limited_time":"","socket":"no","standing_desk":"","mrt":"","open_time":""},{"id":"c89a99c5-95ae-4909-93e5-59bebaf876d1","name":"Yolo cafe","city":"changhua","wifi":5,"seat":4.5,"quiet":4.5,"tasty":3.5,"cheap":3,"music":5,"url":"https:\/\/www.facebook.com\/yolocafe.tw\/","address":"\u5f70\u5316\u7e23\u5f70\u5316\u5e02\u4e2d\u6b63\u8def\u4e00\u6bb5430\u865f","latitude":"24.08280000","longitude":"120.54268500","limited_time":"","socket":"","standing_desk":"","mrt":"","open_time":""},{"id":"c99622aa-bbc8-4153-9c63-6034c62ba34b","name":"\u6469\u9732\u5561 MoLuFi Cafe","city":"changhua","wifi":5,"seat":5,"quiet":5,"tasty":4,"cheap":5,"music":4,"url":"https:\/\/www.facebook.com\/moluficafe\/","address":"510\u5f70\u5316\u7e23\u54e1\u6797\u5e02\u6210\u529f\u6771\u8def317\u5df722\u865f","latitude":"23.95809550","longitude":"120.58290150","limited_time":"no","socket":"maybe","standing_desk":"yes","mrt":"","open_time":"11:00~21:00"},{"id":"cf4efb0a-7693-4c25-83f6-3b0d1374edcc","name":"\u8207\u5496\u5561 And. Coffee","city":"changhua","wifi":5,"seat":4,"quiet":4,"tasty":5,"cheap":5,"music":5,"url":"","address":"\u5f70\u5316\u7e23\u5317\u6597\u93ae\u6597\u82d1\u8def\u4e00\u6bb5379\u865f","latitude":"23.87223780","longitude":"120.51925050","limited_time":"maybe","socket":"maybe","standing_desk":"yes","mrt":"","open_time":""},{"id":"cf9f4a37-905e-4f28-8d31-f3c619ff7632","name":"\u6751\u4e0a\u73c8\u7432","city":"changhua","wifi":3,"seat":5,"quiet":2,"tasty":5,"cheap":4,"music":3,"url":"https:\/\/www.facebook.com\/\u6751\u4e0a\u73c8\u7432-\u5f70\u5316\u91d1\u99ac\u8def\u9580\u5e02-1395031783924352\/","address":"\u5f70\u5316\u5e02\u5efa\u570b\u5317\u8def238\u865f","latitude":"24.09669000","longitude":"120.54926600","limited_time":"no","socket":"yes","standing_desk":"no","mrt":"","open_time":""},{"id":"d4078620-766a-4c05-8b33-a959d859a926","name":"Golden Lumi\u00e9re Caf\u00e9 \u91d1\u838e\u6642\u5149\u5496\u5561\u9928","city":"changhua","wifi":0,"seat":0,"quiet":0,"tasty":0,"cheap":0,"music":0,"url":"https:\/\/www.facebook.com\/glcafe\/","address":"\u5f70\u5316\u7e23\u548c\u7f8e\u93ae\u5f70\u7f8e\u8def\u4e94\u6bb5159\u865f","latitude":"24.10814760","longitude":"120.50180530","limited_time":"","socket":"","standing_desk":"","mrt":"","open_time":""},{"id":"d41ebeed-a6f4-4205-b815-fcf9fa039b98","name":"\u9802\u5ba2\u4f86\u5496\u5561","city":"changhua","wifi":0,"seat":0,"quiet":5,"tasty":5,"cheap":5,"music":0,"url":"https:\/\/m.facebook.com\/Dinkeleycafe","address":"\u5f70\u5316\u7e23\u57e4\u982d\u9109\u6587\u9109\u5357\u8857103\u865f","latitude":"23.88890780","longitude":"120.45805800","limited_time":"no","socket":"maybe","standing_desk":"no","mrt":"","open_time":""},{"id":"e5d2f02c-6723-463b-885b-a9802dc6799b","name":"Bon Voyage Patisserie \u611f\u5b98\u4e4b\u65c5","city":"changhua","wifi":5,"seat":5,"quiet":4,"tasty":5,"cheap":4,"music":5,"url":"https:\/\/www.facebook.com\/BonVoyagePatisserie\/","address":"\u5f70\u5316\u5e02\u81ea\u5f37\u8def102\u865f","latitude":"24.08967400","longitude":"120.54065600","limited_time":"no","socket":"yes","standing_desk":"","mrt":"","open_time":"\u9031\u4e09-\u9031\u65e5  12\uff1a00-20\uff1a00"},{"id":"ebb1b04f-8f62-4d92-83e9-5e79ad4ebb29","name":"\u8fe5\u756b\u5eca\u5496\u5561","city":"changhua","wifi":3.5,"seat":4.5,"quiet":4.5,"tasty":4,"cheap":2.5,"music":4.5,"url":"https:\/\/www.facebook.com\/ChanghuaLanCafe","address":"\u5f70\u5316\u7e23\u54e1\u6797\u5e02\u53f0\u9cf3\u8def2\u865f","latitude":"23.96341000","longitude":"120.56843800","limited_time":"","socket":"","standing_desk":"","mrt":"","open_time":""},{"id":"edad1d9d-d339-42aa-a7bb-2bd9ef5a02b5","name":"\u52a0\u5564\u5496\u5561 +B CAF\u00c9","city":"changhua","wifi":5,"seat":5,"quiet":5,"tasty":5,"cheap":4,"music":5,"url":"https:\/\/www.instagram.com\/plusbcafe\/","address":"\u5f70\u5316\u5e02\u5ef6\u5e73\u8def558\u865f1\u6a13","latitude":"24.06308540","longitude":"120.53800660","limited_time":"maybe","socket":"maybe","standing_desk":"yes","mrt":"","open_time":""},{"id":"f533573a-3a1b-4183-8834-b142bdc29185","name":"Stable Fly \u7a69\u5b9a\u98db\u884c\u6a21\u5f0f","city":"changhua","wifi":5,"seat":5,"quiet":4,"tasty":5,"cheap":4,"music":5,"url":"https:\/\/www.facebook.com\/StableFly","address":"\u5f70\u5316\u7e23\u5f70\u5316\u5e02\u6c38\u6a02\u885744\u5df72\u865f","latitude":"24.07624810","longitude":"120.54379970","limited_time":"maybe","socket":"yes","standing_desk":"yes","mrt":"","open_time":""},{"id":"f8d26034-0353-4034-8e5e-a3918a2c3003","name":"The Planet \u661f\u7403\u5496\u5561","city":"changhua","wifi":5,"seat":5,"quiet":4,"tasty":3,"cheap":3,"music":4,"url":"https:\/\/www.facebook.com\/THEplanet8\/?fref=ts","address":"\u5f70\u5316\u7e23\u5f70\u5316\u5e02\u4e2d\u83ef\u8def260\u865f","latitude":"24.07770900","longitude":"120.53757700","limited_time":"no","socket":"maybe","standing_desk":"no","mrt":"","open_time":"9:30 - 22:00"},{"id":"fd53a7eb-c299-42f7-86f3-7be84a1cc318","name":"\u672c\u5fc3\u5496\u5561","city":"changhua","wifi":5,"seat":5,"quiet":5,"tasty":5,"cheap":5,"music":5,"url":"https:\/\/www.facebook.com\/followyourheart.tw\/","address":"\u5f70\u5316\u7e23\u54e1\u6797\u5e02\u975c\u4fee\u8def64\u865f1\u6a13","latitude":"23.96205190","longitude":"120.56717300","limited_time":"maybe","socket":"no","standing_desk":"yes","mrt":"","open_time":"\u7279\u6b8a\u5e97\u4f11\u6703\u516c\u4f48\u5728\u7c89\u7d72\u5718"},{"id":"ffcf66fd-7044-4b51-9c67-406488ffd976","name":"Bruce Coffee\u81ea\u5bb6\u7119\u714e\u5496\u5561","city":"changhua","wifi":0,"seat":5,"quiet":4,"tasty":5,"cheap":5,"music":4,"url":"","address":"\u5f70\u5316\u7e23\u4f38\u6e2f\u9109\u4e2d\u5c71\u6771\u8def119\u865f","latitude":"24.14761380","longitude":"120.48789670","limited_time":"no","socket":"maybe","standing_desk":"yes","mrt":"","open_time":""}]}