{"data":[{"id":"00014645-38c8-4eb4-ad9b-faa871d7e511","name":"R5\u5c0f\u9910\u9928","city":"chiayi","wifi":5,"seat":5,"quiet":5,"tasty":5,"cheap":5,"music":5,"url":"https:\/\/www.facebook.com\/r5.bistro","address":"\u5609\u7fa9\u5e02\u6771\u5340\u5fe0\u5b5d\u8def205\u865f","latitude":"23.48386540","longitude":"120.45358340","limited_time":"maybe","socket":"maybe","standing_desk":"no","mrt":"","open_time":"11:30~21:00"},{"id":"051b007e-6b16-45f3-a034-d38846f08dd7","name":"\u80e1\u6c38\u6cf0\u5496\u5561\u5e97(\u4ec1\u611b)","city":"chiayi","wifi":4,"seat":3,"quiet":2,"tasty":4,"cheap":5,"music":3,"url":"","address":"\u5609\u7fa9\u5e02\u897f\u5340\u4ec1\u611b\u8def149\u865f1\u6a13","latitude":"23.46938540","longitude":"120.44284780","limited_time":"no","socket":"no","standing_desk":"yes","mrt":"","open_time":""},{"id":"061efc0b-2b3a-4174-9d24-f12ecd757b2f","name":"\u85cf.\u5496\u5561\u5609\u7fa9\u4e2d\u5c71\u5e97 CANG CAFE","city":"chiayi","wifi":3.5,"seat":4,"quiet":3.5,"tasty":4,"cheap":5,"music":3.5,"url":"https:\/\/www.facebook.com\/cangcoffee\/","address":"600\u5609\u7fa9\u5e02\u6771\u5340\u4e2d\u5c71\u8def233\u865f ","latitude":"23.48080090","longitude":"120.45179210","limited_time":"","socket":"yes","standing_desk":"no","mrt":"","open_time":""},{"id":"06e08ad7-6445-489c-8b09-985450c1c2fb","name":"\u79d8\u6c0f\u5496\u5561\u5609\u7fa9\u5e97","city":"chiayi","wifi":0,"seat":0,"quiet":0,"tasty":0,"cheap":0,"music":0,"url":"","address":"600\u5609\u7fa9\u5e02\u897f\u5340\u5ef6\u5e73\u8857288\u865f","latitude":"23.47670540","longitude":"120.44829100","limited_time":"","socket":"","standing_desk":"","mrt":"","open_time":""},{"id":"0ad49d07-623f-4fda-975e-edf97185b966","name":"Morikoohii\u68ee\u5496\u5561","city":"chiayi","wifi":0,"seat":0,"quiet":0,"tasty":0,"cheap":0,"music":0,"url":"https:\/\/www.facebook.com\/morikoohii\/","address":"\u5609\u7fa9\u5e02\u6771\u5340\u5171\u548c\u8def199\u5df71\u865f","latitude":"23.48602550","longitude":"120.45414080","limited_time":"","socket":"","standing_desk":"","mrt":"","open_time":""},{"id":"0bacad72-eab5-46b7-bd22-289ed8c7af2f","name":"\u6b63\u65b9\u82b3Cafe","city":"chiayi","wifi":0,"seat":0,"quiet":0,"tasty":0,"cheap":0,"music":0,"url":"https:\/\/www.facebook.com\/PositiveFengFeng\/","address":"600\u5609\u7fa9\u5e02\u6771\u5340\u6797\u68ee\u6771\u8def103\u865f","latitude":"23.48695810","longitude":"120.45664810","limited_time":"maybe","socket":"maybe","standing_desk":"","mrt":"","open_time":""},{"id":"105e0bb1-34f2-4ce9-a3c9-6efc356200b1","name":"Louisa Coffee \u8def\u6613\uff0e\u838e\u5496\u5561(\u5609\u7fa9\u5713\u74b0\u9580\u5e02)","city":"chiayi","wifi":0,"seat":0,"quiet":0,"tasty":0,"cheap":0,"music":0,"url":"","address":"600\u5609\u7fa9\u5e02\u897f\u5340\u4e2d\u5c71\u8def294\u865f","latitude":"23.48008060","longitude":"120.44935830","limited_time":"","socket":"maybe","standing_desk":"no","mrt":"","open_time":""},{"id":"128e428b-c609-419e-a3e2-29f7a596aa76","name":"\u5c0f\u53e3\u54c1S","city":"chiayi","wifi":5,"seat":4,"quiet":5,"tasty":5,"cheap":5,"music":5,"url":"https:\/\/www.facebook.com\/xiaokoupin\/","address":"\u5609\u7fa9\u5e02\u5149\u5f69\u8857453\u865f","latitude":"23.47790720","longitude":"120.44698480","limited_time":"no","socket":"","standing_desk":"","mrt":"","open_time":"10:30~19:00"},{"id":"15c26d3a-e1b9-477b-b8a0-dddfc5c04c98","name":"\u6162\u9748\u9b42 Slow Soul Coffee","city":"chiayi","wifi":5,"seat":4,"quiet":5,"tasty":5,"cheap":5,"music":5,"url":"https:\/\/www.facebook.com\/slowsoulcoffee\/","address":"\u5609\u7fa9\u5e02\u6c11\u96c4\u9109\u897f\u5b89\u6751\u5fa9\u8208\u8def93\u865f","latitude":"23.55782610","longitude":"120.42854150","limited_time":"","socket":"","standing_desk":"","mrt":"","open_time":""},{"id":"17f21982-63ac-4f66-9167-fce5389bf016","name":"VR \u6587\u68ee\u5bb6\u5c0f\u8336\u9928","city":"chiayi","wifi":5,"seat":5,"quiet":4,"tasty":0,"cheap":4,"music":5,"url":"https:\/\/m.facebook.com\/vr.tea.house\/?locale2=zh_TW","address":"\u5609\u7fa9\u5e02\u897f\u5340\u91cd\u6176\u8def322\u865f","latitude":"23.46384470","longitude":"120.43277220","limited_time":"","socket":"maybe","standing_desk":"yes","mrt":"","open_time":"\u9031\u56db\u9031\u4e94\u516c\u4f11"},{"id":"185290e1-8333-4b9a-8f48-0890dabe8a98","name":"Picgather\u543e\u53cb\u91ce\u4e8b","city":"chiayi","wifi":5,"seat":5,"quiet":5,"tasty":5,"cheap":5,"music":5,"url":"https:\/\/www.facebook.com\/picgather","address":"\u5609\u7fa9\u7e23\u4e2d\u57d4\u9109\u548c\u8208\u6751\u516c\u992897-20\u865f","latitude":"23.43574380","longitude":"120.45036780","limited_time":"no","socket":"yes","standing_desk":"no","mrt":"","open_time":""},{"id":"191f2fcf-4e60-407c-b4f9-bcffbbbc6a5d","name":"\u7396\u5496\u5561","city":"chiayi","wifi":5,"seat":5,"quiet":4,"tasty":5,"cheap":4,"music":5,"url":"https:\/\/www.facebook.com\/jioucafe\/","address":"\u5609\u7fa9\u5e02\u6771\u5340\u8208\u696d\u6771\u8def387\u865f","latitude":"23.46993570","longitude":"120.45847980","limited_time":"no","socket":"maybe","standing_desk":"yes","mrt":"","open_time":"\u9031\u4e00\u4e09\u56db\u65e5\uff1a13:00~22:00\uff0c\u9031\u4e94\u9031\u516d\uff1a13:00~23:00\uff0c\u9031\u4e8c\u516c\u4f11"},{"id":"1a09f263-5d9e-44df-857b-106f7ac646b2","name":"Coffeeology\u5496\u5561\u5b78","city":"chiayi","wifi":5,"seat":4,"quiet":2.5,"tasty":4,"cheap":5,"music":4,"url":"https:\/\/www.facebook.com\/coffeeologylove\/","address":"\u5609\u7fa9\u7e23\u6c11\u96c4\u9109\u6587\u5316\u8def30-25\u865f","latitude":"23.55261200","longitude":"120.43035500","limited_time":"maybe","socket":"maybe","standing_desk":"","mrt":"","open_time":""},{"id":"1e48f4fa-8a3a-4616-9b80-ce811185dacf","name":"\u7c21\u55ae\u5496\u5561","city":"chiayi","wifi":0,"seat":5,"quiet":5,"tasty":3,"cheap":5,"music":4,"url":"https:\/\/www.facebook.com\/cafesimplecafe\/","address":"\u5609\u7fa9\u5e02\u6c11\u6b0a\u8def55\u865f","latitude":"23.48412590","longitude":"120.46305290","limited_time":"no","socket":"maybe","standing_desk":"no","mrt":"","open_time":""},{"id":"23d131fd-881b-4e4b-92b1-fcb8470cfe3d","name":"\u5947\u559a\u5496\u5561","city":"chiayi","wifi":0,"seat":0,"quiet":0,"tasty":0,"cheap":0,"music":0,"url":"","address":"600\u5609\u7fa9\u5e02\u897f\u5340\u4fdd\u5b89\u4e00\u8def\u4fdd\u5b89\u5e02\u583429\u865f","latitude":"23.49293710","longitude":"120.43564170","limited_time":"","socket":"","standing_desk":"","mrt":"","open_time":""},{"id":"2871bf0f-b1e3-4317-88d6-10b9faade4b8","name":"\u5e78\u798f\u539f\u5728","city":"chiayi","wifi":4,"seat":4,"quiet":4,"tasty":5,"cheap":3,"music":3,"url":"https:\/\/m.facebook.com\/%E5%B9%B8%E7%A6%8F%E5%8E%9F%E5%9C%A8-503529266441072\/timeline\/","address":"\u5609\u7fa9\u5e02\u7dad\u65b0\u8def135\u865f","latitude":"23.48449660","longitude":"120.45825470","limited_time":"no","socket":"no","standing_desk":"yes","mrt":"","open_time":"\u65e9\u4e0a10:00~\u665a\u4e0a8:00"},{"id":"2a06c50a-5b33-4528-917a-f94e7e28373f","name":"\u5c71\u591a\u65af\u5496\u5561","city":"chiayi","wifi":0,"seat":5,"quiet":5,"tasty":5,"cheap":5,"music":3,"url":"https:\/\/www.facebook.com\/%E5%B1%B1%E5%A4%9A%E6%96%AF%E5%92%96%E5%95%A1%E7%83%98%E7%84%99-148269725185422\/notifications\/","address":"\u5609\u7fa9\u7e23\u6c11\u96c4\u9109\u4fdd\u751f\u885767\u865f","latitude":"23.55299920","longitude":"120.42798750","limited_time":"maybe","socket":"no","standing_desk":"no","mrt":"","open_time":""},{"id":"2cb45737-4dd8-4231-b280-f7e881622add","name":"\u8c46\u8b9a\u5496\u5561\u838a\u5712","city":"chiayi","wifi":0,"seat":0,"quiet":0,"tasty":0,"cheap":0,"music":0,"url":"","address":"606\u5609\u7fa9\u7e23\u4e2d\u57d4\u91092\u91307\u865f","latitude":"23.36927360","longitude":"120.51517010","limited_time":"","socket":"","standing_desk":"","mrt":"","open_time":""},{"id":"3a211ab5-5876-4413-8d25-3606c5d034a1","name":"Sumi Apron Coffee","city":"chiayi","wifi":0,"seat":0,"quiet":0,"tasty":0,"cheap":0,"music":0,"url":"","address":"60077\u5609\u7fa9\u5e02\u6771\u5340\u6771\u6d0b\u65b0\u90a8136\u865f","latitude":"23.48317560","longitude":"120.48962980","limited_time":"","socket":"","standing_desk":"","mrt":"","open_time":""},{"id":"3ab5c987-da35-4930-abc2-40966c3bb4a6","name":"\u6728\u6728\u5f61 mumushan.dessert","city":"chiayi","wifi":0,"seat":3,"quiet":4,"tasty":5,"cheap":5,"music":5,"url":"","address":"\u5609\u7fa9\u5e02\u897f\u5340\u897f\u69ae\u8857267\u865f","latitude":"23.48082450","longitude":"120.44482090","limited_time":"maybe","socket":"no","standing_desk":"no","mrt":"","open_time":""},{"id":"3df93a47-1d47-47ae-b8b2-ee035140293f","name":"33\u865f\u5496\u5561\u5e97","city":"chiayi","wifi":0,"seat":0,"quiet":0,"tasty":0,"cheap":0,"music":0,"url":"","address":"600\u5609\u7fa9\u5e02\u6771\u5340\u7fa9\u6559\u6771\u8def49\u865f600","latitude":"23.49292560","longitude":"120.46873640","limited_time":"","socket":"","standing_desk":"","mrt":"","open_time":""},{"id":"470c4807-af38-45fd-9c87-2f933102715a","name":"Mimico cafe \u79d8\u5bc6\u5ba2\u5496\u5561\u9928","city":"chiayi","wifi":5,"seat":5,"quiet":5,"tasty":5,"cheap":5,"music":5,"url":"https:\/\/www.facebook.com\/mimicocafe\/","address":"600\u5609\u7fa9\u5e02\u6771\u5340\u8208\u4e2d\u8857200-1\u865f","latitude":"23.48366810","longitude":"120.44989820","limited_time":"no","socket":"no","standing_desk":"yes","mrt":"","open_time":"10:00\uff5e22:00"},{"id":"4b39f2a2-c43d-4bce-9d3c-ec17c43c9460","name":"\u62fe\u65ec\u5496\u5561","city":"chiayi","wifi":0,"seat":0,"quiet":0,"tasty":0,"cheap":0,"music":0,"url":"https:\/\/shuncoffee.com","address":"\u5609\u7fa9\u7e23\u4e2d\u57d4\u9109\u548c\u7f8e\u6751220-10","latitude":"23.45359470","longitude":"120.47089570","limited_time":"no","socket":"no","standing_desk":"no","mrt":"","open_time":""},{"id":"4b5f9588-e75c-43d6-952d-e5caca1caf6d","name":"Baron Scones","city":"chiayi","wifi":0,"seat":0,"quiet":0,"tasty":0,"cheap":0,"music":0,"url":"","address":"600\u5609\u7fa9\u5e02\u6771\u5340\u5eb7\u6a02\u885736\u865f","latitude":"23.47532490","longitude":"120.45284200","limited_time":"","socket":"","standing_desk":"","mrt":"","open_time":""},{"id":"514cc9cd-5d41-473e-aa70-3e591b7b9865","name":"\u971c\u7a7a\u5496\u5561","city":"chiayi","wifi":0,"seat":0,"quiet":0,"tasty":0,"cheap":0,"music":0,"url":"","address":"600\u5609\u7fa9\u5e02\u897f\u5340\u570b\u83ef\u8857132\u865f","latitude":"23.47788180","longitude":"120.44873530","limited_time":"","socket":"","standing_desk":"","mrt":"","open_time":""},{"id":"5cdc727b-700f-420a-9bff-ace6252d7edb","name":"\u5047\u65e5\u5496\u5561-\u81ea\u5bb6\u70d8\u7119","city":"chiayi","wifi":4,"seat":5,"quiet":5,"tasty":4,"cheap":4,"music":5,"url":"https:\/\/m.facebook.com\/JiaRihCafe\/","address":"\u5609\u7fa9\u5e02\u6771\u5340\u5782\u694a\u8def167\u865f","latitude":"23.47456090","longitude":"120.45717570","limited_time":"no","socket":"no","standing_desk":"yes","mrt":"","open_time":"\u4e09\u56db\u4e94\u516d"},{"id":"6321fe7c-5b33-47e1-a7c6-1a97ab7405c6","name":"AMON \u5496\u5561\u6240","city":"chiayi","wifi":4,"seat":4,"quiet":4,"tasty":5,"cheap":4,"music":5,"url":"https:\/\/www.facebook.com\/AMONCafe666\/","address":"\u5609\u7fa9\u5e02\u5e02\u5b85\u885722\u5df75\u5f045\u865f","latitude":"23.47402860","longitude":"120.45987390","limited_time":"no","socket":"no","standing_desk":"no","mrt":"","open_time":"\u9031\u4e8c\u5230\u9031\u65e5\uff1a13:00~21:00\uff0c\u9031\u4e00\u516c\u4f11"},{"id":"641a2f0a-945f-45c4-8d92-f446815719f7","name":"\u4e8c\u901a672","city":"chiayi","wifi":4,"seat":4,"quiet":3,"tasty":4,"cheap":4,"music":4,"url":"https:\/\/www.facebook.com\/Niton672\/","address":"\u5609\u7fa9\u5e02\u897f\u5340\u4e2d\u6b63\u8def672\u865f","latitude":"23.47862600","longitude":"120.44353300","limited_time":"no","socket":"maybe","standing_desk":"no","mrt":"","open_time":"\u4e8c\u4e09\u56db10:00 - 22:00 \u4e94\u516d\u65e512:00 - 22:00 \u5468\u4e00\u4f11"},{"id":"654d93d8-30bd-46da-a606-e40224676a2b","name":"\u6728\u66f4\u5496\u5561 Mugeneration \u6a9c\u610f\u5e97","city":"chiayi","wifi":0,"seat":3.5,"quiet":3.5,"tasty":5,"cheap":5,"music":5,"url":"https:\/\/m.facebook.com\/mugeneration189\/","address":"\u5609\u7fa9\u5e02\u5171\u548c\u8def356\u5df75\u865f","latitude":"23.48497140","longitude":"120.45522640","limited_time":"maybe","socket":"yes","standing_desk":"no","mrt":"","open_time":""},{"id":"65f18bfd-95c7-4932-85e7-bfef5add789a","name":"Daisy\u7684\u96dc\u8ca8\u5e97","city":"chiayi","wifi":0,"seat":0,"quiet":0,"tasty":0,"cheap":0,"music":0,"url":"https:\/\/www.facebook.com\/fuxiaxdaisy\/","address":"\u5609\u7fa9\u5e02\u6771\u5340\u7dad\u65b0\u8def73\u865f","latitude":"23.48162020","longitude":"120.45869210","limited_time":"maybe","socket":"","standing_desk":"yes","mrt":"","open_time":"\u7121\u516c\u4f11\uff0c\u4f11\u5047\u53e6\u884c\u516c\u544a\u3002"},{"id":"701fc291-5bf4-4dca-a3d9-3510c1150ff8","name":"FERNS\u8568\u9192\u5496\u5561","city":"chiayi","wifi":4,"seat":5,"quiet":5,"tasty":5,"cheap":5,"music":5,"url":"https:\/\/www.facebook.com\/FernsCoffee.138\/","address":"\u5609\u7fa9\u5e02\u5fe0\u7fa9\u8857138\u865f","latitude":"23.48028200","longitude":"120.44730160","limited_time":"no","socket":"no","standing_desk":"yes","mrt":"","open_time":"08\uff1a30\uff5e20\uff1a00"},{"id":"751fcb18-a285-4545-9e60-fcf758c67b8e","name":"\u9112\u7bc9\u5712\u89c0\u5149\u4f11\u9592\u8fb2\u838a","city":"chiayi","wifi":0,"seat":0,"quiet":0,"tasty":0,"cheap":0,"music":0,"url":"","address":"605\u5609\u7fa9\u7e23\u963f\u91cc\u5c71\u9109","latitude":"23.43546770","longitude":"120.78096760","limited_time":"","socket":"","standing_desk":"","mrt":"","open_time":""},{"id":"7ad3de68-2d10-4f29-a37c-4b012cef7feb","name":"Yoi\u50a2\u4ff1\u6a02\u7aa9","city":"chiayi","wifi":5,"seat":5,"quiet":5,"tasty":3,"cheap":5,"music":5,"url":"https:\/\/zh-tw.facebook.com\/yoitheworld\/","address":"\u5609\u7fa9\u5e02\u9ad4\u80b2\u8def51\u865f","latitude":"23.47456600","longitude":"120.46156700","limited_time":"no","socket":"yes","standing_desk":"yes","mrt":"","open_time":"11:00-20:30"},{"id":"82137813-b2c5-4678-96e0-a30d32d23e0f","name":"\u6155 \u73c8\u7432\u9928","city":"chiayi","wifi":0,"seat":5,"quiet":4,"tasty":4,"cheap":3,"music":5,"url":"https:\/\/www.facebook.com\/%E6%85%95-%E7%8F%88%E7%90%B2%E5%BA%97-405533529883077","address":"\u5609\u7fa9\u5e02\u6771\u5340\u5b89\u6a02\u8857156\u865f","latitude":"23.48267820","longitude":"120.45637120","limited_time":"","socket":"","standing_desk":"no","mrt":"","open_time":""},{"id":"8765e0be-68ce-4d44-b470-e6d9022b61ad","name":"\u66ae\u68ee\u5496\u5561","city":"chiayi","wifi":5,"seat":5,"quiet":5,"tasty":5,"cheap":4.5,"music":4.5,"url":"https:\/\/www.facebook.com\/Musencoffee\/","address":"\u5609\u7fa9\u5e02\u8208\u696d\u6771\u8def115\u5df712\u865f","latitude":"0.00000000","longitude":"0.00000000","limited_time":"no","socket":"maybe","standing_desk":"no","mrt":"","open_time":"\u79ae\u62dc\u3127-\u79ae\u62dc\u65e5"},{"id":"8b8bc93e-96d1-4384-bf79-5b279b66dd05","name":"\u5f8c\u7ad9 \u6f2b\u6642\u5149","city":"chiayi","wifi":0,"seat":0,"quiet":0,"tasty":0,"cheap":0,"music":0,"url":"https:\/\/www.facebook.com\/time.truth\/","address":"\u5609\u7fa9\u5e02\u9060\u6771\u88572\u865f","latitude":"23.48861140","longitude":"120.44097930","limited_time":"","socket":"","standing_desk":"","mrt":"","open_time":"\u9031\u4e8c\uff5e\u65e5\uff1a09:00 - 21:00 \u9031\u4e00\u516c\u4f11"},{"id":"8bd97acf-32ad-4fda-8c2f-ec67d704778f","name":"\u6a9c\u610f\u68ee\u6d3b\u6751T14C\u9d3b\u8c46\u738b\u570b\u53f0\u7063\u7cbe\u54c1\u5496\u5561","city":"chiayi","wifi":0,"seat":0,"quiet":0,"tasty":0,"cheap":0,"music":0,"url":"","address":"\u6a9c\u610f\u68ee\u6d3b\u6751T14C\u9d3b\u8c46\u738b\u570b\u53f0\u7063\u7cbe\u54c1\u5496\u5561","latitude":"23.48606870","longitude":"120.45454570","limited_time":"","socket":"","standing_desk":"","mrt":"","open_time":""},{"id":"8f5bd357-04cf-4391-a574-ff1c5c51e922","name":"OWL COFFEE \u8c93\u982d\u9df9\u5496\u5561","city":"chiayi","wifi":0,"seat":0,"quiet":0,"tasty":0,"cheap":0,"music":0,"url":"https:\/\/www.facebook.com\/owlcoffee2014","address":"600\u5609\u7fa9\u5e02\u6771\u5340\u6c11\u6b0a\u8def369-3\u865f","latitude":"23.48228340","longitude":"120.45047940","limited_time":"","socket":"","standing_desk":"","mrt":"","open_time":""},{"id":"907c71b4-60a0-4b49-89af-3319a4449796","name":"85\u5ea6C\u65b0\u6c11\u5e97","city":"chiayi","wifi":0,"seat":0,"quiet":0,"tasty":0,"cheap":0,"music":0,"url":"","address":"\u65b0\u5317\u5e02\u677f\u6a4b\u5340\u6587\u5316\u8def\u4e00\u6bb5186\u865f","latitude":"25.01954240","longitude":"121.46588350","limited_time":"","socket":"","standing_desk":"","mrt":"","open_time":""},{"id":"93fbedad-e6c2-48eb-b5e6-48f305fc81a2","name":"\u521d\u5496\u5561-The Origin Specialty Coffee Roaster ","city":"chiayi","wifi":4,"seat":5,"quiet":5,"tasty":5,"cheap":4.5,"music":4,"url":"http:\/\/www.facebook.com\/theorigincoffee ","address":"\u5609\u7fa9\u5e02\u897f\u5340\u529b\u884c\u885715\u865f","latitude":"23.47354240","longitude":"120.43796180","limited_time":"maybe","socket":"maybe","standing_desk":"no","mrt":"","open_time":""},{"id":"959f5610-a09f-45b2-ae6c-8407a3a76526","name":"\u5bd2\u6eaa\u5462\u5496\u5561\u5ef3","city":"chiayi","wifi":0,"seat":5,"quiet":3,"tasty":3,"cheap":3,"music":5,"url":"","address":"603\u5609\u7fa9\u7e23\u6885\u5c71\u9109\u592a\u548c\u6751\u793e\u5f8c\u576a2\u964411","latitude":"23.55866610","longitude":"120.73398500","limited_time":"no","socket":"no","standing_desk":"no","mrt":"","open_time":""},{"id":"973665e6-207f-4d85-9d87-dc0a4813301b","name":"832 Coffee Roasters_\u634c\u53c3\u8cb3\u7119\u714e\u6240","city":"chiayi","wifi":5,"seat":4,"quiet":5,"tasty":5,"cheap":4,"music":5,"url":"https:\/\/www.facebook.com\/832coffee\/","address":"\u5609\u7fa9\u5e02\u6771\u5340\u6210\u4ec1\u8857228\u865f","latitude":"23.48296460","longitude":"120.45118160","limited_time":"maybe","socket":"maybe","standing_desk":"no","mrt":"","open_time":""},{"id":"99e9983b-5ca4-4514-8167-f7f7de068db1","name":"\u878d\u5408\u5ea6\u5496\u5561","city":"chiayi","wifi":5,"seat":5,"quiet":4,"tasty":5,"cheap":5,"music":4.5,"url":"https:\/\/www.facebook.com\/%E8%9E%8D%E5%90%88%E5%BA%A6%E5%92%96%E5%95%A1-%E5%98%89%E7%BE%A9%E4%BA%BA%E6%83%85%E5%91%B3-619704534780616\/?ref=ts&fref=ts","address":"\u5609\u7fa9\u5e02\u4e2d\u5c71\u8def223\u865f","latitude":"23.48092350","longitude":"120.45210870","limited_time":"no","socket":"maybe","standing_desk":"","mrt":"","open_time":""},{"id":"9b98f0ad-a880-42b6-9070-d4537ad001bc","name":"\u5496\u5561\u4eba\u81ea\u5bb6\u70d8\u7119","city":"chiayi","wifi":0,"seat":5,"quiet":5,"tasty":5,"cheap":4,"music":4,"url":"https:\/\/m.facebook.com\/profile.php?id=1384396911787087","address":"\u5609\u7fa9\u5e02\u6c11\u570b\u8def170\u865f","latitude":"23.48124480","longitude":"120.46006260","limited_time":"no","socket":"maybe","standing_desk":"no","mrt":"","open_time":"\u4e8c\u4e09\u56db\u4e94\u516d\u65e5"},{"id":"9e5450ee-f870-42ad-98cc-d07d519132c2","name":"\u5353\u6b66\u5496\u5561","city":"chiayi","wifi":5,"seat":5,"quiet":4,"tasty":4,"cheap":4,"music":4.5,"url":"","address":"\u5609\u7fa9\u5e02\u897f\u5340\u6c11\u751f\u5317\u8def194\u865f","latitude":"23.47870660","longitude":"120.44644140","limited_time":"yes","socket":"maybe","standing_desk":"yes","mrt":"","open_time":""},{"id":"a2446808-4456-4172-9429-a8a671db0d52","name":"\u4ed9\u4e95\u5496\u5561\u9928","city":"chiayi","wifi":5,"seat":5,"quiet":4,"tasty":5,"cheap":4,"music":4,"url":"","address":"\u5609\u7fa9\u7e23\u756a\u8def\u9109\u516c\u7530\u6751","latitude":"23.44809030","longitude":"120.64875080","limited_time":"maybe","socket":"no","standing_desk":"yes","mrt":"","open_time":"\u75ab\u60c5\u671f\u9593\u5e73\u65e5\u9700\u9810\u7d04"},{"id":"a8cbe7dd-0d6a-4234-82c0-d823dc924db3","name":"\u65b0\u92b3\u5496\u5561\u5609\u7fa9\u6c11\u751f\u5e97","city":"chiayi","wifi":0,"seat":0,"quiet":0,"tasty":0,"cheap":0,"music":0,"url":"","address":"600\u5609\u7fa9\u5e02\u897f\u5340\u6c11\u751f\u5317\u8def126\u865f","latitude":"23.47706590","longitude":"120.44665310","limited_time":"","socket":"","standing_desk":"","mrt":"","open_time":""},{"id":"a9e477c2-236b-401e-abd1-f99a9c6cbf7f","name":"\u6c5f\u9ce5\u5496\u5561- \u5609\u7fa9\u5433\u9cf3\u5317\u8def\u5e97","city":"chiayi","wifi":0,"seat":0,"quiet":0,"tasty":0,"cheap":0,"music":0,"url":"","address":"600\u5609\u7fa9\u5e02\u6771\u5340\u5433\u9cf3\u5317\u8def132\u865f","latitude":"23.47789830","longitude":"120.45344170","limited_time":"","socket":"","standing_desk":"","mrt":"","open_time":""},{"id":"ace2a1e9-d5da-4c11-bd71-f7c724924365","name":"Paseo \u897f\u6587\u2027\u5496\u5561 Estudio","city":"chiayi","wifi":0,"seat":0,"quiet":0,"tasty":0,"cheap":0,"music":0,"url":"https:\/\/www.facebook.com\/PaseoEstudio\/","address":"600\u5609\u7fa9\u5e02\u6771\u5340\u5fe0\u5b5d\u8def223\u865f","latitude":"23.48422090","longitude":"120.45361700","limited_time":"","socket":"","standing_desk":"no","mrt":"","open_time":""},{"id":"b57cb33d-ebe3-44a4-939f-1ea503fce9cc","name":"\u5f80\u524d\u5496\u5561","city":"chiayi","wifi":5,"seat":4,"quiet":3,"tasty":5,"cheap":3,"music":5,"url":"https:\/\/m.facebook.com\/FORWARD.COFFEE.TW\/?locale2=zh_TW","address":"600\u5609\u7fa9\u5e02\u6771\u5340\u8208\u4e2d\u8857203\u865f","latitude":"23.48394830","longitude":"120.44979700","limited_time":"no","socket":"maybe","standing_desk":"no","mrt":"","open_time":"\u6bcf\u6708\u521d\u516c\u5e03\u4f11\u5047\u65e5"},{"id":"b81672e2-9877-4262-8554-108a4535fcfb","name":"\u8056\u5854\u5496\u5561","city":"chiayi","wifi":4,"seat":4,"quiet":4,"tasty":5,"cheap":4,"music":3,"url":"http:\/\/www.stcoffee.tw","address":"\u5609\u7fa9\u5e02\u6771\u5340\u8208\u4e2d\u885710\u865f","latitude":"23.47525320","longitude":"120.45175390","limited_time":"no","socket":"no","standing_desk":"yes","mrt":"","open_time":"11:00\u201321:00"},{"id":"bb74f82b-f054-4dce-a8db-add26e1c28de","name":"\u5cb1coffee","city":"chiayi","wifi":0,"seat":0,"quiet":0,"tasty":0,"cheap":0,"music":0,"url":"https:\/\/www.facebook.com\/%E5%B2%B1coffee-235250100569757\/","address":"600\u5609\u7fa9\u5e02\u6771\u5340\u6c11\u570b\u8def179\u865f","latitude":"23.48020150","longitude":"120.46005120","limited_time":"","socket":"","standing_desk":"","mrt":"","open_time":""},{"id":"bed52108-4d2a-4432-b888-2b75808ae745","name":"\u82b1\u78da\u5496\u5561\u3002\u6dfa\u5690\u9928","city":"chiayi","wifi":0,"seat":3,"quiet":4,"tasty":4,"cheap":5,"music":4,"url":"","address":"\u5609\u7fa9\u5e02\u6771\u5340\u516c\u660e\u8def59\u865f\u4e4b1","latitude":"23.48057420","longitude":"120.45894250","limited_time":"","socket":"","standing_desk":"","mrt":"","open_time":""},{"id":"c4c93aae-b594-4c97-a26f-f36a0883f700","name":"\u5c71\u8336\u82b1\u8207\u9e7f","city":"chiayi","wifi":4,"seat":3.5,"quiet":4,"tasty":3.5,"cheap":3.5,"music":3,"url":"","address":"\u5609\u7fa9\u5e02\u6771\u5340\u6210\u4ec1\u8857226\u865f","latitude":"23.48249240","longitude":"120.45130990","limited_time":"","socket":"","standing_desk":"","mrt":"","open_time":""},{"id":"c7677b82-8848-408a-8f3f-dc49b3d692de","name":"\u6728\u66f4MUGENERATION","city":"chiayi","wifi":5,"seat":4,"quiet":4,"tasty":4,"cheap":4,"music":5,"url":"https:\/\/www.facebook.com\/mugeneration191","address":"600\u5609\u7fa9\u5e02\u6771\u5340\u6210\u4ec1\u8857189\u865f","latitude":"23.48052950","longitude":"120.45201630","limited_time":"maybe","socket":"maybe","standing_desk":"no","mrt":"","open_time":""},{"id":"c9d1d4e3-8ab8-4c7d-a6c8-6cd80ff20ca4","name":"\u8ce3\u79c1\u5496\u5561","city":"chiayi","wifi":3,"seat":4,"quiet":4,"tasty":5,"cheap":5,"music":3,"url":"https:\/\/www.facebook.com\/mys.coffeeroast\/?fref=ts","address":"\u5609\u7fa9\u5e02\u6771\u5340\u5433\u9cf3\u5357\u8def15\u865f","latitude":"23.47356930","longitude":"120.45406860","limited_time":"no","socket":"no","standing_desk":"no","mrt":"","open_time":"\u9031\u4e00\u81f3\u9031\u516d\uff0c14\uff1a00\uff5e21\uff1a00"},{"id":"cf83bc86-02e1-4b70-842b-3253d30cd513","name":"33+V. Cafe","city":"chiayi","wifi":5,"seat":2,"quiet":3,"tasty":5,"cheap":4,"music":5,"url":"","address":"\u5609\u7fa9\u5e02\u6771\u5340\u6771\u7fa9\u8def160-2\u865f","latitude":"23.49523800","longitude":"120.46938490","limited_time":"","socket":"","standing_desk":"","mrt":"","open_time":""},{"id":"d21acc3a-80ac-4bb4-8e52-da8f4d757af7","name":"\u7fcc\u838e\u7cbe\u54c1\u5496\u5561 ISA COFFEE & CO.","city":"chiayi","wifi":5,"seat":5,"quiet":5,"tasty":5,"cheap":5,"music":5,"url":"https:\/\/www.facebook.com\/ISACoffeeCompany\/","address":"\u5609\u7fa9\u7e23\u6734\u5b50\u5e02\u6734\u5b50\u4e03\u8def16\u865f","latitude":"23.45687440","longitude":"120.28484530","limited_time":"maybe","socket":"no","standing_desk":"no","mrt":"","open_time":""},{"id":"df54f85b-26c3-4c24-83f4-a70e256dbeb9","name":"\u798f\u53cb\u5496\u5561 \u7e3d\u7d71\u5496\u5561","city":"chiayi","wifi":0,"seat":0,"quiet":0,"tasty":0,"cheap":0,"music":0,"url":"","address":"\u5609\u7fa9\u7e23\u4e2d\u57d4\u9109606683\u9130\u5341\u4e00\u865f\u4e4b\u5341\u516d","latitude":"23.42164190","longitude":"120.53213980","limited_time":"","socket":"","standing_desk":"","mrt":"","open_time":""},{"id":"e189af6d-e803-45f3-91e4-3696d596a5d0","name":"\u8def\u6613\u838e(\u535a\u611b\u5e97)","city":"chiayi","wifi":3,"seat":5,"quiet":4,"tasty":4,"cheap":4,"music":4,"url":"https:\/\/www.facebook.com\/louisa.chiayi.fraternite\/","address":"\u5609\u7fa9\u5e02\u535a\u611b\u8def\u4e8c\u6bb5864\u865f","latitude":"23.46448800","longitude":"120.42421400","limited_time":"no","socket":"yes","standing_desk":"no","mrt":"","open_time":""},{"id":"e29b5f97-74eb-4663-abe4-0a6734fac5d4","name":"cama cafe \u5609\u7fa9\u4e2d\u5c71\u5e97","city":"chiayi","wifi":4.5,"seat":3.5,"quiet":3.5,"tasty":4,"cheap":4.5,"music":4.5,"url":"https:\/\/www.facebook.com\/CamaCafeCyi\/","address":"\u5609\u7fa9\u5e02\u897f\u5340\u4e2d\u5c71\u8def441\u865f","latitude":"23.47958700","longitude":"120.44646680","limited_time":"no","socket":"maybe","standing_desk":"","mrt":"","open_time":""},{"id":"e54a9c55-d57e-4975-900e-07e686c576b7","name":"Evie's Cafe \u4f0a\u7c73\u5496\u5561","city":"chiayi","wifi":5,"seat":5,"quiet":5,"tasty":5,"cheap":4,"music":4,"url":"https:\/\/m.facebook.com\/eviescafe88\/","address":"\u5609\u7fa9\u5e02\u6771\u5340\u5171\u548c\u8def418\u865f(\u5317\u9580\u8eca\u7ad9\u65c1)","latitude":"23.48733640","longitude":"120.45479450","limited_time":"no","socket":"maybe","standing_desk":"yes","mrt":"","open_time":"\u9023\u5047\u53e6\u6709\u5176\u4ed6\u71df\u696d\u6642\u9593"},{"id":"e76cfb49-217b-4195-b0a0-64bd574fc475","name":"Blues\u85cd\u8abf\u5496\u5561","city":"chiayi","wifi":0,"seat":0,"quiet":0,"tasty":0,"cheap":0,"music":0,"url":"","address":"\u5609\u7fa9\u5e02\u9577\u69ae\u8857278\u865f","latitude":"23.48289040","longitude":"120.44694420","limited_time":"","socket":"","standing_desk":"","mrt":"","open_time":""},{"id":"eb2b1a4c-37f7-4269-9d75-0d17af0d0210","name":"Dadala cafe","city":"chiayi","wifi":0,"seat":4,"quiet":5,"tasty":4,"cheap":3,"music":5,"url":"","address":"600\u5609\u7fa9\u5e02\u6771\u5340\u5ef6\u5e73\u8857219\u865f","latitude":"23.47685960","longitude":"120.45123540","limited_time":"no","socket":"maybe","standing_desk":"yes","mrt":"","open_time":""},{"id":"ef4fb4af-523f-44ad-a749-b66aec9c9c1c","name":"\u7f8e\u597d\u5496\u5561","city":"chiayi","wifi":5,"seat":5,"quiet":3,"tasty":4,"cheap":3,"music":4,"url":"https:\/\/www.facebook.com\/mihocoffee\/","address":"\u5609\u7fa9\u5e02\u6771\u5340\u555f\u660e\u8def146\u865f","latitude":"23.47845410","longitude":"120.46239120","limited_time":"no","socket":"yes","standing_desk":"no","mrt":"","open_time":""},{"id":"f06ec8d1-e6ec-4227-9959-0eece09d158b","name":"\u5448\u5496\u5561","city":"chiayi","wifi":5,"seat":5,"quiet":5,"tasty":5,"cheap":5,"music":5,"url":"https:\/\/www.chengcoffee.com.tw\/","address":"600\u5609\u7fa9\u5e02\u6771\u5340\u5fe0\u5b5d\u8def611\u865f","latitude":"23.50282020","longitude":"120.44820820","limited_time":"no","socket":"maybe","standing_desk":"no","mrt":"","open_time":""},{"id":"f3175c1d-e750-4902-a7c0-f5da9b7ae7e0","name":"\u82b1\u78da\u5496\u5561","city":"chiayi","wifi":0,"seat":0,"quiet":0,"tasty":0,"cheap":0,"music":0,"url":"https:\/\/www.facebook.com\/%E8%8A%B1%E7%A3%9A%E5%92%96%E5%95%A1-103705373320238\/","address":"\u5609\u7fa9\u5e02\u6771\u5340\u5927\u96c5\u8def\u4e8c\u6bb5648\u865f","latitude":"23.47734580","longitude":"120.46696660","limited_time":"","socket":"","standing_desk":"","mrt":"","open_time":""},{"id":"f379f0aa-c725-47c9-bb98-4e0938f7e22a","name":"Coffee Room \u5496\u5561\u502b","city":"chiayi","wifi":5,"seat":5,"quiet":5,"tasty":5,"cheap":5,"music":4,"url":"https:\/\/www.facebook.com\/coffeeroomtw\/","address":"\u5609\u7fa9\u5e02\u897f\u5340\u4ec1\u611b\u8def21\u865f1F","latitude":"23.46661930","longitude":"120.44124360","limited_time":"no","socket":"maybe","standing_desk":"no","mrt":"","open_time":"09:30am-08:00pm"},{"id":"f6723281-481f-4ac3-99df-42fcae7d1a1f","name":"\u5496\u5561\u6f2b\u6b65","city":"chiayi","wifi":4,"seat":3,"quiet":3,"tasty":4,"cheap":3,"music":5,"url":"https:\/\/www.facebook.com\/Come-home-%E5%92%96%E5%95%A1%E6%BC%AB%E6%AD%A5-398144630232257\/","address":"\u5609\u7fa9\u5e02\u6771\u5340\u8208\u696d\u6771\u8def138\u865f","latitude":"23.46943310","longitude":"120.45738830","limited_time":"no","socket":"maybe","standing_desk":"no","mrt":"","open_time":"\u9031\u4e8c-\u9031\u56db12:00-20:00 \u9031\u4e94-\u9031\u65e512:00-21:30 \u6bcf\u9031\u4e00\u53ca\u6bcf\u6708\u6700\u5f8c\u4e00\u9031\u4e00\u4e8c\u5e97\u4f11"},{"id":"fa38cb13-dbfd-46b3-8042-5d90fa3f7f6e","name":"\u6708\u5496\u5561","city":"chiayi","wifi":0,"seat":0,"quiet":0,"tasty":0,"cheap":0,"music":0,"url":"\u6708 cafe","address":"\u5609\u7fa9\u7e23\u4e2d\u57d4\u9109\u5fe0\u7fa9\u8def315\u865f","latitude":"23.45648400","longitude":"120.47171130","limited_time":"no","socket":"yes","standing_desk":"yes","mrt":"","open_time":"\u53ef\u4f9d\u9867\u5ba2\u8abf\u6574\u6253\u70ca\u6642\u9593\uff0c\u534a\u591c12\u9ede\u90fd\u53ef"}]}