{"data":[{"id":"02333e1c-c7ab-4cd1-8797-10e20a8c2be0","name":"ARTROOM14\u85dd\u5ba4","city":"hsinchu","wifi":0,"seat":0,"quiet":0,"tasty":0,"cheap":0,"music":0,"url":"","address":"300\u65b0\u7af9\u5e02\u5317\u5340\u52dd\u5229\u8def300\u865f","latitude":"24.80210080","longitude":"120.96378070","limited_time":"","socket":"","standing_desk":"","mrt":"","open_time":""},{"id":"040bbb17-b33a-497a-8241-51344a536140","name":"Mr.Moon \u6708\u4eae\u5148\u751f\u5496\u5561\u9928","city":"hsinchu","wifi":0,"seat":0,"quiet":0,"tasty":0,"cheap":0,"music":0,"url":"https:\/\/www.facebook.com\/mr.mooncoffee\/","address":"\u65b0\u7af9\u7e23\u7af9\u5317\u5e02\u5609\u8c50\u4e94\u8def\u4e8c\u6bb529\u865f","latitude":"24.81005100","longitude":"121.02684600","limited_time":"","socket":"","standing_desk":"","mrt":"","open_time":""},{"id":"04668a7f-9bef-43f3-83aa-662725bd2045","name":"About cafe ","city":"hsinchu","wifi":5,"seat":4,"quiet":4,"tasty":5,"cheap":4,"music":4,"url":"https:\/\/www.facebook.com\/AboutCafe869\/","address":"\u65b0\u7af9\u5e02\u6771\u5340\u4e2d\u6b63\u8def30-1\u865f","latitude":"24.80343040","longitude":"120.97144710","limited_time":"yes","socket":"maybe","standing_desk":"yes","mrt":"","open_time":"\u9031\u65e5\u516c\u4f11"},{"id":"0556dad9-1487-4c94-8736-13342ead0e65","name":"KURUMI\u54ed\u54ed\u5496\u5561\u4e8c\u5e97","city":"hsinchu","wifi":5,"seat":3,"quiet":3,"tasty":4,"cheap":3,"music":5,"url":"https:\/\/m.facebook.com\/kurumi2021\/","address":"\u65b0\u7af9\u7e23\u7af9\u5317\u5e02\u5609\u8c50\u516d\u8def\u4e8c\u6bb588\u865f","latitude":"24.80741070","longitude":"121.02734180","limited_time":"maybe","socket":"maybe","standing_desk":"no","mrt":"","open_time":""},{"id":"068bde72-3e54-4e06-9ab3-ef79385b98eb","name":"\u6a4b\u6069\u5496\u5561\u7af9\u5317\u5e97","city":"hsinchu","wifi":4,"seat":3,"quiet":3,"tasty":4,"cheap":3,"music":3,"url":"https:\/\/cafe-20146.business.site\/","address":"\u65b0\u7af9\u7e23\u7af9\u5317\u5e02\u6587\u4fe1\u8def297\u865f","latitude":"24.83182340","longitude":"121.01272510","limited_time":"","socket":"","standing_desk":"","mrt":"","open_time":""},{"id":"06e678fd-17cc-43f6-8bbd-f5cf9605de3c","name":"HILA BASECAMP","city":"hsinchu","wifi":3,"seat":3,"quiet":4,"tasty":5,"cheap":5,"music":4.5,"url":"https:\/\/www.facebook.com\/HILA.BASECAMP","address":"\u65b0\u7af9\u5e02\u5317\u5340\u65b0\u7af9\u5e02\u9577\u5b89\u8857107\u865f","latitude":"24.80752560","longitude":"120.96489710","limited_time":"no","socket":"no","standing_desk":"no","mrt":"","open_time":"8:00 - 17:00 \u9031\u4e00\u516c\u4f11"},{"id":"075eb467-5231-483f-a774-2af1fdb8a10f","name":"Stay by Coffee ","city":"hsinchu","wifi":5,"seat":5,"quiet":5,"tasty":5,"cheap":5,"music":5,"url":"https:\/\/www.facebook.com\/staybycoffee","address":"\u65b0\u7af9\u5e02\u6771\u5340\u6771\u9580\u885727\u865f","latitude":"24.80414240","longitude":"120.97353230","limited_time":"no","socket":"no","standing_desk":"yes","mrt":"","open_time":""},{"id":"07e4d71d-1d4b-48d1-9072-acd1d17dfa3f","name":"\u56db\u96bb\u8c93","city":"hsinchu","wifi":5,"seat":4.5,"quiet":2.5,"tasty":4,"cheap":3.5,"music":4.5,"url":"https:\/\/www.facebook.com\/%E5%9B%9B%E9%9A%BB%E8%B2%93-1416423848674343\/","address":"\u65b0\u7af9\u5e02\u5317\u5340\u5fb7\u6210\u885768\u865f","latitude":"24.79982400","longitude":"120.96310700","limited_time":"maybe","socket":"","standing_desk":"no","mrt":"","open_time":""},{"id":"0842faed-4302-4863-9b5c-fc1357ff60b2","name":"\u98a8\u8d77\u5496\u5561\u4e8c\u5e97(\u5357\u5927\u5e97)","city":"hsinchu","wifi":5,"seat":5,"quiet":5,"tasty":4,"cheap":5,"music":4,"url":"https:\/\/www.facebook.com\/TWRCoffee2\/","address":"300\u65b0\u7af9\u5e02\u6771\u5340\u5357\u5927\u8def157\u865f","latitude":"24.80004800","longitude":"120.97387610","limited_time":"maybe","socket":"maybe","standing_desk":"yes","mrt":"","open_time":""},{"id":"097c4c4d-0dd8-48ed-8c91-4b9dfea07b4b","name":"\u5496\u5561\uff0e\u5019\u6a5f\u5ba4The Departure Lounge\u65b0\u7af9\u5149\u5fa9\u5e97","city":"hsinchu","wifi":0,"seat":0,"quiet":0,"tasty":0,"cheap":0,"music":0,"url":"","address":"\u65b0\u7af9\u5e02\u6771\u5340\u5149\u5fa9\u8def\u4e00\u6bb5360-8\u865f","latitude":"24.78347290","longitude":"121.01767200","limited_time":"","socket":"","standing_desk":"","mrt":"","open_time":""},{"id":"0e7ed56e-c572-4625-a657-7202c1c71890","name":"\u5ba2\u68e7\u5496\u5561\u65e5\u5f0f\u65e9\u5348\u9910","city":"hsinchu","wifi":5,"seat":5,"quiet":5,"tasty":5,"cheap":5,"music":5,"url":"https:\/\/www.facebook.com\/%E5%AE%A2%E6%A3%A7%E5%92%96%E5%95%A1%E6%97%A5%E5%BC%8F%E6%97%A9%E5%8D%88%E9%A4%90-%E3%82%B3%E3%83%BC%E3%83%92%E3%83%BC%E3%83%96%E3%83%A9%E3%83%B3%E3%83%81-616179038555121\/","address":"\u65b0\u7af9\u5e02\u4fe1\u7fa9\u885782\u865f","latitude":"24.80336420","longitude":"120.97060660","limited_time":"no","socket":"maybe","standing_desk":"yes","mrt":"","open_time":"11:00\uff5e17:00"},{"id":"0f43df3d-d859-4aba-b2f5-15f8ac2de64c","name":"\u5496\u5561\u7684\u5bb6","city":"hsinchu","wifi":5,"seat":5,"quiet":4,"tasty":5,"cheap":5,"music":4,"url":"https:\/\/www.coffeehome.com.tw","address":"\u65b0\u7af9\u79d1\u5b78\u5712\u8def72\u865f","latitude":"24.78506540","longitude":"121.01041550","limited_time":"no","socket":"no","standing_desk":"no","mrt":"","open_time":"\u958b\u9580\u6642\u9593\u5e38\u5e38\u9072\u5230"},{"id":"0f550e0e-0c28-496a-b500-64fedf552b9a","name":"\u6728\u8033\u751f\u6d3b\u85dd\u8853\u4e4bFamily Pizza","city":"hsinchu","wifi":0,"seat":4,"quiet":3,"tasty":4,"cheap":3,"music":0,"url":"","address":"\u65b0\u7af9\u7e23\u7af9\u5317\u5e02\u9ad8\u9435\u4e8c\u8def65\u865f","latitude":"24.80565040","longitude":"121.03692550","limited_time":"no","socket":"maybe","standing_desk":"yes","mrt":"","open_time":"11:00~20:00"},{"id":"0f8c100a-4d43-44ba-a06e-d279d751b944","name":"SUSUMU","city":"hsinchu","wifi":5,"seat":4,"quiet":4,"tasty":4,"cheap":3,"music":5,"url":"https:\/\/instagram.com\/susumu_240?utm_medium=copy_link","address":"300032\u65b0\u7af9\u5e02\u6771\u5340\u897f\u5927\u8def240\u865f","latitude":"24.79847370","longitude":"120.96846590","limited_time":"maybe","socket":"maybe","standing_desk":"yes","mrt":"","open_time":""},{"id":"103a0b62-0e24-449e-8c5a-dfe6227cb511","name":"\u8b10\u8b10\u751c\u9ede","city":"hsinchu","wifi":5,"seat":4,"quiet":3,"tasty":3,"cheap":3,"music":4,"url":"https:\/\/www.facebook.com\/SecretPatisserie\/","address":"\u65b0\u7af9\u5e02\u6c11\u5bcc\u8857151\u865f","latitude":"24.80715850","longitude":"120.96031020","limited_time":"no","socket":"yes","standing_desk":"yes","mrt":"","open_time":""},{"id":"11741de6-c6e6-4c7d-b795-10d8886fd168","name":"\u6c90\u5496\u5561","city":"hsinchu","wifi":5,"seat":5,"quiet":5,"tasty":5,"cheap":4.5,"music":5,"url":"https:\/\/www.facebook.com\/mu.cafe131\/","address":"300\u65b0\u7af9\u5e02\u6771\u5340\u5149\u5fa9\u8def\u4e00\u6bb589\u5df7131\u865f","latitude":"24.77851310","longitude":"121.02522900","limited_time":"","socket":"","standing_desk":"","mrt":"","open_time":""},{"id":"11cb3652-13fa-4494-9976-818fbfe85738","name":"Cafe On Air","city":"hsinchu","wifi":0,"seat":4,"quiet":3.5,"tasty":5,"cheap":5,"music":4.5,"url":"","address":"\u65b0\u7af9\u5e02\u6771\u5340\u6c11\u65cf\u8def33\u5df755\u865f","latitude":"24.80538130","longitude":"120.97145150","limited_time":"no","socket":"maybe","standing_desk":"yes","mrt":"","open_time":"\u71df\u696d\u6642\u9593\u770b\u8001\u95c6\u6a5f\u52d5\u8abf\u6574"},{"id":"1404a9b1-d017-4704-99f4-3f8568846f07","name":"I'mmat cafe \u5c0f\u588a\u5b50","city":"hsinchu","wifi":5,"seat":4,"quiet":3,"tasty":3.5,"cheap":4,"music":4,"url":"https:\/\/www.facebook.com\/CafeImMat","address":"\u65b0\u7af9\u5e02\u6771\u5340\u4e09\u6c11\u8def154\u865f","latitude":"24.80984400","longitude":"120.97914500","limited_time":"no","socket":"maybe","standing_desk":"yes","mrt":"","open_time":"13:00 - 23:00, \u9031\u4e00\u516c\u4f11"},{"id":"149b58e9-a9cf-49b2-955b-ff674fe1e456","name":"\u63e1\u5496\u5561 OH cafe - \u65b0\u7af9\u91d1\u5c71\u5e97","city":"hsinchu","wifi":4,"seat":5,"quiet":4.5,"tasty":5,"cheap":4.5,"music":4,"url":"https:\/\/www.facebook.com\/ohcafe.Hsinchu\/","address":"\u65b0\u7af9\u5e02\u6771\u5340\u91d1\u5c71\u516b\u885748\u865f","latitude":"24.77781610","longitude":"121.02032500","limited_time":"","socket":"","standing_desk":"","mrt":"","open_time":""},{"id":"17ec1927-10cb-41e5-b7f7-688d909336ab","name":"\u898b\u57dfKendama","city":"hsinchu","wifi":5,"seat":5,"quiet":3,"tasty":5,"cheap":5,"music":4,"url":"www.facebook.com\/kendamahsinchu\/","address":"\u65b0\u7af9\u5e02\u5317\u9580\u885774\u865f","latitude":"24.80653410","longitude":"120.96607000","limited_time":"no","socket":"maybe","standing_desk":"no","mrt":"","open_time":""},{"id":"1a16858b-75a6-49ff-be89-b4bb3b4cad31","name":"\u7da0\u79be\u5858\u3002\u7fd4\u9802\u5496\u5561","city":"hsinchu","wifi":5,"seat":4,"quiet":4,"tasty":5,"cheap":4,"music":4,"url":"https:\/\/www.facebook.com\/\u7da0\u79be\u5858\u7fd4\u9802\u5496\u5561-332162806915678","address":"\u65b0\u7af9\u7e23\u7af9\u5317\u5e02\u6587\u8208\u8def\u4e00\u6bb5123-12\u865f","latitude":"24.81176790","longitude":"121.02625310","limited_time":"no","socket":"no","standing_desk":"no","mrt":"","open_time":"10:00 - 19:00, \u9031\u4e00\u516c\u4f11 "},{"id":"1d715a3c-24a1-45e6-ba10-8844b43998ef","name":" Hollatte\u99a5\u62ff\u9435","city":"hsinchu","wifi":4,"seat":3,"quiet":3,"tasty":5,"cheap":5,"music":5,"url":"https:\/\/www.facebook.com\/Hollatte\/?ref=ts&fref=ts","address":"\u65b0\u7af9\u5e02\u6771\u5340\u91d1\u5c71\u4e03\u885770\u865f","latitude":"24.77732800","longitude":"121.01988500","limited_time":"no","socket":"maybe","standing_desk":"yes","mrt":"","open_time":"Hours 9:00 - 18:00"},{"id":"1f29c528-7df4-49e9-8be8-580bdc7f0445","name":"\u7518\u6728\u8d64\u6c34\u5496\u5561\u9928","city":"hsinchu","wifi":5,"seat":5,"quiet":5,"tasty":5,"cheap":4,"music":4,"url":"","address":"\u65b0\u7af9\u5e02\u6771\u5340\u98df\u54c1\u8def177\u5df743\u865f","latitude":"24.79586240","longitude":"120.97664780","limited_time":"no","socket":"maybe","standing_desk":"yes","mrt":"","open_time":""},{"id":"204498f6-ba66-4a66-90ef-c85b08a1a8dd","name":"\u5e03\u857e\u5496\u5561 Cafe Br\u00fbl\u00e9e","city":"hsinchu","wifi":4.5,"seat":3,"quiet":3,"tasty":4,"cheap":3.5,"music":4,"url":"https:\/\/www.facebook.com\/BruLeeCafe\/","address":"\u65b0\u7af9\u5e02\u6771\u5340\u9577\u6625\u885764\u5df72\u865f","latitude":"24.78612860","longitude":"121.01502910","limited_time":"maybe","socket":"maybe","standing_desk":"no","mrt":"","open_time":"9:00 - 21:00"},{"id":"22288c61-4cc3-4d79-b64d-466a48d92e8d","name":"Piccolo Coffee","city":"hsinchu","wifi":5,"seat":4,"quiet":5,"tasty":5,"cheap":5,"music":5,"url":"https:\/\/www.facebook.com\/Piccolo-Coffee-151877254822450\/?fref=ts","address":"\u65b0\u7af9\u5e02\u6771\u5340\u5efa\u4e2d\u8def101\u865f","latitude":"24.80321890","longitude":"120.99609480","limited_time":"yes","socket":"maybe","standing_desk":"no","mrt":"","open_time":"9:00~21:30 \u516d\u65e5\u516c\u4f11"},{"id":"22dfc0f8-4e79-4fad-9eb6-b2c72fe2aa4c","name":"\u6a38\u5f0f\u73c8\u7432 pure coffee","city":"hsinchu","wifi":0,"seat":5,"quiet":5,"tasty":3,"cheap":4,"music":4,"url":"https:\/\/instagram.com\/pure_coffee22?utm_medium=copy_link","address":"30044\u65b0\u7af9\u5e02\u6771\u5340\u9ad4\u80b2\u885762\u865f","latitude":"24.80247380","longitude":"120.98104040","limited_time":"no","socket":"maybe","standing_desk":"no","mrt":"","open_time":""},{"id":"244c0247-1b9b-44a9-b728-570fc3752476","name":"Cafe De La Fleur \u5341\u755d\u9999\u624b\u4f5c\u70d8\u57f9","city":"hsinchu","wifi":5,"seat":5,"quiet":5,"tasty":4,"cheap":4,"music":4,"url":"https:\/\/cafe-de-la-fleur.business.site\/","address":"Cafe De La Fleur \u5341\u755d\u9999\u624b\u4f5c\u70d8\u57f9","latitude":"24.80326300","longitude":"121.03327360","limited_time":"no","socket":"maybe","standing_desk":"yes","mrt":"","open_time":""},{"id":"255c3c3b-c691-4513-8d7c-93e97bafcd0e","name":"\u6b50\u5ba2\u4f6c\u5496\u5561\u8fb2\u5834\u7af9\u5317\u5e97","city":"hsinchu","wifi":0,"seat":0,"quiet":0,"tasty":0,"cheap":0,"music":0,"url":"","address":"\u65b0\u7af9\u7e23\u7af9\u5317\u5e02\u5149\u660e\u4e00\u8def367\u865f","latitude":"24.83299140","longitude":"121.00716090","limited_time":"","socket":"","standing_desk":"","mrt":"","open_time":""},{"id":"25801a20-c09d-49f2-a6f0-c46fb3d294a6","name":"HILA STEP COFFEE TAKE OUT","city":"hsinchu","wifi":2.5,"seat":3,"quiet":3.5,"tasty":4.5,"cheap":5,"music":5,"url":"https:\/\/www.facebook.com\/hilastep","address":"300\u65b0\u7af9\u5e02\u6771\u5340\u5149\u5fa9\u8def\u4e8c\u6bb5382\u865f","latitude":"24.79642550","longitude":"120.99767010","limited_time":"no","socket":"no","standing_desk":"no","mrt":"","open_time":"8:00 - 17:00"},{"id":"26bf266b-ec6d-4a32-800d-2e616e0271c4","name":"Oh\uff01\u6a02\u5496\u5561","city":"hsinchu","wifi":0,"seat":4,"quiet":3,"tasty":4.5,"cheap":4.5,"music":3.5,"url":"Oh\uff01caffe\u6a02\u5496\u5561","address":"\u65b0\u7af9\u7e23\u6e56\u53e3\u9109\u4e2d\u83ef\u8def26\u865f","latitude":"24.87242310","longitude":"121.01023540","limited_time":"no","socket":"maybe","standing_desk":"yes","mrt":"","open_time":""},{"id":"2757ea6f-ec5c-4bf8-82e6-4f2afc10d66f","name":"KNOCK KNOCK COFFEE","city":"hsinchu","wifi":5,"seat":5,"quiet":4,"tasty":4,"cheap":3,"music":4,"url":"https:\/\/instagram.com\/knockknockcoffeebar?utm_medium=copy_link","address":"300\u65b0\u7af9\u5e02\u6771\u5340\u5357\u5927\u8def375\u865f","latitude":"24.79661700","longitude":"120.96867200","limited_time":"maybe","socket":"maybe","standing_desk":"yes","mrt":"","open_time":""},{"id":"2814cba8-fc3c-4e77-8297-409fb790bfde","name":"ArtTree\u85dd\u6a39 cafe&bar","city":"hsinchu","wifi":3,"seat":5,"quiet":2.5,"tasty":3,"cheap":2.5,"music":4,"url":"https:\/\/www.facebook.com\/arttreecafebar","address":"\u65b0\u7af9\u5e02\u6771\u5340\u6771\u5927\u8def\u4e00\u6bb537\u865f","latitude":"24.80317300","longitude":"120.97560560","limited_time":"","socket":"","standing_desk":"","mrt":"","open_time":""},{"id":"292f8829-e823-4207-9565-d8f570af9a21","name":"Laid Back Cafe","city":"hsinchu","wifi":5,"seat":5,"quiet":4,"tasty":3,"cheap":3,"music":4,"url":"https:\/\/www.facebook.com\/LAIDBACKCAFESTUDIO","address":"\u65b0\u7af9\u5e02\u6771\u5340\u95dc\u65b0\u6771\u8def321\u865f","latitude":"24.78686440","longitude":"121.02065510","limited_time":"no","socket":"maybe","standing_desk":"yes","mrt":"","open_time":""},{"id":"2b3ae3eb-1e5e-4f08-a2ee-963ed4219ded","name":"\u4e09\u7f8a\u6240\u5728","city":"hsinchu","wifi":4,"seat":4,"quiet":3,"tasty":3.5,"cheap":3.5,"music":3,"url":"https:\/\/www.facebook.com\/WhereGoats\/","address":"\u65b0\u7af9\u5e02\u5317\u5340\u52dd\u5229\u8def223\u865f","latitude":"24.80207890","longitude":"120.96354490","limited_time":"","socket":"","standing_desk":"","mrt":"","open_time":""},{"id":"2c5eb795-a9a5-4629-943e-5befd7ab93f0","name":"\u6ce5\u5df4\u6c34","city":"hsinchu","wifi":5,"seat":4,"quiet":4,"tasty":4,"cheap":4,"music":4,"url":"https:\/\/instagram.com\/muddywater118","address":"300\u65b0\u7af9\u5e02\u6771\u5340\u5efa\u4e2d\u8def118\u865f","latitude":"24.80247780","longitude":"120.99583280","limited_time":"maybe","socket":"maybe","standing_desk":"yes","mrt":"","open_time":""},{"id":"2ce0247a-bd03-4576-a043-e85b816a8519","name":"Oven Coffee sisi\u7af9\u5317\u5e97","city":"hsinchu","wifi":0,"seat":0,"quiet":0,"tasty":0,"cheap":0,"music":0,"url":"","address":"\u65b0\u7af9\u7e23\u7af9\u5317\u5e02\u52dd\u5229\u516b\u8857\u4e00\u6bb5185\u865f","latitude":"24.82636370","longitude":"121.02607520","limited_time":"","socket":"","standing_desk":"","mrt":"","open_time":""},{"id":"2d1152ea-aa03-4173-be4e-b5182b731db7","name":"\u5df7\u5f04\u7530\u5712\u4f11\u9592\u8fb2\u6751\u5eda\u623f","city":"hsinchu","wifi":0,"seat":0,"quiet":0,"tasty":0,"cheap":0,"music":0,"url":"https:\/\/www.facebook.com\/farmcoffee.tw\/","address":"\u65b0\u7af9\u5e02\u5317\u5340\u6771\u5927\u8def\u4e8c\u6bb5605\u5df750\u865f","latitude":"24.82128170","longitude":"120.95756600","limited_time":"","socket":"","standing_desk":"","mrt":"","open_time":""},{"id":"2df69f82-4f41-4a53-a6ad-6059c7c0cc7e","name":"\u65e5\u9072DIDcoffee","city":"hsinchu","wifi":0,"seat":0,"quiet":0,"tasty":0,"cheap":0,"music":0,"url":"","address":"302\u65b0\u7af9\u7e23\u7af9\u5317\u5e02\u5609\u8c50\u516d\u8def\u4e00\u6bb562\u865f","latitude":"24.81261400","longitude":"121.03080890","limited_time":"","socket":"","standing_desk":"","mrt":"","open_time":""},{"id":"2e245509-12e4-4103-ac92-38510caa56dc","name":"\u5ba2\u7f8e\u591a\u5496\u5561-\u65b0\u7af9\u516c\u9053\u5e97","city":"hsinchu","wifi":5,"seat":5,"quiet":4,"tasty":4,"cheap":4,"music":4,"url":"https:\/\/komeda.com.tw\/","address":"\u65b0\u7af9\u5e02\u6771\u5340\u516c\u9053\u4e94\u8def\u4e09\u6bb51\u865f","latitude":"24.80551830","longitude":"120.99154180","limited_time":"maybe","socket":"yes","standing_desk":"no","mrt":"","open_time":"\u8a66\u71df\u904b\u671f\u9593\u958b\u52305pm"},{"id":"31cda686-3d0f-46e1-b272-1c139558a468","name":"abrazamoslavida cafe\u6b72\u6708\u975c\u597d\u5496\u5561\u9928","city":"hsinchu","wifi":0,"seat":0,"quiet":0,"tasty":0,"cheap":0,"music":0,"url":"","address":"302\u65b0\u7af9\u7e23\u7af9\u5317\u5e02\u5609\u8208\u8def239\u865f","latitude":"24.81788710","longitude":"121.02863390","limited_time":"","socket":"","standing_desk":"","mrt":"","open_time":""},{"id":"3265c123-f5be-4ef7-89f8-291986718f57","name":"\u516d\u5341\u4e00\u5df7\u5496\u5561","city":"hsinchu","wifi":3.5,"seat":3,"quiet":4,"tasty":5,"cheap":5,"music":4,"url":"https:\/\/www.facebook.com\/61\u5df7\u5496\u5561\u5de5\u623f\u6cb3\u99ac\u5496\u5561-503882569699697\/","address":"\u65b0\u7af9\u5e02\u6771\u5340\u6771\u5c71\u885761\u5df77\u865f","latitude":"24.79694450","longitude":"120.97871620","limited_time":"no","socket":"no","standing_desk":"no","mrt":"","open_time":"11:00-18:00"},{"id":"340832b8-6eb9-463c-9ea6-5197d8bf7f74","name":"\u679c\u5b50\u5496\u5561\u6e05\u5927\u5e97","city":"hsinchu","wifi":4,"seat":4,"quiet":3,"tasty":3,"cheap":4,"music":3,"url":"http:\/\/www.gozcafe.com\/","address":"\u65b0\u7af9\u5e02\u6771\u5340\u5927\u5b78\u8def1001\u865f\uff08\u570b\u7acb\u6e05\u83ef\u5927\u5b78\u5357\u6821\u5340\u5275\u65b0\u80b2\u6210\u5927\u6a131\u6a13\uff09","latitude":"24.78629900","longitude":"120.98894800","limited_time":"no","socket":"no","standing_desk":"no","mrt":"","open_time":""},{"id":"34507d23-3e0c-4903-9e89-8c4d7ffe2ea4","name":"\u559c\u6b61\u5496\u5561","city":"hsinchu","wifi":4,"seat":3,"quiet":3,"tasty":2,"cheap":3,"music":3,"url":"","address":"\u65b0\u7af9\u5e02\u5317\u5340\u548c\u798f\u8857115\u865f","latitude":"24.80269720","longitude":"120.96415760","limited_time":"yes","socket":"no","standing_desk":"no","mrt":"","open_time":"\u9650\u66422\u5c0f\u6642\uff0c\u5047\u65e5\u9650\u66421.5\u5c0f\u6642"},{"id":"34e2d865-01bb-4385-a9d0-4c8f003c3edb","name":"\u7d50\u69cb\u5496\u5561\u6240\uff08\u76ee\u524d\u70ba\u5de5\u4f5c\u5ba4\u578b\u614b\uff0c\u8acb\u4f86\u96fb\u9810\u7d04\uff09","city":"hsinchu","wifi":5,"seat":5,"quiet":3.5,"tasty":5,"cheap":5,"music":4,"url":"https:\/\/www.facebook.com\/thepeoplecoffee\/","address":"\u65b0\u7af9\u5e02\u5ef6\u5e73\u8def\u4e8c\u6bb5447\u5df713\u5f0427\u865f","latitude":"24.80665700","longitude":"120.93302000","limited_time":"no","socket":"maybe","standing_desk":"yes","mrt":"","open_time":"14:00~21:00"},{"id":"378fac13-3761-48a6-8de1-107b52eea249","name":"\u8f49\u89d2726\u3001\u624b\u5de5\u5496\u5561","city":"hsinchu","wifi":3,"seat":5,"quiet":5,"tasty":5,"cheap":5,"music":5,"url":"https:\/\/www.facebook.com\/726cape\/","address":"\u65b0\u7af9\u5e02\u6771\u5340\u660e\u6e56\u8def726\u865f","latitude":"24.77228010","longitude":"120.96673530","limited_time":"maybe","socket":"","standing_desk":"","mrt":"","open_time":"10:30\u201321:00"},{"id":"386c4e7c-b3be-4a08-88e0-3691c0818707","name":"\u4e9e\u723e\u5496\u5561 Caf\u00e9 d'Arles","city":"hsinchu","wifi":0,"seat":0,"quiet":0,"tasty":0,"cheap":0,"music":0,"url":"","address":"\u65b0\u7af9\u5e02\u6771\u5340\u6771\u5927\u8def\u4e00\u6bb581\u5df76\u865f","latitude":"24.80450100","longitude":"120.97446640","limited_time":"","socket":"","standing_desk":"","mrt":"","open_time":""},{"id":"38c9cfbf-6032-48e0-9b0d-4c61497a3b97","name":"Pain de mie \u80d6\u591a\u7c73\u5496\u5561\u9928","city":"hsinchu","wifi":4,"seat":4,"quiet":4,"tasty":4,"cheap":5,"music":4,"url":"http:\/\/www.facebook.com\/paindemiecafe","address":"\u65b0\u7af9\u5e02\u5317\u5340\u4e16\u754c\u8857148\u865f2\u6a13","latitude":"24.80730130","longitude":"120.96690790","limited_time":"no","socket":"yes","standing_desk":"no","mrt":"","open_time":"13:00 - 19:00"},{"id":"38d8f98a-6aca-4ff6-8583-d526bf7796db","name":"\u68ee\u5ddd\u5496\u5561","city":"hsinchu","wifi":4.5,"seat":5,"quiet":4,"tasty":4.5,"cheap":5,"music":4.5,"url":"","address":"302\u65b0\u7af9\u7e23\u7af9\u5317\u5e02\u5149\u660e\u516d\u8def\u6771\u4e00\u6bb5245\u865f","latitude":"24.82072920","longitude":"121.02661430","limited_time":"","socket":"","standing_desk":"","mrt":"","open_time":""},{"id":"3a0280bd-7375-455d-b920-9ac9e4c24c4b","name":"\u6625\u82bd\u8c46\u9017 \u81ea\u5bb6\u70d8\u7119\u5496\u5561","city":"hsinchu","wifi":0,"seat":0,"quiet":0,"tasty":0,"cheap":0,"music":0,"url":"","address":"302\u65b0\u7af9\u7e23\u7af9\u5317\u5e02\u65b0\u5149\u8857230\u865f","latitude":"24.83719770","longitude":"121.00026000","limited_time":"","socket":"","standing_desk":"","mrt":"","open_time":""},{"id":"3b5340f4-ea6a-4373-b0f2-6939e7813820","name":"ca va \u5c0f\u65e5\u548c","city":"hsinchu","wifi":4,"seat":5,"quiet":5,"tasty":4,"cheap":4,"music":4,"url":"https:\/\/m.facebook.com\/cava0811\/","address":"300\u65b0\u7af9\u5e02\u5317\u5340\u6c5f\u5c71\u885717\u5df7\u4e4b4\u865f","latitude":"24.80478830","longitude":"120.96443610","limited_time":"no","socket":"maybe","standing_desk":"no","mrt":"","open_time":""},{"id":"3dca8c93-eb4b-4e67-933b-9562d1ff9cce","name":"Lambkin Cafe","city":"hsinchu","wifi":5,"seat":3,"quiet":3,"tasty":3,"cheap":3,"music":5,"url":"https:\/\/m.facebook.com\/Lambkincafe2011\/","address":"302\u65b0\u7af9\u7e23\u7af9\u5317\u5e02\u5609\u8c50\u4e03\u8857143\u865f","latitude":"24.81032620","longitude":"121.03157300","limited_time":"no","socket":"no","standing_desk":"no","mrt":"","open_time":""},{"id":"3f1ea453-6ecc-4eab-bbe8-61bdc632713e","name":"\u65c5.\u73c8\u5561-\u5317\u5927\u9580\u5e02","city":"hsinchu","wifi":0,"seat":5,"quiet":5,"tasty":4,"cheap":5,"music":4,"url":"https:\/\/www.facebook.com\/LU.Coffee184\/","address":"300\u65b0\u7af9\u5e02\u5317\u5340\u5317\u5927\u8def184\u865f","latitude":"24.80894100","longitude":"120.96624900","limited_time":"no","socket":"maybe","standing_desk":"no","mrt":"","open_time":""},{"id":"3f1f08ac-91e6-4ccf-9239-2f46a0034035","name":"\u6c5f\u5c71\u85dd\u6539\u6240 Jiang Shan Yi Gai Suo","city":"hsinchu","wifi":5,"seat":4,"quiet":4,"tasty":4,"cheap":4,"music":5,"url":"https:\/\/www.jsygs-artcafe.com\/","address":"\u65b0\u7af9\u5e02\u6771\u5340\u8208\u9054\u88571\u865f","latitude":"24.79919700","longitude":"120.96589000","limited_time":"no","socket":"yes","standing_desk":"no","mrt":"","open_time":"\u4e0d\u5b9a\u4f11"},{"id":"40288b7f-94d0-490f-8a3b-d5618c0f2df0","name":"\u674e\u5b85Not Only Caf\u00e9","city":"hsinchu","wifi":5,"seat":4,"quiet":4,"tasty":3,"cheap":3,"music":3,"url":"https:\/\/www.facebook.com\/notonlycafe.bar\/","address":"300\u65b0\u7af9\u5e02\u6771\u5340\u91d1\u5c71\u4e5d\u885729\u865f","latitude":"24.77800400","longitude":"121.02107700","limited_time":"no","socket":"","standing_desk":"","mrt":"","open_time":""},{"id":"40a02125-a93d-41db-ab98-4b2ec4396b31","name":"Shmily cafe","city":"hsinchu","wifi":5,"seat":5,"quiet":4,"tasty":3,"cheap":3,"music":3,"url":"https:\/\/www.facebook.com\/shmilycafe\/","address":"302\u65b0\u7af9\u7e23\u7af9\u5317\u5e02\u516d\u5bb6\u4e94\u8def\u4e00\u6bb5147\u865f","latitude":"24.80915440","longitude":"121.02620040","limited_time":"","socket":"","standing_desk":"","mrt":"","open_time":""},{"id":"40c924fb-6b2d-42fb-b511-fb1cb21c493d","name":"\u6d77\u7c73\u5496\u5561HIMI COFFEE","city":"hsinchu","wifi":0,"seat":5,"quiet":5,"tasty":4,"cheap":5,"music":4,"url":"https:\/\/www.facebook.com\/HimiCoffee183\/","address":"30061\u65b0\u7af9\u5e02\u6771\u5340\u897f\u5927\u8def183\u865f","latitude":"24.79777270","longitude":"120.96848050","limited_time":"yes","socket":"maybe","standing_desk":"yes","mrt":"","open_time":"\u661f\u671f\u4e00\u81f3\u4e94\u70ba\u516c\u544a\u71df\u696d"},{"id":"4198306a-311e-4482-ad38-e75a7384dec2","name":"Coffee SHOT \u73c8\u7432\u590f\u7279","city":"hsinchu","wifi":0,"seat":5,"quiet":3,"tasty":5,"cheap":4,"music":5,"url":"https:\/\/www.facebook.com\/Coffee-SHOT-%E7%8F%88%E7%90%B2%E5%A4%8F%E7%89%B9-131973000635960\/","address":"\u65b0\u7af9\u5e02\u4e2d\u6b63\u8def67\u5df7\u5167 \/ \u6771\u9580\u5e02\u58341\u6a131049\u5ba4 ","latitude":"24.81382870","longitude":"120.96747980","limited_time":"no","socket":"no","standing_desk":"yes","mrt":"","open_time":""},{"id":"43d999ef-ee21-495f-97c7-c7271aa9634e","name":"\u4f9d\u65e5\u5496\u5561","city":"hsinchu","wifi":3.5,"seat":4.5,"quiet":5,"tasty":4.5,"cheap":3,"music":4.5,"url":"https:\/\/www.facebook.com\/easygabee\/","address":"\u65b0\u7af9\u5e02\u6771\u5340\u4ec1\u611b\u885773\u865f","latitude":"24.80828470","longitude":"120.97028040","limited_time":"","socket":"","standing_desk":"","mrt":"","open_time":""},{"id":"467ec2f6-a19c-4606-8eac-70a893c44682","name":"\u77f3\u5c1a\u81ea\u7136\u63a2\u7d22\u5c4b\u3010\u7da0\u4e16\u754c\u5e97\u3011","city":"hsinchu","wifi":5,"seat":3,"quiet":3,"tasty":5,"cheap":0,"music":5,"url":"https:\/\/www.facebook.com\/shishangGW\/","address":"\u65b0\u7af9\u7e23\u5317\u57d4\u9109\u5927\u6e56\u67517\u913020\u865f","latitude":"24.69881010","longitude":"121.07110860","limited_time":"","socket":"","standing_desk":"","mrt":"","open_time":""},{"id":"4ac12cf3-2809-42a5-8ff9-c3b7616deb64","name":"\u99ac\u96c5\u5496\u5561\u70d8\u7119\u9928","city":"hsinchu","wifi":5,"seat":4,"quiet":4,"tasty":5,"cheap":4,"music":4,"url":"http:\/\/mayaroast.pixnet.net\/blog","address":"\u65b0\u7af9\u5e02\u5317\u5340\u4e2d\u6b63\u8def485\u5df74\u865f","latitude":"24.81572720","longitude":"120.95818480","limited_time":"no","socket":"maybe","standing_desk":"no","mrt":"","open_time":"8:00 - 18:00, \u9031\u4e00\u516c\u4f11"},{"id":"4c3668f9-9d65-4764-9c79-934262051ac3","name":"Lei Lei Cafe (\u857e\u857e\u5496\u5561\u9928)","city":"hsinchu","wifi":4,"seat":4,"quiet":3,"tasty":3,"cheap":3,"music":3,"url":"https:\/\/www.facebook.com\/leileicafe\/","address":"\u65b0\u7af9\u5e02\u4e16\u754c\u8857154\u865f1\u6a13","latitude":"24.80718770","longitude":"120.96664220","limited_time":"","socket":"","standing_desk":"","mrt":"","open_time":""},{"id":"4cd23e3a-d1ae-45bf-bee5-b8872cfa2f12","name":"\u57ce\u5e02\u7cbe\u54c1\u5496\u5561Hold Mind Coffee","city":"hsinchu","wifi":0,"seat":0,"quiet":0,"tasty":0,"cheap":0,"music":0,"url":"","address":"302\u65b0\u7af9\u7e23\u7af9\u5317\u5e02\u5609\u8c50\u516d\u8def\u4e00\u6bb559\u865f","latitude":"24.81269050","longitude":"121.03127250","limited_time":"","socket":"","standing_desk":"","mrt":"","open_time":""},{"id":"4f44f366-28f8-42bc-95ca-605f71352676","name":"\u4e95\u4e95","city":"hsinchu","wifi":4,"seat":4,"quiet":3,"tasty":4,"cheap":3.5,"music":3,"url":"https:\/\/www.facebook.com\/%E4%BA%95%E4%BA%95-294605067379718\/","address":"\u65b0\u7af9\u5e02\u65b0\u6e90\u8857136\u865f","latitude":"24.80214800","longitude":"120.99308600","limited_time":"","socket":"","standing_desk":"","mrt":"","open_time":""},{"id":"4fa1488b-0b08-4b6c-b3bf-ff32612f28b0","name":"\u98a8\u5f90\u5f90 homebibi","city":"hsinchu","wifi":0,"seat":5,"quiet":5,"tasty":5,"cheap":4,"music":5,"url":"https:\/\/www.facebook.com\/homebibicafe\/","address":"\u65b0\u7af9\u5e02\u6771\u5340\u6c11\u6b0a\u8def102\u865f","latitude":"24.80786100","longitude":"120.97554700","limited_time":"","socket":"","standing_desk":"","mrt":"","open_time":""},{"id":"51b26e23-e1ca-4439-8461-2a71d3517f43","name":"\u8f9b\u5fd7\u5e73\u6821\u9577\u6545\u5c45","city":"hsinchu","wifi":5,"seat":5,"quiet":5,"tasty":4,"cheap":4,"music":5,"url":"https:\/\/www.facebook.com\/AK.museum\/","address":"\u65b0\u7af9\u5e02\u6771\u5340\u6771\u9580\u885732\u865f","latitude":"24.80437710","longitude":"120.97392600","limited_time":"","socket":"","standing_desk":"no","mrt":"","open_time":""},{"id":"521f22ff-0a3e-4fa2-97d2-73a6e92beae2","name":"\u7e8c\u65e5\u5496\u5561","city":"hsinchu","wifi":5,"seat":5,"quiet":4,"tasty":5,"cheap":4,"music":5,"url":"https:\/\/www.facebook.com\/Dawncafe2016\/","address":"\u65b0\u7af9\u5e02\u6771\u5340\u5357\u5927\u8def149\u865f","latitude":"24.80018140","longitude":"120.97414710","limited_time":"maybe","socket":"yes","standing_desk":"no","mrt":"","open_time":"12:00-23:00\uff0c\u9031\u4e94\u3001\u516d\u523024:00"},{"id":"52fe23f1-993c-4964-ba0b-72ca7c9ce429","name":"Hollatte\u99a5\u62ff\u9435 \u81ea\u70d8\u5496\u5561 \u7af9\u5317\u5e97","city":"hsinchu","wifi":5,"seat":5,"quiet":5,"tasty":5,"cheap":5,"music":5,"url":"https:\/\/m.facebook.com\/hollatte5","address":"30264\u65b0\u7af9\u7e23\u7af9\u5317\u5e02\u52dd\u5229\u4e09\u8857150\u865f","latitude":"24.82258670","longitude":"121.02861340","limited_time":"no","socket":"yes","standing_desk":"yes","mrt":"","open_time":"\u4f8b\u5047\u65e5\u53e6\u884c\u516c\u544a\u65bc\u7c89\u7d72\u5c08\u9801"},{"id":"5339e84c-b063-414f-8610-0f4464b55802","name":"\u904e\u65e5\u5b50 \u5b85\u5496\u5561","city":"hsinchu","wifi":3,"seat":3,"quiet":2,"tasty":5,"cheap":4,"music":5,"url":"","address":"\u65b0\u7af9\u7e23\u7af9\u5317\u5e02\u65b0\u6cf0\u8def10-2\u865f","latitude":"24.84155200","longitude":"121.00590500","limited_time":"","socket":"","standing_desk":"","mrt":"","open_time":""},{"id":"53d98b33-4648-4c46-badf-8ff4df2a5267","name":"\u798f\u661f\u5496\u5561","city":"hsinchu","wifi":0,"seat":0,"quiet":0,"tasty":0,"cheap":0,"music":0,"url":"","address":"300\u65b0\u7af9\u5e02\u6771\u5340\u6b66\u660c\u885711\u865f","latitude":"24.80090300","longitude":"120.96830480","limited_time":"","socket":"","standing_desk":"","mrt":"","open_time":""},{"id":"54f12803-a1bc-49fd-82e4-bf86f3bab6b4","name":"Daily Ping \u5e73\u65e5","city":"hsinchu","wifi":0,"seat":0,"quiet":0,"tasty":0,"cheap":0,"music":0,"url":"","address":"300\u65b0\u7af9\u5e02\u6771\u5340\u6c11\u6b0a\u8def269\u865f","latitude":"24.81344200","longitude":"120.97067630","limited_time":"","socket":"","standing_desk":"","mrt":"","open_time":""},{"id":"57506a59-b89c-4143-8b11-cf6018c05eb1","name":"barback cafe","city":"hsinchu","wifi":0,"seat":0,"quiet":0,"tasty":0,"cheap":0,"music":0,"url":"https:\/\/www.instagram.com\/bar_barback_cafe\/","address":"\u65b0\u7af9\u5e02\u6c11\u6b0a\u8def111\u5df71\u865f","latitude":"24.80766700","longitude":"120.97506100","limited_time":"","socket":"","standing_desk":"no","mrt":"","open_time":""},{"id":"5808979d-8e8d-43d8-bc87-72a2708d8ce0","name":"\u9435\u905387","city":"hsinchu","wifi":4,"seat":5,"quiet":5,"tasty":5,"cheap":5,"music":4,"url":"https:\/\/www.facebook.com\/railway87cafe\/","address":"\u65b0\u7af9\u5e02\u5317\u5340\u9435\u9053\u8def2\u6bb587\u865f","latitude":"24.81685500","longitude":"120.97852110","limited_time":"no","socket":"maybe","standing_desk":"no","mrt":"","open_time":""},{"id":"5809ebac-04a3-4fe4-9c86-fed72e457fd3","name":"\u6155\u6eaa\u5712 Mercy Cafe","city":"hsinchu","wifi":5,"seat":4,"quiet":5,"tasty":4,"cheap":5,"music":5,"url":"https:\/\/www.facebook.com\/mercycafe.asthedeer\/","address":"\u65b0\u7af9\u7e23\u7af9\u5317\u5e02\u5fa9\u8208\u4e09\u8def\u4e8c\u6bb582\u865f","latitude":"24.80876440","longitude":"121.03541380","limited_time":"no","socket":"yes","standing_desk":"no","mrt":"","open_time":""},{"id":"585a5caf-097f-4d9a-b1be-095ce2860a5c","name":"H cafe","city":"hsinchu","wifi":3,"seat":3.5,"quiet":5,"tasty":5,"cheap":3.5,"music":4.5,"url":"","address":"\u65b0\u7af9\u5e02\u6c11\u65cf\u8def43\u865f1\u6a13","latitude":"24.80630300","longitude":"120.97424900","limited_time":"","socket":"","standing_desk":"","mrt":"","open_time":""},{"id":"58844abf-cef4-4eac-85d6-4c8457424e6e","name":"152cafe","city":"hsinchu","wifi":3.5,"seat":4,"quiet":4,"tasty":5,"cheap":5,"music":4,"url":"https:\/\/www.facebook.com\/lisa.152cafe\/?fref=ts","address":"\u65b0\u7af9\u5e02\u6771\u5340\u57d4\u9802\u8def17\u865f","latitude":"24.79324000","longitude":"121.00747800","limited_time":"no","socket":"no","standing_desk":"yes","mrt":"","open_time":""},{"id":"59010828-9322-43d3-b877-c71c59575595","name":"\u4e09\u89d2\u5496\u5561\u9928 Caf\u00e9 Triangle","city":"hsinchu","wifi":5,"seat":4,"quiet":2,"tasty":4,"cheap":3,"music":3,"url":"","address":"\u65b0\u7af9\u7e23\u7af9\u5317\u5e02\u838a\u656c\u5317\u8def286\u865f","latitude":"24.82947400","longitude":"121.02648530","limited_time":"maybe","socket":"yes","standing_desk":"no","mrt":"","open_time":""},{"id":"5956a750-7725-4697-81d1-2a4ba7e6c296","name":"\u6b50\u7239 \u5168\u65e5\u65e9\u5348\u9910 \u7c21\u9910","city":"hsinchu","wifi":0,"seat":0,"quiet":0,"tasty":0,"cheap":0,"music":0,"url":"https:\/\/www.facebook.com\/adlmeals\/","address":"300\u65b0\u7af9\u5e02\u5317\u5340\u4e2d\u83ef\u8def\u4e09\u6bb588\u865f","latitude":"24.79694630","longitude":"120.96125500","limited_time":"no","socket":"no","standing_desk":"yes","mrt":"","open_time":"24\u5c0f\u6642\u71df\u696d"},{"id":"5ad62caa-0cf1-4ff4-bb78-1569f99035c3","name":"Coffee SHOT \u73c8\u7432\u590f\u7279","city":"hsinchu","wifi":0,"seat":4,"quiet":4,"tasty":4,"cheap":4,"music":4,"url":"https:\/\/www.facebook.com\/Coffee-SHOT-%E7%8F%88%E7%90%B2%E5%A4%8F%E7%89%B9-131973000635960\/","address":"\u65b0\u7af9\u5e02\u4e2d\u6b63\u8def67\u5df7\u5167 \/ \u6771\u9580\u5e02\u58341\u6a131049\u5ba4 (\u5f71\u50cf\u535a\u7269\u9928\u65c1\u5df7\u5167)","latitude":"24.80469200","longitude":"120.96890300","limited_time":"no","socket":"no","standing_desk":"yes","mrt":"","open_time":""},{"id":"5b06cde0-5ad7-43dc-9f3a-3a269e8246d2","name":"\u767e\u5206\u4e4b\u4e8c\u5496\u5561 \uff082\/100 Caf\u00e9\uff09","city":"hsinchu","wifi":4,"seat":3,"quiet":4,"tasty":3,"cheap":3,"music":4,"url":"https:\/\/www.facebook.com\/2.100Cafe\/","address":" \u5317\u5340\u77f3\u574a\u885714\u865f","latitude":"24.80312560","longitude":"120.96431140","limited_time":"","socket":"","standing_desk":"","mrt":"","open_time":""},{"id":"5b7193db-fe2c-4b7b-b022-0a9f12bb24b3","name":"\u4e00\u6a02\u5496\u5561\u8f15\u98df AJoyLife","city":"hsinchu","wifi":5,"seat":4.5,"quiet":3.5,"tasty":4,"cheap":4.5,"music":3.5,"url":"https:\/\/www.facebook.com\/ajoylife\/","address":"\u98df\u54c1\u8def518\u865f","latitude":"24.79442350","longitude":"120.96565340","limited_time":"maybe","socket":"maybe","standing_desk":"no","mrt":"","open_time":""},{"id":"5bc65ab4-781f-4c7d-bbe7-98757e19446b","name":"\u9810\u8a00Prophecy \u98df\u5668x\u96dc\u8ca8x\u751c\u9ede","city":"hsinchu","wifi":4,"seat":4,"quiet":4,"tasty":4,"cheap":3,"music":3,"url":"https:\/\/www.facebook.com\/prophecy219\/","address":"\u65b0\u7af9\u5e02\u6771\u5340\u6771\u5357\u8857219\u865f","latitude":"24.79582440","longitude":"120.97565490","limited_time":"","socket":"","standing_desk":"","mrt":"","open_time":""},{"id":"5caa87c7-61a2-418f-ad85-da4b5a24523a","name":"Bisou Bisou P\u00e2tisserie caf\u00e9","city":"hsinchu","wifi":4,"seat":3,"quiet":3,"tasty":4,"cheap":3,"music":4,"url":"https:\/\/www.facebook.com\/BISOUBISOU018\/","address":"\u65b0\u7af9\u7e23\u7af9\u5317\u5e02\u5609\u8c50\u4e94\u8def\u4e8c\u6bb518\u865f","latitude":"24.81076860","longitude":"121.02689820","limited_time":"","socket":"","standing_desk":"","mrt":"","open_time":""},{"id":"5cd42620-7259-4551-a808-0c602a94f5aa","name":"\u4e00\u60f3\u4e00\u97ffReEcho Coffee ","city":"hsinchu","wifi":5,"seat":4.5,"quiet":4,"tasty":5,"cheap":3.5,"music":5,"url":"https:\/\/www.facebook.com\/reecho.coffee\/","address":"300\u65b0\u7af9\u5e02\u6771\u5340\u6c11\u751f\u8def58\u5df78\u865f","latitude":"24.80851300","longitude":"120.97905430","limited_time":"no","socket":"yes","standing_desk":"no","mrt":"","open_time":""},{"id":"5dae5c76-427b-4404-8b89-d67a0806678c","name":"\u7121\u7c73\u96c6\u6703\u6240","city":"hsinchu","wifi":5,"seat":4,"quiet":5,"tasty":4,"cheap":5,"music":5,"url":"https:\/\/www.facebook.com\/umicafelodge\/","address":"407\u53f0\u4e2d\u5e02\u897f\u5c6f\u5340\u798f\u4e0a\u5df7216\u5f0418\u865f","latitude":"24.80137200","longitude":"120.96653090","limited_time":"no","socket":"maybe","standing_desk":"yes","mrt":"","open_time":""},{"id":"5dd20a54-8f53-472c-9583-49c4fce9f07a","name":"\u85cd\u8c46\u5496\u5561","city":"hsinchu","wifi":5,"seat":4,"quiet":5,"tasty":4,"cheap":3,"music":5,"url":"https:\/\/www.facebook.com\/bluebeanscafe\/","address":"\u65b0\u7af9\u7e23\u7af9\u5317\u5e02\u6587\u8208\u8def205\u865f","latitude":"24.81562610","longitude":"121.01930810","limited_time":"no","socket":"no","standing_desk":"yes","mrt":"","open_time":""},{"id":"5edec626-ebe6-4f1c-9ffd-b1def0bd3cca","name":"\u8403\u8403\u5496\u5561TsuiCafe","city":"hsinchu","wifi":5,"seat":5,"quiet":5,"tasty":4,"cheap":4,"music":5,"url":"https:\/\/www.facebook.com\/TsuiCafe2020\/","address":"313\u65b0\u7af9\u7e23\u5c16\u77f3\u9109\u4e09\u9130151\u865f","latitude":"24.57606670","longitude":"121.30840880","limited_time":"no","socket":"maybe","standing_desk":"yes","mrt":"","open_time":""},{"id":"60ebaafb-af51-49e1-87ef-e78e904e799a","name":"HILA FOOLS \u5496\u5561\u5916\u5e36\u5427","city":"hsinchu","wifi":0,"seat":0,"quiet":0,"tasty":0,"cheap":0,"music":0,"url":"","address":"300\u65b0\u7af9\u5e02\u6771\u5340\u5149\u5fa9\u8def\u4e00\u6bb589\u5df795\u865f","latitude":"24.77928100","longitude":"121.02493700","limited_time":"","socket":"","standing_desk":"","mrt":"","open_time":""},{"id":"61674645-ed9a-4e4b-900d-1dc30a5a9252","name":"\u4e09\u5cf6sum:dao","city":"hsinchu","wifi":5,"seat":4,"quiet":4,"tasty":4,"cheap":4,"music":4.5,"url":"https:\/\/instagram.com\/sum_dao?utm_medium=copy_link","address":"302\u65b0\u7af9\u7e23\u7af9\u5317\u5e02\u79d1\u5927\u4e00\u8def185\u865f","latitude":"99.99999999","longitude":"24.82052160","limited_time":"maybe","socket":"maybe","standing_desk":"no","mrt":"","open_time":""},{"id":"617f6ae4-a1b2-4fd7-8fef-1ed80316d62b","name":"\u98db\u884c\u6a39\u5c4b\u5496\u5561","city":"hsinchu","wifi":4,"seat":4,"quiet":4,"tasty":5,"cheap":5,"music":5,"url":"www.flytreehouse.com","address":"\u65b0\u7af9\u5e02\u6771\u5340\u5149\u5fa9\u8def\u4e8c\u6bb518\u5df717\u865f","latitude":"24.79230630","longitude":"121.00455130","limited_time":"maybe","socket":"yes","standing_desk":"no","mrt":"","open_time":""},{"id":"61b254e6-13cb-4143-a957-d708865bca8b","name":"Choccy Metal Cafe' \u6572\u6572\u91d1\u5de5","city":"hsinchu","wifi":5,"seat":5,"quiet":5,"tasty":5,"cheap":5,"music":5,"url":"https:\/\/www.facebook.com\/choccymetal\/","address":"\u65b0\u7af9\u5e02\u5927\u540c\u8def140\u865f","latitude":"24.80633610","longitude":"120.96766600","limited_time":"","socket":"yes","standing_desk":"no","mrt":"","open_time":""},{"id":"62997e0d-a462-45cf-8335-dd65e1d2bf32","name":"fikarast coffee\u5561\u5361\u745e\u65af \u5317\u6b50\u5496\u5561\u9928","city":"hsinchu","wifi":4.5,"seat":5,"quiet":4.5,"tasty":4,"cheap":3,"music":4,"url":"http:\/\/www.fikarast.com.tw","address":"\u65b0\u7af9\u5e02\u5317\u5927\u8def166\u5df71\u5f045\u865f1F","latitude":"24.80985150","longitude":"120.96705730","limited_time":"no","socket":"maybe","standing_desk":"yes","mrt":"","open_time":"\u539f\u5730\u5740\u5df2\u7d93\u8b8a\u6210\u53e6\u5916\u4e00\u9593\u5496\u5561\u5e97.......\u81c9\u66f8\u4e0a\u7684\u5730\u5740\u4e5f\u627e\u4e0d\u5230"},{"id":"630d1a48-f514-4d9f-8403-d009022fed33","name":"\u4e09\u89d2\u5496\u5561\u9928 \u8cb3\u5e97 Caf\u00e9 Triangle 2","city":"hsinchu","wifi":0,"seat":0,"quiet":0,"tasty":0,"cheap":0,"music":0,"url":"","address":"\u65b0\u7af9\u7e23\u7af9\u5317\u5e02\u5609\u8c50\u5357\u8def\u4e8c\u6bb511\u865f1\u6a13","latitude":"24.80789380","longitude":"121.03260540","limited_time":"","socket":"","standing_desk":"","mrt":"","open_time":""},{"id":"6353e7ab-9838-442b-b734-60a68bfe5512","name":"\u4e5d\u6155\u624b\u70d8\u5496\u5561 Mooor coffee","city":"hsinchu","wifi":4,"seat":4,"quiet":3,"tasty":4,"cheap":4,"music":4.5,"url":"https:\/\/www.facebook.com\/mooorcoffee\/","address":"\u6771\u5340\u4e2d\u6b63\u8def60\u865f","latitude":"24.80523900","longitude":"120.96979600","limited_time":"no","socket":"yes","standing_desk":"no","mrt":"","open_time":""},{"id":"637fc6b0-2433-4f9f-8a19-d3bfca68b0ce","name":"BEANSTORE COFFEE \u597d\u8c46\u5496\u5561","city":"hsinchu","wifi":5,"seat":5,"quiet":5,"tasty":5,"cheap":3,"music":5,"url":"http:\/\/www.beanstore.com.tw\/","address":"\u65b0\u7af9\u5e02\u5317\u5340\u6797\u68ee\u8def279\u865f","latitude":"24.79761100","longitude":"120.96205410","limited_time":"no","socket":"maybe","standing_desk":"yes","mrt":"","open_time":"10:00~22:00"},{"id":"65aa47e0-b1ea-4918-9356-1e5c307eda2d","name":"\u57ce\u5496URBAN TRIBE","city":"hsinchu","wifi":5,"seat":5,"quiet":5,"tasty":5,"cheap":5,"music":5,"url":"https:\/\/www.facebook.com\/urbantribetw\/","address":"\u65b0\u7af9\u5e02\u5317\u5340\u6b66\u9675\u8def22\u865f\u865f 1 \u6a13","latitude":"24.81588730","longitude":"120.96306630","limited_time":"no","socket":"maybe","standing_desk":"yes","mrt":"","open_time":""},{"id":"65d1a672-b23c-47e9-9dc9-52b965cc41b8","name":"\u5496\u5561\u6728","city":"hsinchu","wifi":4,"seat":4,"quiet":4,"tasty":3,"cheap":3,"music":3,"url":"https:\/\/zh-tw.facebook.com\/CoffeeWood%E5%92%96%E5%95%A1%E6%9C%A8-1544539172479717\/?ref=page_internal","address":"300\u65b0\u7af9\u5e02\u6771\u5340\u4e09\u6c11\u8def148\u865f","latitude":"24.81009910","longitude":"120.97924640","limited_time":"","socket":"maybe","standing_desk":"no","mrt":"","open_time":""},{"id":"65f48c66-6b84-4ae3-aed2-adf34a6732d3","name":"Deer Nana cafe","city":"hsinchu","wifi":5,"seat":5,"quiet":4,"tasty":5,"cheap":4,"music":4,"url":"https:\/\/www.facebook.com\/pg\/Deernanacafe\/about\/?ref=page_internal","address":"304\u65b0\u7af9\u7e23\u65b0\u8c50\u9109\u5d01\u982d5\u913081-6\u865f","latitude":"24.90876920","longitude":"121.01056770","limited_time":"maybe","socket":"maybe","standing_desk":"no","mrt":"","open_time":"\u5047\u65e5\u9650\u66423\u5c0f\u6642"},{"id":"67b2c27e-6b9d-41ca-9d70-0621f15c7b69","name":"\u6021\u5ba2\u5496\u5561 \u65b0\u7af9\u5149\u5fa9\u5e97","city":"hsinchu","wifi":3,"seat":4.5,"quiet":2,"tasty":3.5,"cheap":4,"music":3,"url":"http:\/\/www.ikari.com.tw","address":"\u65b0\u7af9\u5e02\u5149\u5fa9\u8def\u4e8c\u6bb5738\u865f1\u6a13","latitude":"24.80050240","longitude":"120.98890580","limited_time":"no","socket":"maybe","standing_desk":"no","mrt":"","open_time":"7:00~21:00"},{"id":"685678e2-b6b4-4891-bccc-758f50fa1329","name":"\u58a8\u5496\u5561","city":"hsinchu","wifi":4,"seat":4,"quiet":3.5,"tasty":5,"cheap":3,"music":4,"url":"https:\/\/www.facebook.com\/inkcoffee99\/","address":"\u65b0\u7af9\u5e02\u6771\u5340\u6797\u68ee\u8def180\u865f","latitude":"24.79915600","longitude":"120.96433550","limited_time":"no","socket":"maybe","standing_desk":"no","mrt":"","open_time":""},{"id":"68cb26bc-c2eb-411d-a0ae-334ad63c9f33","name":"23 Coffee Roasters","city":"hsinchu","wifi":5,"seat":4,"quiet":5,"tasty":5,"cheap":4,"music":5,"url":"https:\/\/www.facebook.com\/23cafe23\/","address":"\u65b0\u7af9\u5e02\u5317\u5340\u897f\u9580\u8857152\u865f","latitude":"24.80121300","longitude":"120.96260900","limited_time":"no","socket":"yes","standing_desk":"yes","mrt":"","open_time":""},{"id":"69160df8-f490-48c8-a048-12a3b659c602","name":"Coffee onwer","city":"hsinchu","wifi":5,"seat":3,"quiet":5,"tasty":5,"cheap":3,"music":5,"url":"","address":"\u65b0\u7af9\u7e23\u7af9\u5317\u5e02\u798f\u8208\u6771\u8def\u4e8c\u6bb5109\u865f","latitude":"24.81462900","longitude":"121.02868280","limited_time":"no","socket":"yes","standing_desk":"no","mrt":"","open_time":""},{"id":"6972dc77-48b2-48e6-be71-93fd6fc9e40c","name":"Funk Sugar \u653e\u310e\u7cd6","city":"hsinchu","wifi":5,"seat":5,"quiet":3,"tasty":3,"cheap":5,"music":5,"url":"https:\/\/www.facebook.com\/funksugar1983\/","address":"310\u65b0\u7af9\u7e23\u7af9\u6771\u93ae\u5317\u8208\u8def\u4e8c\u6bb581\u5df72\u865f","latitude":"24.73928940","longitude":"121.09264610","limited_time":"no","socket":"yes","standing_desk":"yes","mrt":"","open_time":""},{"id":"69c21b4b-4dc9-4637-afc1-809c0467c04e","name":"\u9054\u5229\u81ea\u5bb6\u70d8\u7119\u7cbe\u54c1\u5496\u5561\u9928","city":"hsinchu","wifi":4,"seat":4,"quiet":3.5,"tasty":4,"cheap":3,"music":3,"url":"https:\/\/www.facebook.com\/DALI.Specialty.Cafe\/","address":"\u7af9\u5317\u5e02\u5efa\u570b\u885737\u865f","latitude":"24.83242820","longitude":"121.01235380","limited_time":"","socket":"","standing_desk":"","mrt":"","open_time":""},{"id":"6a0003fb-8dcf-4f09-8fc4-8aa5e50bd396","name":"\u9ed1\u6c83\u5496\u5561-\u5357\u5927\u5e97","city":"hsinchu","wifi":5,"seat":5,"quiet":5,"tasty":4,"cheap":3,"music":3,"url":"","address":"\u65b0\u7af9\u5e02\u6771\u5340\u5357\u5927\u8def357\u865f","latitude":"24.79704450","longitude":"120.96899990","limited_time":"","socket":"","standing_desk":"","mrt":"","open_time":""},{"id":"6ac1d1bd-065a-4f64-88d8-3d134528f776","name":"\u70cf\u9ede'\u4f5c\u4f5c Woo,zuo-zuo","city":"hsinchu","wifi":5,"seat":5,"quiet":5,"tasty":5,"cheap":4,"music":5,"url":"https:\/\/www.facebook.com\/woo.zuozuo\/","address":"300\u65b0\u7af9\u5e02\u5317\u5340\u5149\u83ef\u6771\u885743-1\u865f","latitude":"24.81631210","longitude":"120.97428500","limited_time":"maybe","socket":"no","standing_desk":"no","mrt":"","open_time":"\u4e0d\u5b9a\u4f11\uff0c\u5b98\u7db2\u516c\u544a"},{"id":"6aeca9d4-8792-4deb-b71b-55276b7b7883","name":"\u5bb6\u65cf\u5496\u5561caf\u00e9 de famille","city":"hsinchu","wifi":4,"seat":4,"quiet":4,"tasty":5,"cheap":3,"music":3,"url":"https:\/\/www.facebook.com\/cafedefamillekazoku\/","address":"\u65b0\u7af9\u7e23\u7af9\u5317\u5e02\u5609\u8208\u8def456\u865f","latitude":"24.82361550","longitude":"121.03393460","limited_time":"no","socket":"maybe","standing_desk":"","mrt":"","open_time":""},{"id":"6b49cf20-bda0-4d7f-92be-71cc285fba17","name":"J.eat caf'e","city":"hsinchu","wifi":5,"seat":4,"quiet":4,"tasty":4,"cheap":5,"music":5,"url":"https:\/\/www.facebook.com\/j.eat.cafe\/","address":"\u65b0\u7af9\u7e23\u7af9\u5317\u5e02\u6210\u529f8\u8def285\u865f","latitude":"24.81616800","longitude":"121.02203940","limited_time":"","socket":"","standing_desk":"","mrt":"","open_time":""},{"id":"706ac44c-bfb1-4e44-bfbc-e658740133c3","name":"This Cafe","city":"hsinchu","wifi":0,"seat":0,"quiet":0,"tasty":0,"cheap":0,"music":0,"url":"","address":"\u65b0\u7af9\u7e23\u7af9\u6771\u93ae\u4e09\u6c11\u885761\u865f","latitude":"24.73990730","longitude":"121.08797630","limited_time":"maybe","socket":"maybe","standing_desk":"no","mrt":"","open_time":""},{"id":"71ebabe1-0725-40f1-ab94-262c5f3b1b5d","name":"\u99a5 Fu Cafe","city":"hsinchu","wifi":0,"seat":0,"quiet":0,"tasty":0,"cheap":0,"music":0,"url":"https:\/\/www.facebook.com\/fucafes\/","address":"\u65b0\u7af9\u7e23\u7af9\u5317\u5e02\u5341\u8208\u4e09\u885775\u865f","latitude":"24.82396900","longitude":"121.03421200","limited_time":"maybe","socket":"maybe","standing_desk":"yes","mrt":"","open_time":""},{"id":"750d1d9c-1775-4528-bdc6-b34a7816b622","name":"\u62db\u8ca1\u5496\u5561","city":"hsinchu","wifi":3,"seat":4,"quiet":4,"tasty":3,"cheap":3,"music":4,"url":"https:\/\/www.facebook.com\/successcafe21","address":"300\u65b0\u7af9\u5e02\u5317\u5340\u82f1\u660e\u88576-1\u865f","latitude":"24.80692430","longitude":"120.96746850","limited_time":"maybe","socket":"maybe","standing_desk":"no","mrt":"","open_time":""},{"id":"7926daa6-565e-47d0-9f25-79c553eab598","name":"\u62fe\u7a57\u5496\u5561","city":"hsinchu","wifi":5,"seat":5,"quiet":5,"tasty":5,"cheap":5,"music":5,"url":"https:\/\/www.facebook.com\/GleanerCoffee\/","address":"\u65b0\u7af9\u5e02\u6771\u5340\u9577\u6625\u8857105\u5df71\u865f","latitude":"24.78722840","longitude":"121.01545270","limited_time":"no","socket":"yes","standing_desk":"yes","mrt":"","open_time":""},{"id":"7964bd2c-88f1-4cc4-8a20-0ec58a0cf66d","name":"\u674e\u514b\u627f\u535a\u58eb\u6545\u5c45 a-moom","city":"hsinchu","wifi":0,"seat":0,"quiet":0,"tasty":0,"cheap":0,"music":0,"url":"","address":"300\u65b0\u7af9\u5e02\u6771\u5340\u52dd\u5229\u8def199\u865f","latitude":"24.80127040","longitude":"120.96412040","limited_time":"","socket":"","standing_desk":"","mrt":"","open_time":""},{"id":"7b3217ac-b92d-4654-b649-723cbed3c25a","name":"\u6708\u4e4b\u8000\u5496\u5561","city":"hsinchu","wifi":0,"seat":4,"quiet":4,"tasty":4,"cheap":3,"music":2,"url":"https:\/\/www.facebook.com\/yesyoucafe\/","address":"30056\u65b0\u7af9\u5e02\u5317\u5340\u65b0\u7af9\u5e02\u5ef6\u5e73\u8def1\u6bb5161\u5df724\u865f","latitude":"24.80296510","longitude":"120.96169200","limited_time":"no","socket":"","standing_desk":"yes","mrt":"","open_time":""},{"id":"7c4b4459-f867-436b-bb89-126fa63dd5a5","name":"GB5 \u7528\u5fc3\u7684\u5496\u5561","city":"hsinchu","wifi":5,"seat":4,"quiet":4.5,"tasty":5,"cheap":3.5,"music":4.5,"url":"https:\/\/www.facebook.com\/GB5-%E7%94%A8%E5%BF%83%E7%9A%84%E5%92%96%E5%95%A1-104962639583557\/","address":"\u65b0\u7af9\u5e02\u6771\u5340\u8208\u5b78\u885796\u865f","latitude":"24.79752330","longitude":"120.96610480","limited_time":"no","socket":"no","standing_desk":"no","mrt":"","open_time":"\u9031\u4e8c\u81f3\u9031\u516d12PM-9PM\uff1b\u9031\u65e512PM-6PM\uff1b\u9031\u4e00\u516c\u4f11"},{"id":"7d8c423d-9c8e-4bf5-b0aa-54d4a5d8f8a9","name":"\u5c0f\u5357\u74dc\u5496\u5561\u9928 Little Pumpkin Cafe","city":"hsinchu","wifi":5,"seat":5,"quiet":5,"tasty":4,"cheap":4,"music":4,"url":"https:\/\/www.facebook.com\/littlepumpkincafe\/","address":"302054\u65b0\u7af9\u7e23\u7af9\u5317\u5e02\u516d\u5bb6\u4e94\u8def\u4e00\u6bb5207\u865f","latitude":"24.80839570","longitude":"121.02810670","limited_time":"no","socket":"maybe","standing_desk":"no","mrt":"","open_time":"\u4e00\u500b\u6708\u53ea\u958b\u5e7e\u5929\u770b\u5b98\u7db2\u516c\u544a"},{"id":"7f397bb6-b61c-45da-b08c-9d4d154df97a","name":"\u9006\u52e2\u5496\u5561","city":"hsinchu","wifi":0,"seat":0,"quiet":0,"tasty":5,"cheap":5,"music":0,"url":"","address":"\u65b0\u7af9\u5e02\u570b\u83ef\u885761\u865f","latitude":"24.81596190","longitude":"120.97060790","limited_time":"no","socket":"no","standing_desk":"no","mrt":"","open_time":""},{"id":"810a0a7a-a0fc-4889-886a-5640050cbec5","name":"\u4e8c\u5341\u56db\u5206\u4e4b\u4e00\u65e9\u5348\u9910 \u624b\u4f5c\u9eb5\u5305","city":"hsinchu","wifi":5,"seat":2,"quiet":3,"tasty":4,"cheap":3,"music":4,"url":"","address":"302\u65b0\u7af9\u7e23\u7af9\u5317\u5e02\u6587\u8208\u8def51\u865f","latitude":"24.81753000","longitude":"121.01572630","limited_time":"","socket":"","standing_desk":"","mrt":"","open_time":""},{"id":"8193cc54-6022-4624-ac8d-d2bf75770396","name":"\u82b1\u795e\u5496\u5561","city":"hsinchu","wifi":5,"seat":5,"quiet":4,"tasty":5,"cheap":5,"music":4,"url":"https:\/\/cafedeflore95.mymy.tw\/","address":"\u65b0\u7af9\u5e02\u6771\u5340\u6771\u9580\u885795\u865f","latitude":"24.80403830","longitude":"120.96948830","limited_time":"maybe","socket":"maybe","standing_desk":"no","mrt":"","open_time":"10:00~19:00\uff0c\u9031\u4e8c\u516c\u4f11"},{"id":"836cf978-1b67-4648-b1e8-ede05a11b122","name":"Titta Cafe\u63d0\u5854\u5496\u5561","city":"hsinchu","wifi":5,"seat":5,"quiet":5,"tasty":4,"cheap":3,"music":4,"url":"","address":"300\u65b0\u7af9\u5e02\u6771\u5340\u6c11\u65cf\u8def158-3\u865f","latitude":"24.80872280","longitude":"120.97875470","limited_time":"no","socket":"yes","standing_desk":"yes","mrt":"","open_time":""},{"id":"83d2cfea-b484-4474-bf08-5e90d6412c47","name":"UEUE \u9b31\u9b31","city":"hsinchu","wifi":5,"seat":5,"quiet":5,"tasty":4,"cheap":4,"music":5,"url":"","address":"\u65b0\u7af9\u5e02\u6771\u5340\u6c11\u6b0a\u8def96\u5df78\u865f","latitude":"24.80773070","longitude":"120.97583810","limited_time":"no","socket":"maybe","standing_desk":"","mrt":"","open_time":""},{"id":"86dad326-f9fe-462a-9584-b209e670074a","name":"Coffee Owner","city":"hsinchu","wifi":5,"seat":5,"quiet":4,"tasty":5,"cheap":4,"music":5,"url":"https:\/\/www.facebook.com\/CoffeeOwner109\/","address":"\u65b0\u7af9\u7e23\u7af9\u5317\u5e02\u798f\u8208\u6771\u8def\u4e8c\u6bb5109\u865f1\u6a13","latitude":"24.81766150","longitude":"121.02556040","limited_time":"no","socket":"yes","standing_desk":"yes","mrt":"","open_time":""},{"id":"8728ef04-ed63-4116-acc1-bcd1f15e4732","name":"\u6ce2\u65af\u5361\u5fb7\u5217\u65e5\u9b06\u9905","city":"hsinchu","wifi":0,"seat":0,"quiet":0,"tasty":0,"cheap":0,"music":0,"url":"https:\/\/www.facebook.com\/postcardofrick\/","address":"\u65b0\u7af9\u7e23\u7af9\u5317\u5e02\u5149\u660e\u4e5d\u8def197\u865f","latitude":"24.82646240","longitude":"121.00746910","limited_time":"","socket":"","standing_desk":"","mrt":"","open_time":""},{"id":"8754a32d-27cf-43b4-b0d0-e36c850f719f","name":"Redness coffee","city":"hsinchu","wifi":5,"seat":5,"quiet":5,"tasty":5,"cheap":4,"music":4,"url":"https:\/\/www.facebook.com\/rednesscoffee\/","address":"\u65b0\u7af9\u5e02\u91d1\u5c7112\u885711\u865f","latitude":"24.77727610","longitude":"121.02234500","limited_time":"maybe","socket":"maybe","standing_desk":"yes","mrt":"","open_time":""},{"id":"887c24aa-e433-4f24-9d8d-ce89927370b9","name":"33coffee\u53c1\u62fe\u53c1\u7cbe\u54c1\u5496\u5561_\u65b0\u7af9\u5e97","city":"hsinchu","wifi":0,"seat":0,"quiet":0,"tasty":0,"cheap":0,"music":0,"url":"","address":"300\u65b0\u7af9\u5e02\u6771\u5340\u6771\u5357\u8857142\u5df710\u865f","latitude":"24.79716530","longitude":"120.97382770","limited_time":"","socket":"","standing_desk":"","mrt":"","open_time":""},{"id":"89ac2ed7-1707-4c45-80ff-11a48900b9be","name":"Leonana \u9ece\u6b50\u5a1c\u5a1c\u85dd\u5eca\u5496\u5561","city":"hsinchu","wifi":4,"seat":4,"quiet":4,"tasty":4.5,"cheap":3.5,"music":4,"url":"https:\/\/www.facebook.com\/leonana.cafe\/","address":"\u65b0\u7af9\u7e23\u7af9\u5317\u5e02\u5149\u660e\u516d\u8def\u6771\u4e8c\u6bb5212\u865f","latitude":"24.81455340","longitude":"121.03263240","limited_time":"no","socket":"maybe","standing_desk":"","mrt":"","open_time":""},{"id":"8b28834c-04d7-4108-a861-85c4c8075b57","name":"\u6c92\u6709\u540d\u5b57\u7684\u751c\u9ede\u5c08\u8ce3Noname Dessert","city":"hsinchu","wifi":0,"seat":0,"quiet":0,"tasty":0,"cheap":0,"music":0,"url":"","address":"\u65b0\u7af9\u5e02\u9999\u5c71\u5340\u4e2d\u83ef\u8def\u516d\u6bb5331\u5df7335\u865f","latitude":"24.74065100","longitude":"120.91000700","limited_time":"","socket":"","standing_desk":"","mrt":"","open_time":""},{"id":"8e240d82-4321-4823-8a77-486a2b794701","name":"\u597d\u65e5\u3002\u65b0\u7af9","city":"hsinchu","wifi":4,"seat":3,"quiet":3,"tasty":3,"cheap":2,"music":3,"url":"https:\/\/www.facebook.com\/GoodDay0903\/","address":" 300\u65b0\u7af9\u5e02\u4e09\u6c11\u8def12\u865f","latitude":"24.80724300","longitude":"120.97337850","limited_time":"maybe","socket":"no","standing_desk":"no","mrt":"","open_time":""},{"id":"8e404d97-0695-4c53-a4f4-d49a95baa846","name":"\u65e5\u5e38\u5496\u5561 Le caf\u00e9 quotidien","city":"hsinchu","wifi":5,"seat":5,"quiet":4,"tasty":4,"cheap":4,"music":4,"url":"https:\/\/www.facebook.com\/pg\/lecafequotidien\/about\/?ref=page_internal","address":"\u65b0\u7af9\u5e02\u5b78\u5e9c\u8def61\u5df75-1\u865f1\u6a13","latitude":"24.79505350","longitude":"120.97794420","limited_time":"no","socket":"yes","standing_desk":"yes","mrt":"","open_time":"10:30-19:30"},{"id":"8f66d080-d07c-4f4b-abc4-2d1db7b511dd","name":"Tiny House \u5c0f\u623f\u5b50\u5496\u5561","city":"hsinchu","wifi":5,"seat":5,"quiet":5,"tasty":4,"cheap":5,"music":5,"url":"https:\/\/www.facebook.com\/tinyhousedessert\/?locale2=zh_TW","address":"\u65b0\u7af9\u5e02\u5149\u5fa9\u8def1\u6bb5163\u5df715\u865f","latitude":"24.78117910","longitude":"121.02233000","limited_time":"maybe","socket":"maybe","standing_desk":"yes","mrt":"","open_time":""},{"id":"8fd8fec8-449e-433c-9f87-dd5992ab814f","name":"POLO CAFE","city":"hsinchu","wifi":0,"seat":0,"quiet":0,"tasty":0,"cheap":0,"music":0,"url":"","address":"\u65b0\u7af9\u7e23\u7af9\u5317\u5e02\u74b0\u5317\u8def\u4e00\u6bb5105\u865f","latitude":"24.83824440","longitude":"121.02086660","limited_time":"","socket":"","standing_desk":"","mrt":"","open_time":""},{"id":"90ccd44b-d202-4cd8-ba52-47402d542e1e","name":"Fumi\u624b\u4f5c\u70d8\u7119Cafe","city":"hsinchu","wifi":4,"seat":5,"quiet":4.5,"tasty":4,"cheap":3.5,"music":4.5,"url":"https:\/\/www.facebook.com\/fumicafe035586631\/","address":"\u65b0\u7af9\u7e23\u7af9\u5317\u5e02\u6587\u7fa9\u8857245\u865f","latitude":"24.83118880","longitude":"121.01339700","limited_time":"no","socket":"maybe","standing_desk":"","mrt":"","open_time":"11:00-20:00"},{"id":"9277e330-b234-452c-96cf-06f98a71be24","name":"\u91ce\u4eba\u5c71\u4e18","city":"hsinchu","wifi":0,"seat":5,"quiet":4,"tasty":5,"cheap":0,"music":0,"url":"","address":"\u65b0\u7af9\u7e23\u6a6b\u5c71\u9109\u5167\u7063\u6751\u5167\u706338-2\u865f","latitude":"24.70554230","longitude":"121.18380910","limited_time":"no","socket":"maybe","standing_desk":"","mrt":"","open_time":""},{"id":"92a4c05e-740d-4e59-a3f4-316a19d6e0d9","name":"Migration \u9077\u5f99 l \u5496\u5561&\u6c11\u5bbf","city":"hsinchu","wifi":0,"seat":0,"quiet":4,"tasty":5,"cheap":4,"music":4,"url":"https:\/\/www.facebook.com\/migrationbb2015\/","address":"\u6a6b\u5c71\u9109\u5167\u7063\u6751\u548c\u5e73\u885718\u865f","latitude":"24.70694700","longitude":"121.18024310","limited_time":"","socket":"","standing_desk":"","mrt":"","open_time":""},{"id":"93251f3d-dbcc-46e4-914f-dc177bf28020","name":"RD Cafe","city":"hsinchu","wifi":4,"seat":5,"quiet":3,"tasty":5,"cheap":5,"music":3,"url":"https:\/\/www.facebook.com\/rdcafe2015\/","address":"\u53f0\u7063\u65b0\u7af9\u5e02\u6771\u5340\u5149\u5fa9\u8def\u4e8c\u6bb5221\u865f","latitude":"24.79948130","longitude":"120.99123080","limited_time":"","socket":"","standing_desk":"","mrt":"","open_time":""},{"id":"93738233-ab2f-48e2-a0ce-2c0d3a245e64","name":"\u8c46\u5c45\u5496\u5561","city":"hsinchu","wifi":0,"seat":4,"quiet":4,"tasty":5,"cheap":4,"music":4,"url":"","address":"\u65b0\u7af9\u5e02\u65b0\u838a\u8857141\u865f","latitude":"24.78743700","longitude":"121.01705300","limited_time":"","socket":"","standing_desk":"","mrt":"","open_time":""},{"id":"951992c6-3104-4cbc-a0d2-e83db932066b","name":"\u5c0f\u4e39\u5496\u5561","city":"hsinchu","wifi":0,"seat":0,"quiet":0,"tasty":0,"cheap":0,"music":0,"url":"","address":"\u5317\u5340\u9435\u9053\u8def\u4e8c\u6bb595\u865f","latitude":"24.81708210","longitude":"120.97825970","limited_time":"","socket":"","standing_desk":"","mrt":"","open_time":""},{"id":"96654e38-33ba-444c-94fd-bd8f9650749e","name":"\u6a02\u6a02\u9577\u5496\u5561","city":"hsinchu","wifi":5,"seat":5,"quiet":5,"tasty":4,"cheap":5,"music":5,"url":"www.facebook.com\/everejoice.CAFE\/","address":"\u828e\u6797\u9109\u4e0b\u5c71\u6751\u4e03\u913082-2\u865f","latitude":"24.81189640","longitude":"121.05447920","limited_time":"","socket":"maybe","standing_desk":"no","mrt":"","open_time":""},{"id":"967b0ccf-275c-4879-b520-d345bc118ae0","name":"\u6697\u5ba4\u5fae\u5149","city":"hsinchu","wifi":4,"seat":3,"quiet":3,"tasty":4,"cheap":3.5,"music":4,"url":"https:\/\/www.facebook.com\/%E6%9A%97%E5%AE%A4%E5%BE%AE%E5%85%89-1635926836645979\/","address":"\u65b0\u7af9\u5e02\u6771\u5340\u52dd\u5229\u8def97\u865f","latitude":"24.80025000","longitude":"120.96686800","limited_time":"no","socket":"maybe","standing_desk":"no","mrt":"","open_time":""},{"id":"96e5ade7-0425-459a-9c9b-a43abd153d36","name":"\u539f\u8c46\u7a7a\u9593 12\u865f\u5496\u5561\u9928","city":"hsinchu","wifi":5,"seat":5,"quiet":5,"tasty":5,"cheap":3,"music":4,"url":"https:\/\/www.facebook.com\/%E5%8E%9F%E8%B1%86%E7%A9%BA%E9%96%93-12%E8%99%9F%E5%92%96%E5%95%A1%E9%A4%A8-233173473539607\/","address":"\u7af9\u5317\u5e02\u5609\u8c50\u4e00\u885712\u865f","latitude":"24.81744250","longitude":"121.02993840","limited_time":"","socket":"","standing_desk":"","mrt":"","open_time":""},{"id":"995960fc-6b94-4fca-b649-033177698dbd","name":"\u7af9\u79d1\u8eca\u5eab\u9910\u5ef3","city":"hsinchu","wifi":5,"seat":3,"quiet":3,"tasty":5,"cheap":4,"music":5,"url":"https:\/\/m.facebook.com\/%E7%AB%B9%E7%A7%91%E8%BB%8A%E5%BA%AB%E9%A4%90%E5%BB%B3-1611168985820398\/?ref=page_internal&mt_nav=1","address":"\u65b0\u7af9\u5e02\u6771\u5340\u65b0\u5b89\u8def2-2\u865f","latitude":"24.78165870","longitude":"121.00590700","limited_time":"","socket":"maybe","standing_desk":"no","mrt":"","open_time":""},{"id":"9a266bb5-9798-4990-aba0-9a337a3e604d","name":"\u7c73\u65e5\u5ba2","city":"hsinchu","wifi":5,"seat":5,"quiet":5,"tasty":4.5,"cheap":5,"music":5,"url":"","address":"\u65b0\u7af9\u5e02\u5317\u5340\u5317\u5927\u8def166\u5df71\u5f046","latitude":"24.80998150","longitude":"120.96716180","limited_time":"","socket":"","standing_desk":"","mrt":"","open_time":""},{"id":"9e323d5d-2c86-4adc-8fe1-ea16c1103d14","name":"Jin Coffee","city":"hsinchu","wifi":5,"seat":5,"quiet":5,"tasty":5,"cheap":5,"music":5,"url":"https:\/\/zh-tw.facebook.com\/JinCoffee0201\/","address":"302\u65b0\u7af9\u7e23\u7af9\u5317\u5e02\u6587\u91c7\u8857133\u865f","latitude":"24.83394580","longitude":"121.01863180","limited_time":"no","socket":"maybe","standing_desk":"no","mrt":"","open_time":""},{"id":"9f396814-f26a-4558-9f58-b85f3a11eae1","name":"\u65b0\u92b3\u5496\u5561\u7af9\u5317\u7e23\u653f\u5e97(\u82e5\u6728\u6df1\u591c\u5496\u5561\u5ef3)","city":"hsinchu","wifi":5,"seat":5,"quiet":4,"tasty":4,"cheap":5,"music":5,"url":"https:\/\/www.facebook.com\/\u65b0\u92b3\u5496\u5561\u7af9\u5317\u7e23\u653f\u5e97-332894730613367\/","address":"302\u65b0\u7af9\u7e23\u7af9\u5317\u5e02\u7e23\u653f\u4e8c\u8def70\u865f","latitude":"24.82350700","longitude":"121.01460750","limited_time":"no","socket":"maybe","standing_desk":"no","mrt":"","open_time":""},{"id":"9f5fcb65-42b9-46ac-a87a-8e07ebf8389d","name":"\u90a3\u9846\u6854\u5b50 l \u74cf\u4e4b\u9676\u5496\u5561","city":"hsinchu","wifi":5,"seat":5,"quiet":4,"tasty":4,"cheap":4,"music":4,"url":"","address":"300\u65b0\u7af9\u5e02\u5317\u5340\u4e2d\u5c71\u8def40\u5df726\u865f","latitude":"24.80692970","longitude":"120.96671690","limited_time":"maybe","socket":"maybe","standing_desk":"yes","mrt":"","open_time":""},{"id":"9f6442a5-f90e-4749-8443-9bd257dfc981","name":"\u623f\u89d2\u77f3","city":"hsinchu","wifi":5,"seat":5,"quiet":4,"tasty":4,"cheap":5,"music":5,"url":"https:\/\/www.facebook.com\/GuDao01\/","address":"\u65b0\u7af9\u7e23\u7af9\u5317\u5e02\u6587\u5b5d\u885753\u865f","latitude":"24.83255590","longitude":"121.01952690","limited_time":"","socket":"no","standing_desk":"","mrt":"","open_time":""},{"id":"a1532235-9ec1-4c29-82bb-b49e08726b99","name":"inBush","city":"hsinchu","wifi":5,"seat":4.5,"quiet":4,"tasty":4.5,"cheap":3,"music":4.5,"url":"","address":"300\u65b0\u7af9\u5e02\u6771\u5340\u9577\u6625\u885760\u865f","latitude":"24.78596370","longitude":"121.01490050","limited_time":"no","socket":"maybe","standing_desk":"no","mrt":"","open_time":"10am-5:30pm cafe, 6pm-1am bar"},{"id":"a1a39ed4-ff36-4790-a0f2-18a1709211db","name":"MANO MANO","city":"hsinchu","wifi":4,"seat":4,"quiet":4,"tasty":4,"cheap":4,"music":5,"url":"","address":"300\u65b0\u7af9\u5e02\u6771\u5340\u9577\u6625\u885777\u865f","latitude":"24.78657510","longitude":"121.01503110","limited_time":"","socket":"","standing_desk":"","mrt":"","open_time":""},{"id":"a2602339-53ec-459c-a742-0c513d080661","name":"\u611b\u5403\u9b5a\u7684\u72d7","city":"hsinchu","wifi":4,"seat":5,"quiet":5,"tasty":4,"cheap":0,"music":5,"url":"https:\/\/www.facebook.com\/DogLoveFish\/","address":"\u7af9\u5317\u5e02\u6771\u6d77\u4e00\u885795\u5df748\u865f","latitude":"24.81009500","longitude":"121.04695610","limited_time":"maybe","socket":"maybe","standing_desk":"yes","mrt":"","open_time":""},{"id":"a28f3128-5ebb-4587-8bbb-d027dee6920a","name":"Kiwi to go","city":"hsinchu","wifi":0,"seat":5,"quiet":4,"tasty":4,"cheap":4,"music":4,"url":"","address":"300\u65b0\u7af9\u5e02\u6771\u5340\u7af9\u84ee\u8857115\u865f","latitude":"24.79890120","longitude":"120.96951740","limited_time":"no","socket":"no","standing_desk":"yes","mrt":"","open_time":""},{"id":"a35ed585-7aec-481a-b3db-cf15eb83a827","name":"\u919c\u5c0f\u9d28\u5496\u5561","city":"hsinchu","wifi":4,"seat":5,"quiet":4,"tasty":4,"cheap":3,"music":1,"url":"https:\/\/www.facebook.com\/%E9%86%9C%E5%B0%8F%E9%B4%A8%E5%92%96%E5%95%A1%E5%B8%AB%E8%A8%93%E7%B7%B4%E4%B8%AD%E5%BF%83-158397670840017\/","address":"\u65b0\u7af9\u7e23\u65b0\u57d4\u93ae\u4e0a\u6a1f\u8def\u4e00\u6bb5291\u5df76\u865f","latitude":"24.83335900","longitude":"121.08209500","limited_time":"","socket":"","standing_desk":"","mrt":"","open_time":""},{"id":"a3b54447-7388-4fe1-8591-a34b063239b5","name":"\u53f0\u7063\u6c34\u9e7f\u5496\u5561\u9928 Sambar Caf\u00e9","city":"hsinchu","wifi":5,"seat":4.5,"quiet":3.5,"tasty":4.5,"cheap":5,"music":4.5,"url":"https:\/\/www.facebook.com\/pg\/%E5%8F%B0%E7%81%A3%E6%B0%B4%E9%B9%BF%E5%92%96%E5%95%A1%E9%A4%A8-Sambar-Caf%C3%A9-564813097002379\/about\/?ref=page_internal","address":"\u65b0\u7af9\u5e02\u5927\u540c\u8def202\u865f","latitude":"24.80779000","longitude":"120.96661300","limited_time":"no","socket":"no","standing_desk":"no","mrt":"","open_time":"11\uff1a00~20\uff1a00\uff08\u5468\u65e5\u516c\u4f11\uff09"},{"id":"a53e1c55-383d-4211-8014-03c40d8190de","name":"Jazz Coffee\u5496\u5561\u5e2b\u63a8\u5ee3\u4e2d\u5fc3Barista Education Center","city":"hsinchu","wifi":5,"seat":5,"quiet":5,"tasty":5,"cheap":4,"music":4,"url":"https:\/\/www.facebook.com\/JAZZDINER\/","address":"\u65b0\u7af9\u7e23\u7af9\u5317\u5e02\u5609\u8c50\u4e94\u8def\u4e00\u6bb5179\u865f","latitude":"24.81297100","longitude":"121.02929500","limited_time":"","socket":"","standing_desk":"","mrt":"","open_time":""},{"id":"a6981139-139c-48ed-ba68-c1cd0a858bef","name":"\u5b89\u5955\u5496\u5561","city":"hsinchu","wifi":5,"seat":5,"quiet":5,"tasty":5,"cheap":5,"music":5,"url":"","address":"\u65b0\u7af9\u7e23\u7af9\u5317\u5e02\u516d\u5bb6\u4e94\u8def\u4e00\u6bb5339\u865f","latitude":"24.80673260","longitude":"121.03080520","limited_time":"no","socket":"no","standing_desk":"no","mrt":"","open_time":""},{"id":"a6ee8554-d177-4bb7-8eaa-bb35333e6923","name":"Cama-\u5de8\u57ce\u5e97","city":"hsinchu","wifi":0,"seat":4,"quiet":3,"tasty":4,"cheap":3,"music":3,"url":"","address":"\u65b0\u7af9\u5e02\u6771\u5340\u6c11\u751f\u8def129\u865f1\u6a13","latitude":"24.81036010","longitude":"120.97677310","limited_time":"","socket":"","standing_desk":"","mrt":"","open_time":""},{"id":"a71b1536-336e-4bbf-ba56-08fd9a245fd4","name":"\u4e00\u767e\u7a2e\u5473\u9053","city":"hsinchu","wifi":5,"seat":2,"quiet":2,"tasty":3,"cheap":3,"music":4,"url":"https:\/\/www.facebook.com\/100tastes\/","address":" 300\u65b0\u7af9\u5e02\u5317\u5340\u77f3\u574a\u885736-3\u865f","latitude":"24.80259580","longitude":"120.96397100","limited_time":"maybe","socket":"maybe","standing_desk":"","mrt":"","open_time":"11:00 - 21:00"},{"id":"a8343e56-3916-4d77-8d03-243f6a195b73","name":"\u51f8\u9f3b\u5b50\u73fe\u70d8\u5496\u5561\u574a","city":"hsinchu","wifi":4.5,"seat":5,"quiet":4,"tasty":5,"cheap":4,"music":4,"url":"https:\/\/www.facebook.com\/bignosecafe\/?fref=ts","address":"\u53f0\u7063\u65b0\u7af9\u5e02\u6771\u5340\u4e2d\u83ef\u8def\u4e8c\u6bb5211\u865f","latitude":"24.80520160","longitude":"120.97737100","limited_time":"no","socket":"maybe","standing_desk":"yes","mrt":"","open_time":""},{"id":"a923a74c-89a9-4ee8-bb49-f51f8da9759d","name":"FOX.CONE coffee & bakes","city":"hsinchu","wifi":4,"seat":4,"quiet":4,"tasty":4,"cheap":5,"music":4,"url":"https:\/\/www.facebook.com\/foxdotcone","address":"\u65b0\u7af9\u5e02\u6771\u5340\u5357\u9580\u885712\u865f","latitude":"24.80035090","longitude":"120.96787570","limited_time":"no","socket":"","standing_desk":"","mrt":"","open_time":""},{"id":"a9c8c631-446f-4a80-b9b0-46b57fac4f33","name":"\u5361\u6bd4\u5496\u5561Catbii","city":"hsinchu","wifi":0,"seat":0,"quiet":0,"tasty":0,"cheap":0,"music":0,"url":"","address":"300\u65b0\u7af9\u5e02\u6771\u5340\u6771\u5927\u8def\u4e00\u6bb5232\u5df76-2\u865f","latitude":"24.81047910","longitude":"120.97097400","limited_time":"","socket":"","standing_desk":"","mrt":"","open_time":""},{"id":"aaa75638-b619-42b1-90d3-9c7d5306bb9a","name":"\u83e1\u840f\u5496\u5561","city":"hsinchu","wifi":5,"seat":4,"quiet":3,"tasty":5,"cheap":5,"music":4,"url":"https:\/\/www.facebook.com\/\u83e1\u840f\u5496\u5561-46967157198","address":"\u65b0\u7af9\u5e02\u6771\u5340\u82b1\u5712\u885767\u865f","latitude":"24.80367660","longitude":"120.97697710","limited_time":"no","socket":"maybe","standing_desk":"no","mrt":"","open_time":"14:00 - 22:00 \u9031\u65e5\u516c\u4f11"},{"id":"ab2075e3-337c-40a1-be32-76ef49cc3338","name":"\u6e90\u5178\u5496\u5561","city":"hsinchu","wifi":4,"seat":5,"quiet":5,"tasty":3,"cheap":3,"music":3,"url":"https:\/\/www.facebook.com\/%E6%BA%90%E5%85%B8%E5%92%96%E5%95%A1-419676308237925\/","address":"\u65b0\u7af9\u5e02\u5927\u540c\u8def155\u865f1F","latitude":"24.80681940","longitude":"120.96689800","limited_time":"no","socket":"maybe","standing_desk":"no","mrt":"","open_time":""},{"id":"b0517e6c-b9e2-4109-8446-943b85c21989","name":"\u871c\u7cd61990","city":"hsinchu","wifi":4,"seat":3.5,"quiet":3.5,"tasty":2,"cheap":2,"music":2,"url":"https:\/\/www.facebook.com\/hotsugar1990\/","address":"302\u65b0\u7af9\u7e23\u7af9\u5317\u5e02\u4e2d\u83ef\u8def343\u865f\u4e4b9\u865f\u4e8c\u6a13","latitude":"24.80204860","longitude":"120.96607880","limited_time":"no","socket":"maybe","standing_desk":"yes","mrt":"","open_time":""},{"id":"b0733689-8290-4b12-bb2c-2b25ac1f5564","name":"\u6b21\u80c3\u751c\u9ede","city":"hsinchu","wifi":4,"seat":3,"quiet":3,"tasty":3,"cheap":3,"music":2.5,"url":"https:\/\/www.facebook.com\/secondstomachdessert\/","address":"300\u65b0\u7af9\u5e02\u6771\u5340\u5efa\u4e2d\u8def89\u865f","latitude":"24.80283400","longitude":"120.99575500","limited_time":"no","socket":"maybe","standing_desk":"no","mrt":"","open_time":""},{"id":"b0a104d8-985c-4b14-a3e6-5c8eb68c6979","name":"\u51aa La Miette Cafe","city":"hsinchu","wifi":4,"seat":4,"quiet":3,"tasty":3,"cheap":3,"music":5,"url":"https:\/\/www.facebook.com\/lamiettecafe\/","address":"\u65b0\u7af9\u5e02\u7d93\u570b\u8def\u4e8c\u6bb5352\u865f","latitude":"24.80798310","longitude":"120.95786900","limited_time":"no","socket":"yes","standing_desk":"yes","mrt":"","open_time":""},{"id":"b42d6b1b-c3fa-4f4c-a37f-41c140069ad9","name":"Hollatte\u99a5\u62ff\u9435 \u81ea\u70d8\u5496\u5561 \u7af9\u6771\u5e97","city":"hsinchu","wifi":5,"seat":4,"quiet":4,"tasty":5,"cheap":5,"music":5,"url":"https:\/\/m.facebook.com\/hollatte4\/?locale2=zh_TW","address":"310\u65b0\u7af9\u7e23\u7af9\u6771\u93ae\u4e2d\u8208\u8def\u4e8c\u6bb5240\u865f","latitude":"24.76186620","longitude":"121.06142330","limited_time":"no","socket":"yes","standing_desk":"yes","mrt":"","open_time":"\u4f8b\u5047\u65e5\u53e6\u884c\u516c\u544a\u65bc\u7c89\u7d72\u5c08\u9801"},{"id":"b8453ec6-48cc-4b3c-8096-25bc2174d1ac","name":"\u514b\u8513\u8389\u5496\u5561\u9928","city":"hsinchu","wifi":4,"seat":3,"quiet":3,"tasty":3,"cheap":4,"music":4,"url":"https:\/\/www.facebook.com\/k.memory1525\/","address":"300\u65b0\u7af9\u5e02\u6771\u5340\u6797\u68ee\u8def2\u865f\u56db\u6a13","latitude":"24.80207500","longitude":"120.97084500","limited_time":"maybe","socket":"maybe","standing_desk":"no","mrt":"","open_time":""},{"id":"b9d3da00-2eb1-45f0-9d98-ed3cea75020e","name":"Boss coffee\u9b06\u9905\u5de5\u574a\u65b0\u7af9\u5e02\u6771\u9580\u5e97","city":"hsinchu","wifi":5,"seat":5,"quiet":3,"tasty":5,"cheap":5,"music":5,"url":"","address":"\u65b0\u7af9\u5e02\u6771\u5340\u6771\u9580\u8857109\u865f","latitude":"24.80398300","longitude":"120.96894500","limited_time":"","socket":"maybe","standing_desk":"","mrt":"","open_time":""},{"id":"b9d6dd1f-b119-48dd-a751-3f1d081e38fb","name":"CAFE!N \u786c\u5496\u5561 \u65b0\u7af9\u95dc\u65b0\u5e97","city":"hsinchu","wifi":5,"seat":5,"quiet":4,"tasty":3,"cheap":3,"music":3,"url":"","address":"300\u65b0\u7af9\u5e02\u6771\u5340\u95dc\u65b0\u4e8c\u885769\u865f","latitude":"24.78555980","longitude":"121.01810850","limited_time":"","socket":"","standing_desk":"","mrt":"","open_time":""},{"id":"ba2075f3-e749-4547-8e0d-d90863b024d5","name":"Casa Cafe","city":"hsinchu","wifi":5,"seat":5,"quiet":5,"tasty":5,"cheap":5,"music":4,"url":"https:\/\/www.facebook.com\/Casa-Cafe-364132916954532\/","address":"\u65b0\u7af9\u5e02\u6771\u5340\u632f\u8208\u8def82\u865f","latitude":"24.79512880","longitude":"120.96167580","limited_time":"yes","socket":"no","standing_desk":"no","mrt":"","open_time":""},{"id":"bae727ba-aea7-47e2-a892-bdf8a2f222a9","name":"COFFEE LOVER's PLANET (SOGO\u65b0\u7af9Big City\u9928)","city":"hsinchu","wifi":0,"seat":4,"quiet":3,"tasty":5,"cheap":2,"music":4,"url":"https:\/\/www.coffee-lovers-planet.com.tw\/","address":"\u65b0\u7af9\u5e02\u6771\u5340\u4e2d\u592e\u8def239\u865f1\u6a13","latitude":"24.80962490","longitude":"120.97587380","limited_time":"","socket":"no","standing_desk":"","mrt":"","open_time":""},{"id":"bc52f1ad-3d38-4e08-a0b1-77b473579de1","name":" \u80d6\u9054\u5496\u5561Panda Caf'e&Tea","city":"hsinchu","wifi":4,"seat":4,"quiet":3,"tasty":4,"cheap":5,"music":3,"url":"https:\/\/www.facebook.com\/Panda-CafeTea-%E8%83%96%E9%81%94%E5%92%96%E5%95%A1%E8%8C%B6%E5%B0%88%E8%B3%A3%E5%BA%97-173826559367749\/","address":"\u65b0\u7af9\u5e02\u6771\u5340\u5149\u5fa9\u8def\u4e8c\u6bb5101\u865f\u6c34\u6728\u9910\u5ef3\u4e8c\u6a13","latitude":"24.79231812","longitude":"120.99403024","limited_time":"","socket":"maybe","standing_desk":"no","mrt":"","open_time":""},{"id":"bcb62128-ab39-4913-a2fd-620d82764db0","name":"frontier 13","city":"hsinchu","wifi":5,"seat":5,"quiet":5,"tasty":5,"cheap":4.5,"music":4.5,"url":"https:\/\/www.facebook.com\/frontier13\/?fref=ts","address":"\u5357\u5927\u8def525\u865f","latitude":"24.79147950","longitude":"120.96429410","limited_time":"","socket":"","standing_desk":"","mrt":"","open_time":"1330-2130"},{"id":"bdc0c8db-5633-45a6-bfbf-322f5c40e00c","name":"Hidden off","city":"hsinchu","wifi":3,"seat":4.5,"quiet":4,"tasty":3.5,"cheap":3.5,"music":4.5,"url":"https:\/\/m.facebook.com\/Hidden-Off-1843364589084833\/","address":"300\u65b0\u7af9\u5e02\u5317\u5340\u897f\u9580\u8857135\u865f","latitude":"24.80107400","longitude":"120.96308990","limited_time":"yes","socket":"no","standing_desk":"no","mrt":"","open_time":"\u5176\u4ed6\u516c\u4f11\u65e5\u6703\u5728\u7c89\u7d72\u9801\u516c\u544a"},{"id":"c0563278-0b3d-495e-ad9a-acb8d91f6491","name":"\u5c0f\u7a3b\u751c'cafe","city":"hsinchu","wifi":4,"seat":3,"quiet":2,"tasty":3,"cheap":3,"music":3,"url":"https:\/\/www.facebook.com\/%E5%B0%8F%E7%A8%BB%E7%94%9Ccafe-1759074137656305\/","address":"\u65b0\u7af9\u5e02\u5317\u5340\u5317\u5927\u8def166\u5df71\u5f041\u865f","latitude":"24.81006460","longitude":"120.96756800","limited_time":"","socket":"","standing_desk":"","mrt":"","open_time":""},{"id":"c266e207-fff8-450c-9666-178503d0143c","name":"\u4f48\u62c9\u8afe\u5496\u5561\u9928","city":"hsinchu","wifi":5,"seat":5,"quiet":5,"tasty":5,"cheap":4,"music":4,"url":"","address":"\u65b0\u7af9\u5e02\u6771\u5340\u4e09\u6c11\u8def40\u865f","latitude":"24.80762710","longitude":"120.97400190","limited_time":"no","socket":"maybe","standing_desk":"","mrt":"","open_time":""},{"id":"c2e92077-3b86-426e-818c-cde2bcfe01a9","name":"\u9e7f\u53ef\u5496\u5561 ","city":"hsinchu","wifi":4.5,"seat":5,"quiet":5,"tasty":4,"cheap":4,"music":4,"url":"https:\/\/www.facebook.com\/lookcafe\/","address":"\u65b0\u7af9\u5e02\u5357\u9580\u885796\u865f","latitude":"24.80223910","longitude":"120.96735400","limited_time":"maybe","socket":"maybe","standing_desk":"","mrt":"","open_time":""},{"id":"c558e5c3-6f38-4347-946e-7824558accb2","name":"\u6a58\u6642\u5496\u5561\u65b0\u7af9\u95dc\u65b0\u5e97","city":"hsinchu","wifi":5,"seat":5,"quiet":4,"tasty":4,"cheap":3,"music":3,"url":"","address":"300\u65b0\u7af9\u5e02\u6771\u5340\u95dc\u65b0\u8def45\u865f","latitude":"24.78541710","longitude":"121.01840110","limited_time":"no","socket":"maybe","standing_desk":"yes","mrt":"","open_time":""},{"id":"c5f492bc-e6b9-4c55-89f3-ef84a5ca818c","name":"\u5fae\u751fFloat Dept.","city":"hsinchu","wifi":5,"seat":3,"quiet":3,"tasty":4,"cheap":4,"music":5,"url":"https:\/\/www.facebook.com\/Floatdept\/","address":"30043\u65b0\u7af9\u5e02\u6c11\u6b0a\u8def111\u5df723\u865f","latitude":"24.80733110","longitude":"120.97451600","limited_time":"no","socket":"maybe","standing_desk":"no","mrt":"","open_time":""},{"id":"c8ca9d73-59c9-4e85-8477-3ab390729817","name":"\u610f\u82e5\u601d\u5496\u5561","city":"hsinchu","wifi":4.5,"seat":4,"quiet":4.5,"tasty":4.5,"cheap":4,"music":4.5,"url":"https:\/\/www.facebook.com\/pg\/erised.coffee","address":"\u65b0\u7af9\u7e23\u7af9\u5317\u5e02\u5609\u653f\u4e03\u885782\u865f","latitude":"24.80530710","longitude":"121.03177800","limited_time":"","socket":"","standing_desk":"","mrt":"","open_time":"9:00-18:00, \u9031\u65e5\u516c\u4f11"},{"id":"c958b817-87dd-42dc-8b61-f1356fdc924a","name":"Mr Book Cafe\u6708\u8b80\u3002\u66f8\u5496","city":"hsinchu","wifi":4,"seat":5,"quiet":5,"tasty":5,"cheap":5,"music":5,"url":"https:\/\/www.facebook.com\/MuMoonReader","address":"\u65b0\u7af9\u5e02\u7af9\u5317\u5e02\u6210\u529f\u5341\u8857105\u865f","latitude":"24.81520500","longitude":"121.02325300","limited_time":"no","socket":"no","standing_desk":"no","mrt":"","open_time":"\u9031\u4e8c\u5230\u9031\u65e5"},{"id":"ccc90eec-d7d2-459c-8c22-f7829623c02b","name":"\u968e\u6bb5\u751c\u9ede","city":"hsinchu","wifi":4,"seat":3,"quiet":3,"tasty":3,"cheap":3,"music":4,"url":"","address":"\u65b0\u7af9\u5e02\u5317\u5340\u9577\u5b89\u885789\u865f","latitude":"24.80721020","longitude":"120.96507950","limited_time":"","socket":"","standing_desk":"","mrt":"","open_time":""},{"id":"ce4cc7a3-af3f-497f-96e0-7f5307f1db71","name":"Hollatte\u99a5\u62ff\u9435 \u81ea\u70d8\u5496\u5561 \u99ac\u968e\u5e97","city":"hsinchu","wifi":5,"seat":4,"quiet":4,"tasty":5,"cheap":5,"music":5,"url":"https:\/\/m.facebook.com\/hollatte3\/","address":"300\u65b0\u7af9\u5e02\u6771\u5340\u5fe0\u5b5d\u8def27\u5df79\u865f","latitude":"24.80159010","longitude":"120.99009860","limited_time":"no","socket":"maybe","standing_desk":"yes","mrt":"","open_time":"\u4f8b\u5047\u65e5\u53e6\u884c\u516c\u544a\u65bc\u7c89\u7d72\u5c08\u9801"},{"id":"cecb7299-e95e-4625-9c12-cc06c015c62d","name":"Midori Pastry \u7da0\u5883\u751c\u9ede\u5de5\u4f5c\u5ba4","city":"hsinchu","wifi":0,"seat":0,"quiet":0,"tasty":0,"cheap":0,"music":0,"url":"https:\/\/www.facebook.com\/midoripastry","address":"\u65b0\u7af9\u5e02\u4e2d\u5357\u885745\u865f","latitude":"24.80142202","longitude":"120.96653165","limited_time":"","socket":"","standing_desk":"","mrt":"","open_time":""},{"id":"cf02205c-a730-4261-a84d-d12a7d6abcf2","name":"\u7f85\u5854\u4ed5\u5496\u5561","city":"hsinchu","wifi":3.5,"seat":3,"quiet":3,"tasty":3,"cheap":4,"music":3,"url":"https:\/\/www.facebook.com\/LotusCafeCoffee\/","address":"\u65b0\u7af9\u5e02\u6771\u5340\u897f\u5927\u8def72\u5df797\u865f","latitude":"24.79791940","longitude":"120.97076680","limited_time":"","socket":"","standing_desk":"","mrt":"","open_time":""},{"id":"cfb4b3ac-054a-427a-b584-3b9288fe3fc2","name":"WIRED CHAYA \u8336\u5c4b \u65b0\u7af9\u6e73\u96c5\u5e97","city":"hsinchu","wifi":0,"seat":0,"quiet":0,"tasty":0,"cheap":0,"music":0,"url":"","address":"300\u65b0\u7af9\u5e02\u5317\u5340\u6e73\u96c5\u885791-2\u865fB1","latitude":"24.81942840","longitude":"120.96991910","limited_time":"","socket":"","standing_desk":"","mrt":"","open_time":""},{"id":"d0659595-c6d9-4f24-ba1e-dbe7a3384054","name":"KB kaffe boutique","city":"hsinchu","wifi":5,"seat":5,"quiet":4,"tasty":4,"cheap":3,"music":4,"url":"","address":"300\u65b0\u7af9\u5e02\u6771\u5340\u6c11\u6b0a\u8def111\u5df726\u865f","latitude":"24.80759900","longitude":"120.97433000","limited_time":"","socket":"","standing_desk":"","mrt":"","open_time":""},{"id":"d082f8f4-8f8a-4d42-a778-abc9e570437b","name":"\u5341\u9ede\u5341\u5206\u5496\u5561","city":"hsinchu","wifi":4,"seat":4,"quiet":4,"tasty":4,"cheap":4,"music":4,"url":"https:\/\/www.facebook.com\/tick1010coffe\/","address":"\u65b0\u7af9\u7e23\u95dc\u897f\u93ae\u77f3\u5149\u91cc\u77f3\u5ca1\u5b5076\u5df73-1\u865f","latitude":"24.81059470","longitude":"121.13657310","limited_time":"","socket":"yes","standing_desk":"no","mrt":"","open_time":""},{"id":"d0c24f86-8c25-4e17-8011-f258cbc4823f","name":"\u6625\u5ba4 SPRING POOL GLASS STUDIO + The POOL","city":"hsinchu","wifi":0,"seat":0,"quiet":0,"tasty":0,"cheap":0,"music":0,"url":"","address":"300\u65b0\u7af9\u5e02\u6771\u5340\u6771\u5927\u8def\u4e00\u6bb52\u865f","latitude":"24.80131340","longitude":"120.97811830","limited_time":"","socket":"","standing_desk":"","mrt":"","open_time":""},{"id":"d1e574b4-2f27-4611-bc0f-9fc97b696ec1","name":"\u76f4\u9054\u5496\u5561\u6f14\u85dd\u5e97","city":"hsinchu","wifi":0,"seat":0,"quiet":0,"tasty":0,"cheap":0,"music":0,"url":"","address":"\u65b0\u7af9\u5e02\u5317\u5340\u5317\u5927\u8def166\u5df78\u5f042\u865f1 \u6a13","latitude":"24.81007010","longitude":"120.96772540","limited_time":"","socket":"","standing_desk":"","mrt":"","open_time":""},{"id":"d2658e1b-279d-4c3a-8397-adafd0a05de6","name":"V\uff0ecafe \u5fae\u5496\u5561 \u5fae\u5e78\u798f","city":"hsinchu","wifi":4,"seat":4,"quiet":4,"tasty":3,"cheap":3,"music":5,"url":"https:\/\/www.facebook.com\/Vcafe.WEhappy?fref=ts","address":"\u65b0\u7af9\u5e02\u4e09\u6c11\u8def99\u865f","latitude":"24.80972770","longitude":"120.97793410","limited_time":"","socket":"","standing_desk":"","mrt":"","open_time":""},{"id":"d27a7c0f-0a12-42a7-84eb-d25693b7945b","name":"\u6771\u98a8\u5357\u5583 \u5496\u5561 \u751c\u9ede","city":"hsinchu","wifi":5,"seat":4,"quiet":5,"tasty":4,"cheap":4,"music":5,"url":"https:\/\/www.facebook.com\/eastwindcafe","address":"\u65b0\u7af9\u7e23\u7af9\u6771\u93ae\u6771\u5cf0\u8def66\u5df717\u5f042\u865f","latitude":"24.72046290","longitude":"121.09553910","limited_time":"yes","socket":"maybe","standing_desk":"no","mrt":"","open_time":"11:00-19:00, \u9031\u4e00\u516c\u4f11"},{"id":"d305a1fc-8896-4c12-91a1-9b6005c00926","name":"COCA COFFEE","city":"hsinchu","wifi":5,"seat":4,"quiet":4,"tasty":5,"cheap":5,"music":5,"url":"https:\/\/www.facebook.com\/cocacoffeeshop\/","address":"30264\u65b0\u7af9\u7e23\u7af9\u5317\u5e02\u6587\u8208\u8def\u4e8c\u6bb5300\u865f\u65c1\u7a7a\u5730","latitude":"24.80541400","longitude":"121.04146000","limited_time":"no","socket":"maybe","standing_desk":"no","mrt":"","open_time":""},{"id":"d3c5eed8-5b72-482b-b075-d9e437cd90e7","name":"MERRY CAFE","city":"hsinchu","wifi":3.5,"seat":4,"quiet":2.5,"tasty":3,"cheap":3,"music":3.5,"url":"https:\/\/www.facebook.com\/TaiwanMerryCafe\/","address":"\u65b0\u7af9\u7e23\u7af9\u5317\u5e02\u516d\u5bb6\u4e03\u8def6\u865f","latitude":"24.80919810","longitude":"121.02460360","limited_time":"","socket":"","standing_desk":"","mrt":"","open_time":""},{"id":"d3fa794d-04f8-4dbb-9470-b3154e41bb53","name":"Wooli Cafe","city":"hsinchu","wifi":5,"seat":5,"quiet":4,"tasty":5,"cheap":4,"music":5,"url":"https:\/\/www.instagram.com\/wooli_cafe\/","address":"\u65b0\u7af9\u7e23\u65b0\u8c50\u9109\u5eb7\u6a02\u8def\u4e00\u6bb5416\u865f","latitude":"24.87270570","longitude":"120.98539570","limited_time":"maybe","socket":"maybe","standing_desk":"no","mrt":"","open_time":""},{"id":"d46f6b29-b057-4e89-8027-381796315523","name":" \u68a7\u6850\u8c9d\u8c9d\u5496\u5561Brunch\u2014\u7af9\u5317\u5e97","city":"hsinchu","wifi":4,"seat":3,"quiet":3,"tasty":4,"cheap":3,"music":3,"url":"https:\/\/www.facebook.com\/cafe.platane\/","address":"\u65b0\u7af9\u7e23\u7af9\u5317\u5e02\u7e23\u653f\u4e03\u8857\u4e00\u865f\u4e8c\u6a13","latitude":"24.82493110","longitude":"121.01063910","limited_time":"","socket":"","standing_desk":"","mrt":"","open_time":""},{"id":"d4b36ea7-9e9a-4545-b7d1-843b9a748d62","name":"\u8c93\u5dbcCat Island Cafe","city":"hsinchu","wifi":4,"seat":5,"quiet":4,"tasty":3,"cheap":4,"music":4,"url":"https:\/\/www.facebook.com\/%E8%B2%93%E5%B6%BC-Cat-Island-106064568639381\/","address":"300\u65b0\u7af9\u5e02\u5317\u5340\u5317\u65b0\u885739\u5df734\u865f","latitude":"24.80175190","longitude":"120.95764540","limited_time":"maybe","socket":"maybe","standing_desk":"no","mrt":"","open_time":""},{"id":"d4c21f3a-c1bc-4544-9ee1-f9c0fcbcbc03","name":"\u6216\u8005\u5496\u5561OR Coffee","city":"hsinchu","wifi":5,"seat":4,"quiet":4,"tasty":4,"cheap":3,"music":5,"url":"https:\/\/www.facebook.com\/ORCoffee.HC","address":"300\u65b0\u7af9\u5e02\u5317\u5340\u5927\u540c\u8def177\u865f","latitude":"24.80738930","longitude":"120.96655890","limited_time":"","socket":"maybe","standing_desk":"no","mrt":"","open_time":""},{"id":"d7b9df8f-12ea-4d24-beba-211efe50b04d","name":"\u559c\u6728\u5496\u5561","city":"hsinchu","wifi":0,"seat":0,"quiet":0,"tasty":0,"cheap":0,"music":0,"url":"","address":"302\u65b0\u7af9\u7e23\u7af9\u5317\u5e02\u9cf3\u5ca1\u8def\u4e8c\u6bb5422\u865f","latitude":"24.86110340","longitude":"120.97371750","limited_time":"","socket":"","standing_desk":"","mrt":"","open_time":""},{"id":"d8011864-6194-449d-9e86-c819f0cec52d","name":"THERE CAF\u00c9 \u90a3\u5bb6\u5496\u5561\u9928","city":"hsinchu","wifi":5,"seat":5,"quiet":4.5,"tasty":5,"cheap":4.5,"music":5,"url":"https:\/\/www.facebook.com\/%E6%B7%B1%E5%A4%9C%E5%92%96%E5%95%A1%E5%BB%B39014-287136731886974\/","address":"300\u65b0\u7af9\u5e02\u5317\u5340\u897f\u5927\u8def465\u865f","latitude":"24.80476290","longitude":"120.96327940","limited_time":"no","socket":"maybe","standing_desk":"yes","mrt":"","open_time":""},{"id":"d9260058-fd6e-407d-8d3c-baa5ae3fec2a","name":"\u660e\u65e5\u5496\u5561\u5e97","city":"hsinchu","wifi":5,"seat":4.5,"quiet":4,"tasty":2.5,"cheap":4.5,"music":3.5,"url":"https:\/\/www.facebook.com\/tomorrow303\/","address":"\u65b0\u7af9\u5e02\u5317\u5340\u6771\u5927\u8def\u4e09\u6bb5303\u865f","latitude":"24.83526710","longitude":"120.94511100","limited_time":"yes","socket":"maybe","standing_desk":"yes","mrt":"","open_time":""},{"id":"db17fab7-d9f6-4595-ac7b-8280f8c88d44","name":"\u5495\u5575\u5575\u5496\u5561\u4e0b\u5348\u8336","city":"hsinchu","wifi":0,"seat":0,"quiet":0,"tasty":0,"cheap":0,"music":0,"url":"","address":"300\u65b0\u7af9\u5e02\u5317\u5340\u4e2d\u548c\u8def17\u865f","latitude":"24.80052680","longitude":"120.95736960","limited_time":"","socket":"","standing_desk":"","mrt":"","open_time":""},{"id":"dc294d06-80fe-4877-9fd9-019252297f97","name":"\u5fc3\u5c1a\u5496\u5561","city":"hsinchu","wifi":0,"seat":0,"quiet":0,"tasty":0,"cheap":0,"music":0,"url":"","address":"\u65b0\u7af9\u7e23\u7af9\u5317\u5e02\u5149\u660e\u516d\u8def\u6771\u4e8c\u6bb556\u865f","latitude":"24.81054240","longitude":"121.03921240","limited_time":"","socket":"","standing_desk":"","mrt":"","open_time":""},{"id":"dfad6098-51ac-4b25-a615-b8f3755819b7","name":"\u8d64\u5b50 justkids","city":"hsinchu","wifi":0,"seat":4.5,"quiet":4.5,"tasty":4,"cheap":4.5,"music":4.5,"url":"https:\/\/www.facebook.com\/JUSTKIDS.vintage\/","address":"300\u65b0\u7af9\u5e02\u6771\u5340\u6771\u524d\u885755\u865f(\u5f9e\u6b66\u660c\u8857112\u5df7\u9032\u5165)","latitude":"24.80370000","longitude":"120.96741000","limited_time":"no","socket":"no","standing_desk":"no","mrt":"","open_time":""},{"id":"e2584f74-b6b3-4ece-bd12-9101e0f6889c","name":"\u7d2b\u9032\u5496\u5561","city":"hsinchu","wifi":0,"seat":5,"quiet":5,"tasty":5,"cheap":3,"music":4,"url":"https:\/\/www.facebook.com\/purplegolden","address":"\u65b0\u7af9\u5e02\u6771\u5340\u65b0\u7af9\u5e02\u4e09\u6c11\u8def9-3\u865f1\u6a13","latitude":"24.80875880","longitude":"120.97454400","limited_time":"","socket":"maybe","standing_desk":"yes","mrt":"","open_time":""},{"id":"e535b107-9ca9-476c-9847-b49e54c1974c","name":"\u820a\u662f\u7d93\u5178\u5496\u5561\u9928 Absolut Klassik","city":"hsinchu","wifi":5,"seat":4,"quiet":4.5,"tasty":3,"cheap":3,"music":5,"url":"https:\/\/www.facebook.com\/ak.healthjam\/","address":"\u65b0\u7af9\u5e02\u6771\u5340\u5efa\u7f8e\u8def5\u865f","latitude":"24.80112790","longitude":"120.99736090","limited_time":"no","socket":"maybe","standing_desk":"yes","mrt":"","open_time":"~18:00"},{"id":"e8ff2e1f-1235-47e8-9b4e-df43c2d1f699","name":"\u5c71\u5d0e\u5bb6\u5496\u5561","city":"hsinchu","wifi":0,"seat":0,"quiet":0,"tasty":0,"cheap":0,"music":0,"url":"","address":"304\u65b0\u7af9\u7e23\u65b0\u8c50\u9109\u5efa\u8208\u8def\u4e00\u6bb5127\u865f","latitude":"24.87339920","longitude":"120.99461110","limited_time":"","socket":"","standing_desk":"","mrt":"","open_time":""},{"id":"e9b22e6d-2688-4af3-8430-f761da556381","name":"11\u9e7f","city":"hsinchu","wifi":3.5,"seat":3,"quiet":3,"tasty":3,"cheap":3,"music":3,"url":"https:\/\/www.facebook.com\/11deer\/","address":"\u65b0\u7af9\u7e23\u7af9\u5317\u5e02\u5609\u8c50\u5341\u4e00\u8def\u4e8c\u6bb552\u865f","latitude":"24.80611310","longitude":"121.03400640","limited_time":"","socket":"","standing_desk":"","mrt":"","open_time":""},{"id":"eab8deda-842c-43c6-b60a-8a25b8117303","name":"Louisa Coffee \u8def\u6613\uff0e\u838e\u5496\u5561(\u65b0\u7af9\u6b66\u9675\u5e97)","city":"hsinchu","wifi":4,"seat":5,"quiet":3,"tasty":2,"cheap":5,"music":3,"url":"","address":"300 \u65b0\u7af9\u5e02\u5317\u5340\u6b66\u9675\u8def173-3\u865f","latitude":"24.82106830","longitude":"120.96818990","limited_time":"no","socket":"maybe","standing_desk":"no","mrt":"","open_time":""},{"id":"ec324316-e999-4b34-ba60-d716af480d31","name":"\u8e0f\u8e0f\u5496\u5561 x \u990a\u61a9\u52d5\u7269\u8840\u6db2\u4e2d\u5fc3","city":"hsinchu","wifi":0,"seat":3,"quiet":5,"tasty":5,"cheap":4,"music":4,"url":"https:\/\/www.facebook.com\/taTAcoffeeroasterxraiserest","address":"\u65b0\u7af9\u7e23\u7af9\u5317\u5e02\u5609\u8208\u8def98\u865f","latitude":"24.81554840","longitude":"121.02572680","limited_time":"","socket":"maybe","standing_desk":"no","mrt":"","open_time":""},{"id":"edebc41d-0a8a-4fab-b0d5-d8d34a22a46c","name":"\u7c21\u55ae\u5496\u5561","city":"hsinchu","wifi":5,"seat":5,"quiet":5,"tasty":5,"cheap":5,"music":4,"url":"","address":"\u65b0\u7af9\u5e02\u6771\u5340\u6c11\u6b0a\u8def111\u5df754\u865f","latitude":"24.80715700","longitude":"120.97353200","limited_time":"no","socket":"maybe","standing_desk":"yes","mrt":"","open_time":"10\uff1a00\uff5e18\uff1a00\u5468\u516d\u516c\u4f11"},{"id":"eeb34d41-636e-4e9b-8042-25076d16ce6a","name":"Smile Cafe \u65af\u9ea5\u723e\u5496\u5561\u9928","city":"hsinchu","wifi":4,"seat":4,"quiet":2,"tasty":2.5,"cheap":2.5,"music":3,"url":"https:\/\/www.facebook.com\/smilecafetea\/","address":"\u65b0\u7af9\u5e02\u5149\u5fa9\u8def\u4e8c\u6bb5101\u865f\u6e05\u83ef\u5927\u5b78\u65fa\u5b8f\u9928","latitude":"24.79544200","longitude":"120.99480800","limited_time":"no","socket":"maybe","standing_desk":"","mrt":"","open_time":""},{"id":"eecda6e8-9848-4294-9fbe-8c56df1c0afa","name":"\u5409\u5341Godspeed Caf\u00e9 ","city":"hsinchu","wifi":1,"seat":4,"quiet":4,"tasty":3,"cheap":1,"music":1,"url":"https:\/\/www.facebook.com\/godspeedlucky10\/","address":"\u65b0\u7af9\u5e02\u5317\u9580\u885736\u865f","latitude":"24.80577290","longitude":"120.96615950","limited_time":"yes","socket":"maybe","standing_desk":"no","mrt":"","open_time":""},{"id":"efc9d9ec-0c9b-4b80-88e9-ab534dd2fc0b","name":"Plunge Cafe \u58a3\u7389\u5496\u5561-\u65b0\u7af9\u9ad8\u9435","city":"hsinchu","wifi":4,"seat":3,"quiet":3,"tasty":3,"cheap":3,"music":2,"url":"https:\/\/www.facebook.com\/plungecafe\/","address":"\u65b0\u7af9\u7e23\u7af9\u5317\u5e02\u5fa9\u8208\u4e8c\u8def203\u865f","latitude":"24.80994320","longitude":"121.03750840","limited_time":"","socket":"","standing_desk":"","mrt":"","open_time":""},{"id":"f01c9fa8-e2b5-44d7-bb15-db7fe20c7646","name":"Dig in comfort food&coffee\u766e . \u8212 .\u98df","city":"hsinchu","wifi":0,"seat":0,"quiet":0,"tasty":0,"cheap":0,"music":0,"url":"","address":"302\u65b0\u7af9\u7e23\u7af9\u5317\u5e02\u516d\u5bb6\u4e00\u8def\u4e00\u6bb57\u865f","latitude":"24.81183190","longitude":"121.02488570","limited_time":"","socket":"","standing_desk":"","mrt":"","open_time":""},{"id":"f01dc47e-259e-4eab-99b7-213c1e7f59bb","name":"\u4e8c\u8857\u5496\u5561 2nd St Cafe","city":"hsinchu","wifi":5,"seat":3,"quiet":2.5,"tasty":3,"cheap":3,"music":4,"url":"https:\/\/www.facebook.com\/2ndStCafeee\/?fref=ts","address":"\u65b0\u7af9\u7e23\u7af9\u5317\u5e02\u5609\u653f\u4e8c\u8857118\u865f","latitude":"24.80672810","longitude":"121.02834940","limited_time":"","socket":"","standing_desk":"","mrt":"","open_time":""},{"id":"f0525400-dd18-475f-a720-8aae99cb0494","name":"Lim Coffee\u5496\u5561\u9928","city":"hsinchu","wifi":0,"seat":0,"quiet":0,"tasty":0,"cheap":0,"music":0,"url":"","address":"300\u65b0\u7af9\u5e02\u6771\u5340\u5c55\u696d\u4e00\u8def11\u865f","latitude":"24.78391700","longitude":"121.00132400","limited_time":"","socket":"","standing_desk":"","mrt":"","open_time":""},{"id":"f116f2e8-5ad5-43e0-b9ba-d4e5c0f93ac7","name":"Flow Into","city":"hsinchu","wifi":0,"seat":5,"quiet":5,"tasty":3,"cheap":4,"music":4,"url":"https:\/\/www.facebook.com\/FLOWINTOcafe\/","address":"300\u65b0\u7af9\u5e02\u6771\u5340\u516b\u5fb7\u8def196\u865f","latitude":"24.80315430","longitude":"120.98541680","limited_time":"no","socket":"no","standing_desk":"no","mrt":"","open_time":""},{"id":"f1207a33-0ce8-4b7a-b16e-b56da195d844","name":"HILA SPIRIT \u5496\u5561\u5427","city":"hsinchu","wifi":0,"seat":0,"quiet":0,"tasty":0,"cheap":0,"music":0,"url":"","address":"300\u65b0\u7af9\u5e02\u5317\u5340\u5149\u83ef\u4e8c\u885754\u865f","latitude":"24.81850870","longitude":"120.97524420","limited_time":"","socket":"","standing_desk":"","mrt":"","open_time":""},{"id":"f2d34dcd-4980-446e-bb28-ebefae466121","name":"La Kaffa \u516d\u89d2\u5496\u5561","city":"hsinchu","wifi":1,"seat":5,"quiet":1,"tasty":2,"cheap":4,"music":2,"url":"https:\/\/www.facebook.com\/lakaffa.tw\/","address":"\u65b0\u7af9\u7e23\u7af9\u5317\u5e02\u81ea\u5f37\u4e94\u8def239\u865f1F","latitude":"24.81239640","longitude":"121.02043960","limited_time":"maybe","socket":"maybe","standing_desk":"no","mrt":"","open_time":""},{"id":"f330e195-df10-424b-a593-74255672bceb","name":"\u8cb3\u8cb3\u67d2 Lab 227","city":"hsinchu","wifi":4,"seat":5,"quiet":3.5,"tasty":2,"cheap":2,"music":2,"url":"https:\/\/www.facebook.com\/%E8%B2%B3%E8%B2%B3%E6%9F%92-Lab-227-1633807899996684\/","address":"\u65b0\u7af9\u5e02\u5927\u5b78\u8def226\u865f","latitude":"24.78992110","longitude":"120.99878560","limited_time":"no","socket":"maybe","standing_desk":"no","mrt":"","open_time":""},{"id":"f426db8f-9b80-4b14-a00f-380f5ad1bff1","name":"\u60f3\u8981\u5206\u4eab\u5496\u5561","city":"hsinchu","wifi":0,"seat":5,"quiet":1,"tasty":1,"cheap":2,"music":2,"url":"","address":"\u65b0\u7af9\u5e02\u5317\u5340\u5149\u83ef\u4e8c\u88576\u865f","latitude":"24.81698620","longitude":"120.97437610","limited_time":"yes","socket":"no","standing_desk":"no","mrt":"","open_time":"7\u201418"},{"id":"f647dcbb-fd66-4b0f-8d57-d4dae3820147","name":"Moringa \u8c61\u8173\u6a39","city":"hsinchu","wifi":0,"seat":0,"quiet":0,"tasty":0,"cheap":0,"music":0,"url":"https:\/\/www.facebook.com\/moringasince2016\/","address":"\u65b0\u7af9\u5e02\u6771\u5340\u5149\u83ef\u885712\u865f","latitude":"24.81355290","longitude":"120.97277540","limited_time":"","socket":"","standing_desk":"","mrt":"","open_time":""},{"id":"f7654e4b-d4e5-46b0-9948-6fbc910d7c8a","name":"B . COFFEE dax","city":"hsinchu","wifi":0,"seat":0,"quiet":0,"tasty":0,"cheap":0,"music":0,"url":"","address":"302\u65b0\u7af9\u7e23\u7af9\u5317\u5e02\u83ef\u8208\u8857142\u5df75\u865f","latitude":"24.84044210","longitude":"121.00239000","limited_time":"","socket":"","standing_desk":"","mrt":"","open_time":""},{"id":"f787731f-3a06-4085-86b7-218b9e5fe6d1","name":"\u807d\u8aaaListen to Cafe","city":"hsinchu","wifi":0,"seat":5,"quiet":5,"tasty":5,"cheap":4,"music":5,"url":"","address":"\u65b0\u7af9\u5e02\u4e2d\u592e\u8def312\u5df71\u865f","latitude":"24.81004790","longitude":"120.97829870","limited_time":"","socket":"","standing_desk":"","mrt":"","open_time":""},{"id":"f7d80344-f8f7-46dd-8f94-5c62a368010b","name":"\u6c34\u5de5\u9ce5\u7fa9\u7f8e\u5f0f\u9910\u5ef3","city":"hsinchu","wifi":5,"seat":5,"quiet":3,"tasty":4,"cheap":4.5,"music":4,"url":"https:\/\/www.facebook.com\/%E6%B0%B4%E5%B7%A5%E9%B3%A5-901760609847035\/","address":"\u65b0\u7af9\u5e02\u91d1\u57ce\u4e00\u8def77-1\u865f","latitude":"24.79512190","longitude":"121.00404240","limited_time":"","socket":"","standing_desk":"","mrt":"","open_time":""},{"id":"f7dfa7d7-5483-49c7-b3af-b0c20b1c1533","name":"\u9676\u5320\u5496\u5561","city":"hsinchu","wifi":0,"seat":0,"quiet":0,"tasty":0,"cheap":0,"music":0,"url":"","address":"300\u65b0\u7af9\u5e02\u6771\u5340\u9435\u9053\u8def\u4e00\u6bb558\u865f","latitude":"24.81226990","longitude":"120.98388910","limited_time":"","socket":"","standing_desk":"","mrt":"","open_time":""},{"id":"fdc4df17-c9fa-4f1d-8040-588e092cd3a7","name":"\u904e\u65e5\u5b50\u5496\u5561\u9928","city":"hsinchu","wifi":4,"seat":4,"quiet":5,"tasty":3,"cheap":3,"music":5,"url":"https:\/\/www.facebook.com\/livelifecafe\/","address":"\u65b0\u7af9\u5e02\u5317\u5340\u6c34\u7530\u885791\u5df79\u865f","latitude":"24.81583000","longitude":"120.96744200","limited_time":"","socket":"","standing_desk":"","mrt":"","open_time":""},{"id":"feb14508-4766-4f1a-bd1c-84e023b04588","name":"WHO'S \u559c\u8c61 CAFE","city":"hsinchu","wifi":4.5,"seat":4.5,"quiet":3.5,"tasty":4.5,"cheap":4.5,"music":3.5,"url":"https:\/\/www.facebook.com\/WHOS-%E5%96%9C%E8%B1%A1-CAFE-164237916974403\/","address":"\u65b0\u7af9\u5e02\u6771\u5340\u5bf6\u5c71\u8def438\u865f","latitude":"24.78475360","longitude":"120.99017890","limited_time":"no","socket":"","standing_desk":"","mrt":"","open_time":""}]}