{"data":[{"id":"0236e2db-6597-41a9-aaf5-f53fe7539611","name":"Eye Cafe","city":"hualien","wifi":0,"seat":5,"quiet":2,"tasty":5,"cheap":5,"music":3,"url":"https:\/\/www.facebook.com\/eye.cafe2015\/?fref=ts","address":"\u82b1\u84ee\u5e02\u4e2d\u83ef\u8def70\u865f","latitude":"23.97610990","longitude":"121.60720770","limited_time":"","socket":"no","standing_desk":"no","mrt":"","open_time":"Am12:00~Pm9:00"},{"id":"05ac2c81-b167-43ba-a890-52cbb246ad01","name":"Cabra Coffee","city":"hualien","wifi":0,"seat":5,"quiet":3,"tasty":4,"cheap":0,"music":4,"url":"","address":"970\u82b1\u84ee\u7e23\u82b1\u84ee\u5e02\u4e2d\u5c71\u8def416-6\u865f 970","latitude":"23.98544490","longitude":"121.60280910","limited_time":"no","socket":"maybe","standing_desk":"yes","mrt":"","open_time":""},{"id":"0f42727c-c285-4c37-a3d1-b9a165c7f2c0","name":"\u7121\u8a2d\u9650\u5496\u5561 Unconditional Coffee","city":"hualien","wifi":5,"seat":5,"quiet":3.5,"tasty":5,"cheap":2.5,"music":5,"url":"https:\/\/www.facebook.com\/unconditionalcoffee","address":"\u82b1\u84ee\u5e02\u6797\u653f\u885744\u865f","latitude":"23.97860220","longitude":"121.59621370","limited_time":"maybe","socket":"maybe","standing_desk":"no","mrt":"","open_time":""},{"id":"10cbb92a-29aa-46e5-9bb1-4f429f91559d","name":"\u56de\u6625\u5de5\u4f5c\u5ba4","city":"hualien","wifi":5,"seat":5,"quiet":5,"tasty":5,"cheap":3,"music":5,"url":"https:\/\/www.facebook.com\/\u56de\u6625\u5de5\u4f5c\u5ba4-850842031609095\/","address":"\u82b1\u84ee\u5e02\u5149\u5fa9\u885791-1\u865f","latitude":"23.97927020","longitude":"121.60553400","limited_time":"maybe","socket":"","standing_desk":"no","mrt":"","open_time":""},{"id":"18af6044-00db-4459-a413-cbb3c7c8cf3e","name":"\u5361\u514b\u7279\u53f8","city":"hualien","wifi":5,"seat":5,"quiet":5,"tasty":5,"cheap":5,"music":5,"url":"https:\/\/www.facebook.com\/cactus.97044\/","address":"\u82b1\u84ee\u5e02\u93ae\u570b\u88579\u865f","latitude":"23.97590630","longitude":"121.60145900","limited_time":"no","socket":"yes","standing_desk":"no","mrt":"","open_time":""},{"id":"1a7b507f-d8df-482f-b599-4e4f7de21716","name":"\u82b1\u84ee\u79d8\u5bc6\u6d77\u5496\u5561","city":"hualien","wifi":5,"seat":5,"quiet":4,"tasty":5,"cheap":4,"music":5,"url":"https:\/\/www.facebook.com\/secretseacoffee\/?fref=ts","address":"\u82b1\u84ee\u7e23\u82b1\u84ee\u5e02\u6d77\u6ff1\u885766\u865f","latitude":"23.97312560","longitude":"121.61496740","limited_time":"","socket":"","standing_desk":"","mrt":"","open_time":""},{"id":"1eb93783-85a9-4184-aa74-3b0baf54939d","name":"\u73c8\u7432\u82b1","city":"hualien","wifi":4,"seat":3,"quiet":4,"tasty":4,"cheap":3,"music":5,"url":"https:\/\/www.facebook.com\/caffefiore2014\/","address":"\u82b1\u84ee\u5e02\u5fe0\u5b5d\u885779\u865f","latitude":"23.97497620","longitude":"121.60556760","limited_time":"no","socket":"","standing_desk":"no","mrt":"","open_time":"13:30-21:00 \u516c\u4f11\u65e5:\u6bcf\u5468\u4e09"},{"id":"397c217c-bb35-4325-b8a9-cc342b92d0e9","name":"\u6728\u5b50\u5bb6\u5496\u5561\u6c11\u5bbf (\u5496\u5561\u559d\u5230\u98fd)","city":"hualien","wifi":0,"seat":0,"quiet":0,"tasty":0,"cheap":0,"music":0,"url":"","address":"\u82b1\u84ee\u7e23\u82b1\u84ee\u5e02\u6c11\u6b0a\u4e5d\u88571\u5df75\u865f","latitude":"23.98834810","longitude":"121.62771750","limited_time":"","socket":"","standing_desk":"no","mrt":"","open_time":"\u96a8\u7de3\uff0c\u770b\u8001\u95c6\u5fc3\u60c5\u71df\u696d"},{"id":"4ad51905-bee5-4b8f-aea3-1ae74b3bac82","name":"La le","city":"hualien","wifi":5,"seat":5,"quiet":5,"tasty":5,"cheap":5,"music":5,"url":"","address":"\u82b1\u84ee\u7e23\u82b1\u84ee\u5e02\u4e2d\u7f8e\u5341\u4e00\u88579\u865f","latitude":"23.99549250","longitude":"121.62286930","limited_time":"no","socket":"maybe","standing_desk":"no","mrt":"","open_time":"\u5df2\u6b47\u696d"},{"id":"4f322786-44e7-4630-9aa3-324a11d2e98f","name":"OliTree","city":"hualien","wifi":0,"seat":5,"quiet":5,"tasty":0,"cheap":0,"music":5,"url":"https:\/\/m.facebook.com\/loveolitree\/?locale2=zh_TW","address":"\u82b1\u84ee\u5e02\u7bc0\u7d04\u885719\u865f","latitude":"23.97827500","longitude":"121.60666260","limited_time":"no","socket":"maybe","standing_desk":"no","mrt":"","open_time":"13:30~22:00"},{"id":"54424e5b-8cda-4874-9dc1-e88d33e9090f","name":"\u592a\u9b6f\u95a3\u5149\u89ba Lighten Cafe Taroko","city":"hualien","wifi":0,"seat":4,"quiet":4,"tasty":5,"cheap":4.5,"music":5,"url":"https:\/\/www.facebook.com\/Tarokocafe","address":"\u82b1\u84ee\u7e23\u79c0\u6797\u9109\u5d07\u5fb7\u6751159\u865f","latitude":"24.15145620","longitude":"121.64872790","limited_time":"no","socket":"yes","standing_desk":"yes","mrt":"","open_time":""},{"id":"565f9e9b-7790-4b59-869d-9f82a44e2dcd","name":"\u4f0a\u8afe\u5496\u5561\u9928","city":"hualien","wifi":5,"seat":5,"quiet":4,"tasty":4,"cheap":5,"music":4,"url":"https:\/\/www.facebook.com\/%E4%BC%8A%E8%AB%BE%E5%92%96%E5%95%A1%E9%A4%A8-112011755504621\/","address":"\u82b1\u84ee\u5e02\u5149\u5fa9\u8857130\u865f","latitude":"23.98061650","longitude":"121.60471870","limited_time":"no","socket":"maybe","standing_desk":"no","mrt":"","open_time":""},{"id":"57546594-eaee-4938-8e29-33f61c48127c","name":"\u5b89\u5a1c\u5496\u5561","city":"hualien","wifi":5,"seat":5,"quiet":5,"tasty":5,"cheap":5,"music":5,"url":"https:\/\/www.facebook.com\/cafeanna","address":"\u82b1\u84ee\u5e02\u570b\u806f5\u8def137\u865f","latitude":"23.99310510","longitude":"121.60486440","limited_time":"no","socket":"maybe","standing_desk":"no","mrt":"","open_time":""},{"id":"59033f51-068d-4c67-990a-c3194c2a328e","name":"\u590f\u6bd4\u5b89\u5496\u5561","city":"hualien","wifi":4,"seat":4.5,"quiet":5,"tasty":4.5,"cheap":4,"music":5,"url":"","address":"\u82b1\u84ee\u7e23\u5149\u5fa9\u9109\u6c11\u6cbb\u885715\u5df728\u865f","latitude":"23.64383060","longitude":"121.42101830","limited_time":"no","socket":"maybe","standing_desk":"no","mrt":"","open_time":""},{"id":"60a3c32c-5011-48c1-8ad0-31e0395a840f","name":"\u4e9e\u745f\u7684\u738b\u5ea7","city":"hualien","wifi":0,"seat":0,"quiet":0,"tasty":0,"cheap":0,"music":0,"url":"https:\/\/www.facebook.com\/arthursthrone","address":"\u82b1\u84ee\u5e02\u4e2d\u8208\u8def81\u865f","latitude":"23.99322500","longitude":"121.62916780","limited_time":"no","socket":"yes","standing_desk":"no","mrt":"","open_time":""},{"id":"66303ef3-0ee8-47d7-bb97-7ad0d17aa4ee","name":"Maytreecoffee \u4e94\u6708\u6a39\u5496\u5561","city":"hualien","wifi":5,"seat":4.5,"quiet":5,"tasty":5,"cheap":4,"music":4,"url":"https:\/\/www.facebook.com\/Maytreecoffee220","address":"\u82b1\u84ee\u7e23\u82b1\u84ee\u5e02\u4e0a\u6d77\u8857220\u865f","latitude":"23.97522330","longitude":"121.60599010","limited_time":"","socket":"no","standing_desk":"","mrt":"","open_time":""},{"id":"7070f1eb-a497-40e7-8706-c346176f8fdf","name":"\u6597\u5b85\u3002\u63c0\u8336\u820d","city":"hualien","wifi":0,"seat":0,"quiet":0,"tasty":0,"cheap":0,"music":0,"url":"https:\/\/www.facebook.com\/ShibaInuCafeRoasters","address":"\u82b1\u84ee\u5e02\u4e09\u6c11\u885723\u865f(\u82b1\u84ee\u7e23\u7e23\u5b9a\u53e4\u8e5f\u6aa2\u5bdf\u9577\u5bbf\u820d)","latitude":"23.97989620","longitude":"121.60907720","limited_time":"","socket":"","standing_desk":"","mrt":"","open_time":""},{"id":"72838829-ec7a-46f4-97ea-0de4a32a2d9d","name":"\u5c0f\u5ba4\u96c6\u5408\u7a7a\u9593","city":"hualien","wifi":0,"seat":0,"quiet":0,"tasty":0,"cheap":0,"music":0,"url":"https:\/\/www.facebook.com\/\u82b1\u84ee-\u5496\u5561-\u5c0f\u5ba4\u96c6\u5408\u7a7a\u9593-1605452359481678","address":"\u82b1\u84ee\u5e02\u6709\u6046\u88573\u865f","latitude":"23.97598190","longitude":"121.60322330","limited_time":"no","socket":"yes","standing_desk":"no","mrt":"","open_time":""},{"id":"7b351894-7351-4f50-b643-9fa8097caf71","name":"\u963f\u83ab\u5496\u5561 A-more Coffee","city":"hualien","wifi":5,"seat":5,"quiet":4,"tasty":5,"cheap":5,"music":5,"url":"https:\/\/www.facebook.com\/amore168\/","address":"\u82b1\u84ee\u5e02\u570b\u6c11\u4e00\u885746\u865f","latitude":"23.98759700","longitude":"121.60196400","limited_time":"no","socket":"maybe","standing_desk":"yes","mrt":"","open_time":"10:00AM - 8:00PM \u9031\u4e09\u516c\u4f11"},{"id":"7e2604e2-0bd1-42bc-9c4d-6893fe75fe5f","name":"\u5496\u5561\u820d Seven Beans","city":"hualien","wifi":0,"seat":0,"quiet":0,"tasty":0,"cheap":0,"music":0,"url":"https:\/\/www.facebook.com\/LeoSpaceCafeBar","address":"\u82b1\u84ee\u5e02\u5efa\u6797\u8857132\u865f","latitude":"23.98104050","longitude":"121.60052650","limited_time":"no","socket":"maybe","standing_desk":"no","mrt":"","open_time":""},{"id":"7ea3887d-ade8-4adc-8b7a-0c1e1b4a90e1","name":"9803","city":"hualien","wifi":5,"seat":4.5,"quiet":4.5,"tasty":4.5,"cheap":4,"music":4.5,"url":"https:\/\/www.facebook.com\/9803cafe\/","address":"\u82b1\u84ee\u7e23\u58fd\u8c50\u9109\u5fd7\u5b78\u6751\u69ae\u5149\u885722\u865f","latitude":"23.90685000","longitude":"121.53449610","limited_time":"no","socket":"maybe","standing_desk":"no","mrt":"","open_time":"12:00 - 00:00\uff0c\u5bd2\u6691\u5047\u4f11\u606f"},{"id":"816bfc49-e3e1-476a-b562-3b224f2ce426","name":"\u6b63\u7576\u51b0","city":"hualien","wifi":5,"seat":4,"quiet":3,"tasty":4.5,"cheap":3,"music":4,"url":"https:\/\/www.facebook.com\/JusticeIceCream.FanClub\/","address":"\u82b1\u84ee\u5e02\u4e2d\u798f\u8def147\u865f ","latitude":"23.97214640","longitude":"121.60178880","limited_time":"maybe","socket":"maybe","standing_desk":"no","mrt":"","open_time":""},{"id":"8250a1ff-a716-4dcf-8c7d-7d6135e3129b","name":"\u5361\u59d0\u5496\u5561","city":"hualien","wifi":5,"seat":5,"quiet":5,"tasty":5,"cheap":3,"music":4,"url":"https:\/\/www.facebook.com\/carinacafe\/","address":"970\u82b1\u84ee\u7e23\u82b1\u84ee\u5e02\u4e2d\u8208\u8def143\u865f","latitude":"23.99575900","longitude":"121.62580310","limited_time":"no","socket":"no","standing_desk":"no","mrt":"","open_time":""},{"id":"84edc540-0242-4dad-8f37-5d6fcb4a1f00","name":"\u60e6\u60e6 lab:tiamtiam","city":"hualien","wifi":0,"seat":0,"quiet":0,"tasty":0,"cheap":0,"music":0,"url":"https:\/\/www.facebook.com\/2015tiamtiam","address":"\u82b1\u84ee\u7e23\u5409\u5b89\u9109\u4e2d\u8208\u8def345\u865f","latitude":"23.97395490","longitude":"121.56486840","limited_time":"","socket":"","standing_desk":"no","mrt":"","open_time":""},{"id":"852b4fa3-8427-4b04-80e3-b598237916a4","name":"\u4f17\u5496\u5561","city":"hualien","wifi":5,"seat":5,"quiet":5,"tasty":5,"cheap":4,"music":4,"url":"https:\/\/www.facebook.com\/peopleofcoffee","address":"\u82b1\u84ee\u5e02\u4e2d\u5c71\u8def624\u865f","latitude":"23.99337100","longitude":"121.59689800","limited_time":"no","socket":"yes","standing_desk":"yes","mrt":"","open_time":"9~20"},{"id":"8a4cae29-2410-48fd-b4d2-769d84c25e34","name":"\u5496\u5561\u6708\uff08\u6d45\u91ce\uff09","city":"hualien","wifi":0,"seat":3,"quiet":3,"tasty":3,"cheap":3,"music":2,"url":"https:\/\/www.facebook.com\/%E5%92%96%E5%95%A1%E6%9C%88%E6%B5%85%E9%87%8E-577269992304115","address":"\u82b1\u84ee\u7e23\u82b1\u84ee\u5e02\u5fa9\u8208\u885765-2\u865f","latitude":"23.98129530","longitude":"121.60685540","limited_time":"","socket":"","standing_desk":"no","mrt":"","open_time":""},{"id":"a6cbb007-50f4-4a3c-911b-bb6269f85dde","name":"\u771f\u6fa4Coffee \uff06 Ice cream","city":"hualien","wifi":0,"seat":0,"quiet":0,"tasty":0,"cheap":0,"music":0,"url":"https:\/\/www.facebook.com\/%E7%9C%9F%E6%BE%A4%E5%92%96%E5%95%A1Ice-cream-127441087972698","address":"970\u82b1\u84ee\u7e23\u82b1\u84ee\u5e02\u4e2d\u83ef\u8def325-9\u865f","latitude":"23.97486320","longitude":"121.59831020","limited_time":"","socket":"","standing_desk":"no","mrt":"","open_time":""},{"id":"a6df7233-5a3b-4ee7-9feb-50fe64e73f6f","name":"\u8272\u9999\u8c93\u7cbe\u54c1\u5496\u5561","city":"hualien","wifi":0,"seat":0,"quiet":0,"tasty":0,"cheap":0,"music":0,"url":"https:\/\/www.facebook.com\/SHE.XIANG.MAO.COFFEE\/?fref=ts","address":"\u82b1\u84ee\u5e02\u5efa\u570b\u8def75\u5df716\u5f0419\u865f","latitude":"23.98192950","longitude":"121.60243110","limited_time":"","socket":"","standing_desk":"no","mrt":"","open_time":""},{"id":"b6aab84f-a2de-4aa5-9fa6-e188dbe36e5b","name":"K\u014cHI\u5b85 (\u73c8\u7432\u5b85)","city":"hualien","wifi":4.5,"seat":4,"quiet":5,"tasty":5,"cheap":3.5,"music":4.5,"url":"https:\/\/www.facebook.com\/kohi.rejidensu","address":"\u82b1\u84ee\u7e23\u82b1\u84ee\u5e02\u6210\u529f\u8857298\u865f","latitude":"23.97450840","longitude":"121.60785350","limited_time":"no","socket":"no","standing_desk":"no","mrt":"","open_time":""},{"id":"b74299e5-2387-4d5d-81c1-9fa2e90cdf7b","name":"giocare\u7fa9\u5f0f.\u624b\u6c96\u5496\u5561","city":"hualien","wifi":2,"seat":4,"quiet":3.5,"tasty":5,"cheap":4,"music":4,"url":"https:\/\/www.facebook.com\/giocare.cafe\/","address":"\u82b1\u84ee\u7e23\u82b1\u84ee\u5e02\u6a39\u4eba\u88577\u865f","latitude":"23.97628550","longitude":"121.61301910","limited_time":"no","socket":"","standing_desk":"no","mrt":"","open_time":""},{"id":"bc937057-a552-48b8-a0da-d1d3b0bfb62c","name":"Choco Choco \u624b\u5de5\u5de7\u514b\u529b\u5496\u5561\u9928","city":"hualien","wifi":5,"seat":5,"quiet":5,"tasty":5,"cheap":3,"music":5,"url":"http:\/\/choco2.com.tw\/","address":"\u82b1\u84ee\u5e02\u5fe0\u5b5d\u885770\u865f","latitude":"23.97514600","longitude":"121.60571140","limited_time":"maybe","socket":"maybe","standing_desk":"no","mrt":"","open_time":""},{"id":"c451e1c0-2f8c-4cbe-a038-5e89f98c2781","name":"\u5409\u91ce\u7cbe\u54c1\u5496\u5561\u70d8\u7119\u5ba4","city":"hualien","wifi":5,"seat":5,"quiet":5,"tasty":5,"cheap":5,"music":3,"url":"https:\/\/www.coffeeman.com.tw\/","address":"970\u82b1\u84ee\u7e23\u82b1\u84ee\u5e02\u6210\u529f\u8857206\u865f","latitude":"23.97301980","longitude":"121.60559400","limited_time":"","socket":"","standing_desk":"no","mrt":"","open_time":""},{"id":"c7554ef5-2eff-4c4c-a002-a3cf9dd6ebbb","name":"\u7f85\u4f2f\u5496\u5561\u570b\u806f\u5e97","city":"hualien","wifi":5,"seat":5,"quiet":5,"tasty":3,"cheap":3,"music":3,"url":"http:\/\/www.rob-cafe.com.tw","address":"\u82b1\u84ee\u5e02\u570b\u806f\u4e94\u8def69\u865f","latitude":"23.99075370","longitude":"121.60535630","limited_time":"no","socket":"maybe","standing_desk":"no","mrt":"","open_time":""},{"id":"cb5cf5a7-f45e-49b6-a4fa-14c5bbd00b05","name":"\u9031\u516d\u90ca\u5340","city":"hualien","wifi":0,"seat":5,"quiet":5,"tasty":5,"cheap":5,"music":5,"url":"\u9031\u516d\u90ca\u5340","address":"\u82b1\u84ee\u5e02\u6c11\u6b0a7\u885722\u865f","latitude":"23.98830020","longitude":"121.62253760","limited_time":"no","socket":"yes","standing_desk":"no","mrt":"","open_time":""},{"id":"cda7ad4b-3f1a-4a7e-8417-bfdb071f6e9d","name":"\u676f\u9ede\u5496\u5561 Bad Day Coffee","city":"hualien","wifi":4.5,"seat":5,"quiet":4.5,"tasty":4.5,"cheap":4.5,"music":5,"url":"https:\/\/www.facebook.com\/baddaycoffee\/","address":"\u82b1\u84ee\u5e02\u5bcc\u7965\u885758\u865f","latitude":"23.99291520","longitude":"121.59324150","limited_time":"no","socket":"yes","standing_desk":"no","mrt":"","open_time":"\u6c38\u4e45\u505c\u696d"},{"id":"d4c5194c-9a6b-4e68-9d3c-17475a798b26","name":"\u534a\u5bd3\u5496\u5561giocare 1\u5e97","city":"hualien","wifi":4,"seat":5,"quiet":5,"tasty":5,"cheap":4,"music":5,"url":"https:\/\/www.facebook.com\/apartment.giocare\/","address":"\u82b1\u84ee\u5e02\u6210\u529f\u8857316\u865f","latitude":"23.97465010","longitude":"121.60813270","limited_time":"maybe","socket":"maybe","standing_desk":"no","mrt":"","open_time":"14\uff1a00\uff5e20\uff1a00"},{"id":"d8834684-2728-46e4-830d-b3b15bf1c323","name":"\u6ce5\u5df4\u5496\u5561","city":"hualien","wifi":5,"seat":4,"quiet":5,"tasty":3,"cheap":3,"music":4,"url":"https:\/\/www.facebook.com\/cafemud","address":"\u82b1\u84ee\u7e23\u82b1\u84ee\u5e02\u4e2d\u6b63\u8def561\u865f","latitude":"23.97752970","longitude":"121.60760560","limited_time":"no","socket":"maybe","standing_desk":"no","mrt":"","open_time":""},{"id":"d8d852c7-73cd-4d8a-a674-87d85712a55f","name":"\u4f2f\u63da\u5496\u5561\u5409\u5b89\u7e3d\u5e97","city":"hualien","wifi":4,"seat":5,"quiet":5,"tasty":5,"cheap":5,"music":0,"url":"https:\/\/www.facebook.com\/BoYangCafe\/","address":"\u5409\u5b89\u9109\u6c38\u82087\u885772\u865f","latitude":"23.95457820","longitude":"121.56795580","limited_time":"no","socket":"no","standing_desk":"no","mrt":"","open_time":"12:30 - 20:30"},{"id":"dcd0a7e1-a10a-4e0c-8511-e13064ec6cc7","name":"\u9ed1\u9be8\u5496\u5561","city":"hualien","wifi":5,"seat":5,"quiet":5,"tasty":5,"cheap":5,"music":5,"url":"https:\/\/www.facebook.com\/%E9%BB%91%E9%AF%A8%E5%92%96%E5%95%A1%E9%A4%A8-Black-Whale-Cafe-225521334305344\/","address":"\u82b1\u84ee\u5e02\u6797\u68ee\u8def255\u4e4b1\u865f","latitude":"23.97895950","longitude":"121.60152690","limited_time":"no","socket":"yes","standing_desk":"yes","mrt":"","open_time":"\u5e73\u65e59:00~19:00,\u5047\u65e512:00~22:00"},{"id":"dd4dca91-7f4a-4910-a2f9-2d14ec1b2a77","name":"\u6ce2\u7c73\u5496\u5561","city":"hualien","wifi":5,"seat":4,"quiet":4,"tasty":5,"cheap":4,"music":5,"url":"https:\/\/www.facebook.com\/Pommecafe\/","address":"\u82b1\u84ee\u5e02\u6c11\u570b\u8def 45 \u865f","latitude":"23.97705160","longitude":"121.60278190","limited_time":"","socket":"no","standing_desk":"no","mrt":"","open_time":"\u5468\u4e00\u516c\u4f11 10:00AM - 2:30PM, 5:00PM - 9:00PM"},{"id":"df53e2af-dad1-4c29-a4f7-76d94b648399","name":"\u6b63\u5fb7\u611b\u5fc3\u5496\u5561\u9928","city":"hualien","wifi":0,"seat":0,"quiet":0,"tasty":0,"cheap":0,"music":0,"url":"https:\/\/www.facebook.com\/pages\/%E6%AD%A3%E5%BE%B7%E6%84%9B%E5%BF%83%E5%92%96%E5%95%A1%E9%A4%A8\/106142295324633\/","address":"\u82b1\u84ee\u5e02\u6d77\u5cb8\u8def9\u865f","latitude":"23.98775310","longitude":"121.62787340","limited_time":"","socket":"maybe","standing_desk":"yes","mrt":"","open_time":""},{"id":"dfd85d0f-5ca6-4e16-ab5c-ffa32b7ff456","name":"\u73c8\u7432\u92ea\u5b50 (\u5496\u5561\u92ea\u5b50)","city":"hualien","wifi":0,"seat":0,"quiet":0,"tasty":0,"cheap":0,"music":0,"url":"https:\/\/www.facebook.com\/gabepuze","address":"\u82b1\u84ee\u5e02\u7bc0\u7d04\u88578\u865f","latitude":"23.97757220","longitude":"121.60589630","limited_time":"no","socket":"maybe","standing_desk":"no","mrt":"","open_time":""},{"id":"e0f7dd8f-3152-47e0-85be-3992f5298dfa","name":"\u5361\u672c\u7279","city":"hualien","wifi":0,"seat":0,"quiet":0,"tasty":0,"cheap":0,"music":0,"url":"https:\/\/www.facebook.com\/hualiencarpenter","address":"\u82b1\u84ee\u5e02\u82b1\u84ee\u5e02\u5c1a\u5fd7\u8def5-2\u865f","latitude":"23.98678780","longitude":"121.60996090","limited_time":"","socket":"","standing_desk":"no","mrt":"","open_time":""},{"id":"e1af95d8-9d07-483f-86df-56ca0bd1156b","name":"Koukouvagia \u5495\u5495\u767c\u82bd\u5496\u5561\u9a5b\u68e7","city":"hualien","wifi":5,"seat":5,"quiet":4,"tasty":5,"cheap":5,"music":5,"url":"https:\/\/www.facebook.com\/koukouvagiacafe\/","address":"\u82b1\u84ee\u7e23\u7389\u91cc\u93ae\u5927\u540c\u8def58\u865f","latitude":"23.32674060","longitude":"121.31427020","limited_time":"","socket":"maybe","standing_desk":"yes","mrt":"","open_time":""},{"id":"e2e81c1d-b2ea-430c-8964-303ee89739c9","name":"\u5561\u5821\u5275\u98f2-\u82b1\u84ee\u548c\u5e73\u5e97","city":"hualien","wifi":5,"seat":5,"quiet":3.5,"tasty":4,"cheap":5,"music":4.5,"url":"https:\/\/www.facebook.com\/%E5%95%A1%E5%A0%A1%E5%89%B5%E9%A3%B2-%E8%8A%B1%E8%93%AE%E5%BA%97-102008908212518","address":"\u82b1\u84ee\u5e02\u548c\u5e73\u8def529\u865f","latitude":"23.97720090","longitude":"121.60079820","limited_time":"no","socket":"maybe","standing_desk":"no","mrt":"","open_time":""},{"id":"e433a385-ce45-4778-a23f-2280febb0c8c","name":"\u6708\u8377\u5858\u9109\u6751\u5eda\u623f","city":"hualien","wifi":5,"seat":5,"quiet":4,"tasty":3,"cheap":4,"music":4,"url":"https:\/\/www.facebook.com\/lsmoon39\/","address":"\u82b1\u84ee\u7e23\u5bcc\u91cc\u9109983\u82b1\u84ee\u7e23\u5bcc\u91cc\u9109\u7f85\u5c71\u6751\u6771\u6e5639\u865f","latitude":"23.20164250","longitude":"121.27590360","limited_time":"no","socket":"maybe","standing_desk":"yes","mrt":"","open_time":""},{"id":"e6a61a0f-63a6-4476-8473-b1428968b512","name":"\u6d6e\u5ba4 soave plan","city":"hualien","wifi":5,"seat":4.5,"quiet":5,"tasty":5,"cheap":4.5,"music":5,"url":"https:\/\/www.facebook.com\/soaveplan\/","address":"\u82b1\u84ee\u7e23\u82b1\u84ee\u5e02\u6210\u529f\u8857280\u865f","latitude":"23.97424770","longitude":"121.60733620","limited_time":"no","socket":"maybe","standing_desk":"no","mrt":"","open_time":""},{"id":"ec611d48-7dcb-41d8-a919-619005a8a94e","name":"\u6597\u3002\u5b85\u5546\u793e Cafe & Bar","city":"hualien","wifi":0,"seat":0,"quiet":0,"tasty":0,"cheap":0,"music":0,"url":"https:\/\/www.facebook.com\/Shibainu159.7","address":"\u82b1\u84ee\u5e02\u798f\u5efa\u8857460\u865f (\u9435\u9053\u6587\u5316\u5712\u5340\u4e8c\u9928\u5167)","latitude":"23.97443230","longitude":"121.60984350","limited_time":"no","socket":"yes","standing_desk":"no","mrt":"","open_time":""},{"id":"eeaaf76a-f16f-4ca9-ac4b-93579cbcacae","name":"\u91d1\u6e6f\u9054\u4eba\u5496\u5561\u9928","city":"hualien","wifi":2,"seat":4,"quiet":4,"tasty":5,"cheap":2,"music":5,"url":"https:\/\/www.facebook.com\/kingtangcafe","address":"\u82b1\u84ee\u5e02\u4e2d\u5c71\u8def431\u865f","latitude":"23.98258580","longitude":"121.60492030","limited_time":"no","socket":"maybe","standing_desk":"no","mrt":"","open_time":"\u6bcf\u65e58:00AM - 7:00PM"},{"id":"fb3cbf38-b7ad-43d0-9453-2451d3a4c7fa","name":"\u82b1\u84ee\u6069\u5178\u5496\u5561","city":"hualien","wifi":0,"seat":0,"quiet":0,"tasty":0,"cheap":0,"music":0,"url":"https:\/\/www.facebook.com\/%E8%8A%B1%E8%93%AE%E6%81%A9%E5%85%B8%E5%92%96%E5%95%A1-748440858570985\/?fref=ts","address":"\u82b1\u84ee\u7e23\u82b1\u84ee\u5e02\u6c11\u904b\u91cc\u4e2d\u7f8e\u4e00\u885774\u865f","latitude":"23.99474490","longitude":"121.63077700","limited_time":"","socket":"","standing_desk":"","mrt":"","open_time":""},{"id":"fc702163-13f9-4bdf-81cd-dd50979106cf","name":"Cafe Copita","city":"hualien","wifi":0,"seat":5,"quiet":3,"tasty":3.5,"cheap":3,"music":3,"url":"https:\/\/www.facebook.com\/Cafe-Copita-259896267771364","address":"\u82b1\u84ee\u5e02\u535a\u611b\u8857105\u865f","latitude":"23.97464140","longitude":"121.60838540","limited_time":"","socket":"","standing_desk":"no","mrt":"","open_time":""}]}