{"data":[{"id":"003c1c71-b6c9-4257-8722-54307a2281be","name":"Fuelwood Coffee \u71c3\u6728\u5496\u5561\u7814\u7a76\u6240","city":"kaohsiung","wifi":4,"seat":5,"quiet":4,"tasty":5,"cheap":5,"music":5,"url":"https:\/\/www.facebook.com\/fuelwoodcafe\/","address":"\u9ad8\u96c4\u5e02\u524d\u93ae\u5340\u5fa9\u8208\u4e09\u8def311-14\u865f","latitude":"22.58304500","longitude":"120.33590010","limited_time":"no","socket":"maybe","standing_desk":"yes","mrt":"\u300c\u8349\u8859\u7ad92\u865f\u51fa\u53e3\u300d\u51fa\u4f86\u5f8c\u5de6\u8f49\uff0c\u76f4\u884c\u7d04600\u516c\u5c3a","open_time":""},{"id":"00544d87-9d8f-4910-88e6-79aa69c5b447","name":"\u5496\u5561\u6797\u5496\u5561 ","city":"kaohsiung","wifi":4.5,"seat":4,"quiet":3.5,"tasty":5,"cheap":4,"music":4.5,"url":"https:\/\/www.facebook.com\/coffeelingcafe\/","address":"\u9ad8\u96c4\u5e02\u4e09\u6c11\u5340\u9f0e\u7965\u885712\u865f","latitude":"22.66538400","longitude":"120.31573100","limited_time":"maybe","socket":"yes","standing_desk":"no","mrt":"","open_time":"12:00-24:00"},{"id":"014ca85b-0a9d-4882-8a51-2e8e1a67315c","name":"\u591a\u90a3\u4e4b\u5ca1\u5c71\u5206\u5e97","city":"kaohsiung","wifi":2.5,"seat":1.5,"quiet":1.5,"tasty":2.5,"cheap":3,"music":2,"url":"","address":"\u9ad8\u96c4\u5e02\u5ca1\u5c71\u5340\u524d\u92d2\u8def6\u865f","latitude":"22.79448060","longitude":"120.28943310","limited_time":"","socket":"","standing_desk":"","mrt":"","open_time":""},{"id":"016c172f-34fa-4b21-b912-2c05f81ee209","name":"\u9ad8\u96c4 TaMa \u5496\u5561\u9928","city":"kaohsiung","wifi":5,"seat":5,"quiet":4.5,"tasty":5,"cheap":5,"music":5,"url":"https:\/\/www.facebook.com\/TaMa.Cafe\/?fref=ts","address":"\u9ad8\u96c4\u5e02\u82d3\u96c5\u5340\u6c38\u5eb7\u885773\u865f","latitude":"22.61759290","longitude":"120.30796130","limited_time":"no","socket":"maybe","standing_desk":"yes","mrt":"\u4e09\u591a\u5546\u5708","open_time":"\u8a73\u7d30\u4e0a\u81c9\u66f8\u7c89\u7d72\u5c08\u9801\u6700\u6e05\u695a"},{"id":"02c2bf8c-3a1f-45c6-b248-827bf124653f","name":"\u6e05\uff0e\u5496\u5561\u5370\u88fd\u6240","city":"kaohsiung","wifi":0,"seat":0,"quiet":0,"tasty":0,"cheap":0,"music":0,"url":"","address":"\u9ad8\u96c4\u5e02\u4e09\u6c11\u5340\u7693\u6771\u8def296\u865f","latitude":"22.65203610","longitude":"120.33680060","limited_time":"","socket":"","standing_desk":"","mrt":"","open_time":""},{"id":"02c4ca19-22a4-4baa-8b39-a3b144967596","name":"Zone Caf\u00e9 \u5f04\u5496\u5561","city":"kaohsiung","wifi":0,"seat":4.5,"quiet":4,"tasty":3.5,"cheap":3.5,"music":5,"url":"https:\/\/www.facebook.com\/zonecafe.kaohsiung\/","address":"\u9ad8\u96c4\u5e02\u4e09\u6c11\u5340\u5317\u5e73\u4e00\u8857158\u865f","latitude":"22.65019000","longitude":"120.30460000","limited_time":"","socket":"","standing_desk":"","mrt":"\u5f8c\u9a5b\u7ad9","open_time":""},{"id":"03353e4b-fa15-4c4a-b930-1f15c9900907","name":"Cuiqu Coffee(\u594e\u514b\u5496\u5561)","city":"kaohsiung","wifi":4,"seat":4.5,"quiet":3,"tasty":4,"cheap":3,"music":4,"url":"https:\/\/www.facebook.com\/cuiqucoffee\/","address":"\u9ad8\u96c4\u5e02\u9f13\u5c71\u5340\u535a\u611b\u4e8c\u8def236\u865f","latitude":"22.66075200","longitude":"120.30339600","limited_time":"no","socket":"yes","standing_desk":"no","mrt":"\u51f9\u5b50\u5e95","open_time":"08:30-21:30"},{"id":"0339466b-af7a-4e73-af90-4e46b1d9e1cc","name":"\u5b63\u6d0b\u5496\u5561\u96a8\u884c\u5427\u798f\u5c71\u5e97","city":"kaohsiung","wifi":4,"seat":5,"quiet":5,"tasty":3,"cheap":5,"music":3,"url":"","address":"\u9ad8\u96c4\u5e02\u5de6\u71df\u5340\u91cd\u611b\u8def158\u865f","latitude":"22.68437510","longitude":"120.31709900","limited_time":"no","socket":"yes","standing_desk":"yes","mrt":"","open_time":""},{"id":"04548030-9211-465b-a87a-f32429d7c45b","name":"My cofi","city":"kaohsiung","wifi":5,"seat":5,"quiet":5,"tasty":5,"cheap":4,"music":4,"url":"https:\/\/www.facebook.com\/My-cofi-116728305117302\/","address":"\u9ad8\u96c4\u5e02\u82d3\u96c5\u5340\u5ec8\u9580\u885719\u865f","latitude":"22.62567660","longitude":"120.31419190","limited_time":"yes","socket":"maybe","standing_desk":"no","mrt":"\u4fe1\u7fa9\u570b\u5c0f\u7ad94\u865f\u51fa\u53e3\u6b6510\u5206\/\u516c\u8eca\u7ad9\"\u9e97\u5c0a\u9152\u5e97\"\u6b653\u5206, \"\u6c11\u6b0a\u4e00\u8def\"\u6b655\u5206\/CityBike\"\u6587\u5316\u4e2d\u5fc3\"\u7ad9\u6b656\u5206","open_time":""},{"id":"0490448b-539a-4a23-878f-f5bd4f0caaa2","name":"\u5496\u5561\u6558\u4e8b\u66f2","city":"kaohsiung","wifi":5,"seat":4,"quiet":4,"tasty":5,"cheap":3,"music":5,"url":"https:\/\/www.facebook.com\/balladecafe\/","address":"\u9ad8\u96c4\u5e02\u82d3\u96c5\u5340\u6c38\u5b9a\u885785\u865f","latitude":"22.61886200","longitude":"120.31159500","limited_time":"","socket":"","standing_desk":"no","mrt":"","open_time":"08:00 - 18:00"},{"id":"05129b1d-349e-4052-832f-b94b14b87530","name":"\u7f85\u65af\u6735.\u6674\u5929\u73fe\u70d8\u7cbe\u54c1\u5496\u5561\u7814\u7a76\u5ba4","city":"kaohsiung","wifi":5,"seat":5,"quiet":5,"tasty":5,"cheap":5,"music":5,"url":"https:\/\/www.facebook.com\/sunnyday.cafe.roaster3\/","address":"\u4e94\u798f\u4e09\u8def98-1\u865f","latitude":"22.62156400","longitude":"120.29574550","limited_time":"no","socket":"yes","standing_desk":"","mrt":"","open_time":""},{"id":"069f67d2-9e26-40f8-bbd5-178d982a19ac","name":"\u6eab\u67d4\u5be6\u9a57\u5ba4","city":"kaohsiung","wifi":0,"seat":0,"quiet":0,"tasty":0,"cheap":0,"music":0,"url":"","address":"\u9ad8\u96c4\u5e02\u9e7d\u57d5\u5340\u5927\u516c\u8def62\u865f","latitude":"22.62729150","longitude":"120.28367100","limited_time":"maybe","socket":"no","standing_desk":"no","mrt":"","open_time":""},{"id":"072b7a84-0542-401a-b350-71595f073eae","name":"O2 Caffe \u6b50\u5154\u5496\u5561","city":"kaohsiung","wifi":5,"seat":5,"quiet":4,"tasty":2,"cheap":5,"music":4,"url":"","address":"\u9ad8\u96c4\u5e02\u6960\u6893\u5340\u571f\u5eab\u4e8c\u8def183\u865f","latitude":"22.73846420","longitude":"120.32611370","limited_time":"no","socket":"maybe","standing_desk":"no","mrt":"","open_time":""},{"id":"075fd07c-3cdf-4c9b-9f29-9fa3927c3a9d","name":"\u5657 \u5496\u5561 Pu Cafe","city":"kaohsiung","wifi":4.5,"seat":5,"quiet":4,"tasty":5,"cheap":4,"music":4,"url":"https:\/\/www.facebook.com\/pucafe5515023\/","address":"\u9ad8\u96c4\u5e02\u9e7d\u57d5\u5340\u65b0\u6a02\u8857152\u865f","latitude":"22.62478460","longitude":"120.28390790","limited_time":"maybe","socket":"maybe","standing_desk":"yes","mrt":"\u9e7d\u57d5\u57d4\u7ad92\u865f\u51fa\u53e3\u6b651\u5206","open_time":""},{"id":"0836ee53-ed69-4f9e-9c06-d6ef0c3dcb84","name":" KamoGamo\u8c93\u7aa9 ","city":"kaohsiung","wifi":5,"seat":3,"quiet":5,"tasty":4,"cheap":3,"music":4,"url":"","address":"800\u53f0\u7063\u9ad8\u96c4\u5e02\u65b0\u8208\u5340\u6587\u6a6b\u4e8c\u8def121\u5df722\u865f","latitude":"22.62112100","longitude":"120.30376600","limited_time":"no","socket":"maybe","standing_desk":"no","mrt":"","open_time":""},{"id":"08b77441-6004-4018-a814-5dd8f1130759","name":" Taylor's Caf'e \u6cf0\u52d2\u5496\u5561\u574a","city":"kaohsiung","wifi":0,"seat":3,"quiet":5,"tasty":3.5,"cheap":3,"music":3.5,"url":"https:\/\/www.facebook.com\/tdtc.cafe\/","address":"\u9ad8\u96c4\u5e02\u4e09\u6c11\u5340\u81e5\u9f8d\u8def54\u5df749\u865f1\u6a13","latitude":"22.63808480","longitude":"120.33181660","limited_time":"","socket":"","standing_desk":"no","mrt":"","open_time":""},{"id":"09822d7f-3bf0-447d-8f7b-089bd7df77ef","name":"Pure Black Coffee","city":"kaohsiung","wifi":0,"seat":0,"quiet":0,"tasty":0,"cheap":0,"music":0,"url":"","address":"\u9ad8\u96c4\u5e02\u5de6\u71df\u5340\u81f3\u8056\u8def14\u865f","latitude":"22.65971290","longitude":"120.31105610","limited_time":"","socket":"","standing_desk":"","mrt":"","open_time":""},{"id":"098d1f76-0118-4df8-8251-d638d1a16aee","name":"Louisa Coffee \u8def\u6613\uff0e\u838e\u5496\u5561(\u9ad8\u96c4\u88d5\u8aa0\u5e97)","city":"kaohsiung","wifi":5,"seat":4,"quiet":4,"tasty":5,"cheap":4,"music":4,"url":"https:\/\/www.facebook.com\/%E8%B7%AF%E6%98%93%E8%8E%8E%E5%92%96%E5%95%A1-Louisa-Coffee-%E9%AB%98%E9%9B%84%E8%A3%95%E8%AA%A0%E5%BA%97-1819695671592819\/","address":"\u9ad8\u96c4\u5e02\u5de6\u71df\u5340\u88d5\u8aa0\u8def366\u865f","latitude":"22.66547200","longitude":"120.30736600","limited_time":"no","socket":"no","standing_desk":"no","mrt":"\u5de8\u86cb","open_time":""},{"id":"0b118140-0a3f-45da-8178-732317197e89","name":"\u4e00\u7b49\u4e00\u5496\u5561","city":"kaohsiung","wifi":5,"seat":4.5,"quiet":4,"tasty":5,"cheap":4.5,"music":5,"url":"https:\/\/www.facebook.com\/Top1CafeTea","address":"\u9ad8\u96c4\u5e02\u9e7d\u57d5\u5340\u65b0\u8208\u885728-1\u865f","latitude":"22.62357180","longitude":"120.28018770","limited_time":"maybe","socket":"yes","standing_desk":"yes","mrt":"","open_time":"10-10"},{"id":"0b80d7aa-7816-48a8-bf4f-45dc2c981007","name":"\u5411\u967d\u6a39\u5496\u5561-\u5cc7\u91cc\u5cf6\u9a5b\u7ad9","city":"kaohsiung","wifi":0,"seat":0,"quiet":0,"tasty":0,"cheap":0,"music":0,"url":"https:\/\/www.facebook.com\/shinytree.tw\/","address":"\u9ad8\u96c4\u5e02\u6893\u5b98\u5340\u5927\u820d\u5357\u8def92\u865f","latitude":"22.74463590","longitude":"120.26243690","limited_time":"","socket":"","standing_desk":"","mrt":"","open_time":""},{"id":"0b99334b-b2a7-49dc-b79f-2c08fd69224c","name":"\u827e\u5947\u8afe\u73c8\u7432\u5de5\u574a","city":"kaohsiung","wifi":4,"seat":5,"quiet":4.5,"tasty":5,"cheap":4,"music":3.5,"url":"https:\/\/www.facebook.com\/CaffeArtigiano1982\/","address":"\u9ad8\u96c4\u5e02\u9e7d\u57d5\u5340\u5efa\u570b\u56db\u8def41\u865f","latitude":"22.62232300","longitude":"120.27841700","limited_time":"maybe","socket":"maybe","standing_desk":"no","mrt":"\u8f15\u8ecc\u99c1\u4e8c\u84ec\u840a\u7ad9\u6b654\u5206, \u6377\u904b\u897f\u5b50\u7063\u7ad92\u865f\u51fa\u53e3\u6b657\u5206, \u9e7d\u57d5\u57d4\u7ad91\u865f\u51fa\u53e3\u6b659\u5206\/\u516c\u8eca\u7ad9\"\u8f15\u8ecc\u99c1\u4e8c\u84ec\u7b82\u7ad9(\u9ad8\u96c4\u6e2f)\"\u6b653\u5206\/CityBike\"\u6d77\u5de1\u968a\u7ad9\"\u7ad9\u6b653\u5206, \"\u9435\u9053\u6587\u5316\u5712\u5340\u7ad9\"\u7ad9\u6b655\u5206","open_time":""},{"id":"0cb05285-0f05-4e9c-849b-6f9f2ef4a5c0","name":"\u5b63\u6d0b\u838a\u5712\u5496\u5561\u96a8\u884c\u5427\u6210\u529f\u5e97","city":"kaohsiung","wifi":0,"seat":0,"quiet":0,"tasty":0,"cheap":0,"music":0,"url":"","address":"\u9ad8\u96c4\u5e02\u524d\u91d1\u5340\u6210\u529f\u4e00\u8def431\u865f","latitude":"22.62729470","longitude":"120.29248610","limited_time":"","socket":"","standing_desk":"","mrt":"","open_time":""},{"id":"0d81d7b8-b483-487d-963a-1027af7d2d5b","name":"\u90fd\u63d0\u5496\u5561","city":"kaohsiung","wifi":5,"seat":4,"quiet":3,"tasty":5,"cheap":4,"music":2,"url":"https:\/\/www.facebook.com\/Duttycoffee\/","address":"\u9ad8\u96c4\u5e02\u4e09\u6c11\u5340\u5409\u6797\u885786\u865f","latitude":"22.64240300","longitude":"120.30632200","limited_time":"no","socket":"maybe","standing_desk":"yes","mrt":"\u5f8c\u9a5b\u7ad92\u865f\u51fa\u53e3\u6b6512\u5206, \u53f0\u9435\u9ad8\u96c4\u7ad9\u5f8c\u7ad9\u51fa\u53e3\u6b657\u5206\/\u516c\u8eca\u7ad9''\u5927\u9023\u8857\u53e3''\u6b653\u5206, \"\u4e09\u6c11\u570b\u4e2d\"\u6b655\u5206\/CityBike''\u4e09\u6c11\u6e38\u6cf3\u6c60''\u7ad9\u6b653\u5206, ''\u535a\u611b\u570b\u5c0f''\u7ad9\u6b655\u5206, \"\u5f8c\u706b\u8eca\u7ad9\"\u7ad9\u6b656\u5206","open_time":""},{"id":"0ef14210-e614-4a9b-bf10-782756de0ea9","name":"Caf\u00e9 Strada \u6b65\u9053\u5496\u5561","city":"kaohsiung","wifi":5,"seat":4,"quiet":4,"tasty":4,"cheap":4,"music":5,"url":"https:\/\/www.facebook.com\/Caf%C3%A9-Strada-%E6%AD%A5%E9%81%93%E5%92%96%E5%95%A1-131409216946863\/?fref=ts","address":"\u9ad8\u96c4\u5e02\u65b0\u8208\u5340\u4e2d\u6b63\u4e8c\u8def67\u865f","latitude":"22.63012370","longitude":"120.31741360","limited_time":"no","socket":"yes","standing_desk":"no","mrt":"\u6587\u5316\u4e2d\u5fc3\u7ad92\u865f\u51fa\u53e3\u6b651\u5206","open_time":""},{"id":"0f59887a-0316-4fdc-89a2-e8193e223603","name":"Petite Cafe \u6ce2\u918d\u7cbe\u54c1\u5496\u5561\u9928 \u5927\u7acb\u767e\u8ca8\u5e97","city":"kaohsiung","wifi":0,"seat":0,"quiet":0,"tasty":0,"cheap":0,"music":0,"url":"www.petitecafe.com.tw","address":"80148\u9ad8\u96c4\u5e02\u524d\u91d1\u5340\u4e94\u798f\u4e09\u8def59\u865fB\u9928\u5927\u7acb\u767e\u8ca8","latitude":"22.62171770","longitude":"120.29748010","limited_time":"maybe","socket":"no","standing_desk":"no","mrt":"\u4e2d\u592e\u516c\u5712\u7ad9","open_time":""},{"id":"0f84e75e-05cb-4c57-b277-315d2b59f7e3","name":"\u8349\u5716\u81ea\u5bb6\u70d8\u7119\u5496\u5561\u9928","city":"kaohsiung","wifi":3,"seat":3,"quiet":4,"tasty":5,"cheap":4,"music":4,"url":"https:\/\/www.facebook.com\/sketchcafe.tw\/","address":"\u9ad8\u96c4\u5e02\u524d\u91d1\u5340\u4e2d\u6b63\u56db\u8def111\u865f","latitude":"22.62962900","longitude":"120.29771100","limited_time":"maybe","socket":"no","standing_desk":"yes","mrt":"\u820a\u5e02\u8b70\u6703\u7ad9\u4e09\u865f\u51fa\u53e3","open_time":"\u4e8c~\u4e94: 10-18, \u516d\u65e5: 11-18, \u4e00\u516c\u4f11"},{"id":"104fb87b-6fe2-4a02-b8be-662a670a325b","name":"\u4e09\u9918\u66f8\u5e97 TaKaoBooks","city":"kaohsiung","wifi":5,"seat":5,"quiet":5,"tasty":5,"cheap":5,"music":5,"url":"https:\/\/www.facebook.com\/pg\/takaobooks214\/about\/?ref=page_internal","address":"\u9ad8\u96c4\u5e02\u65b0\u8208\u5340\u4e2d\u6b63\u4e8c\u8def214\u865f","latitude":"22.63059180","longitude":"120.31550730","limited_time":"no","socket":"yes","standing_desk":"no","mrt":"\u6587\u5316\u4e2d\u5fc3","open_time":"13:30-22:00"},{"id":"10b47950-d480-48ae-827e-8f96541439df","name":"\u6469\u8fc5\u9ad8\u96c4\u6960\u6893\u5e97","city":"kaohsiung","wifi":5,"seat":5,"quiet":4,"tasty":5,"cheap":4,"music":5,"url":"https:\/\/www.facebook.com\/MoPaoJack\/","address":"\u9ad8\u96c4\u5e02\u6960\u6893\u5340\u88d5\u660c\u8857312\u865f1\u6a13","latitude":"22.71713270","longitude":"120.28776470","limited_time":"no","socket":"","standing_desk":"yes","mrt":"","open_time":""},{"id":"10e39ef3-f6a8-426f-8647-12b2658d6a4c","name":"\u8cbb\u5967\u7d0d\u5496\u5561","city":"kaohsiung","wifi":4,"seat":5,"quiet":4,"tasty":3,"cheap":3,"music":4,"url":"https:\/\/www.facebook.com\/pg\/Cofe.Fiona\/about\/?ref=page_internal","address":"\u524d\u93ae\u5340\u5149\u83ef\u4e09\u8def229\u865f","latitude":"22.60551400","longitude":"120.31543810","limited_time":"no","socket":"maybe","standing_desk":"no","mrt":"","open_time":"10:00-21:00"},{"id":"120aa98f-0a2e-423c-b2af-27c229d17c41","name":"CHOOSY GOURMET \u5561\u5690\u6311\u5254","city":"kaohsiung","wifi":4.5,"seat":5,"quiet":4,"tasty":5,"cheap":4,"music":4,"url":"https:\/\/www.facebook.com\/choosy.gourmet\/","address":"\u9ad8\u96c4\u5e02\u4ec1\u6b66\u5340\u5f8c\u6e2f\u5df7151\u4e4b10\u865f","latitude":"22.68165600","longitude":"120.32225600","limited_time":"no","socket":"yes","standing_desk":"no","mrt":"","open_time":"\u9031\u4e8c\u81f3\u9031\u516d 11:00-23:00 \u5468\u65e5 11:00-18:00"},{"id":"120e668a-673a-473d-9c73-51a9503c7515","name":"\u5495\u8482\u5495\u8482\u4e2d\u5c71\u5e97","city":"kaohsiung","wifi":4,"seat":4,"quiet":3,"tasty":4,"cheap":4,"music":3,"url":"","address":"\u9ad8\u96c4\u5e02\u65b0\u8208\u5340\u4e2d\u5c71\u4e00\u8def27\u865f","latitude":"0.00000000","longitude":"0.00000000","limited_time":"","socket":"maybe","standing_desk":"","mrt":"","open_time":""},{"id":"1233abc7-5fac-4862-9a82-de85bdacef12","name":"\u4e9e\u820d\u5496\u5561 Arthur Cafe","city":"kaohsiung","wifi":5,"seat":5,"quiet":5,"tasty":5,"cheap":4.5,"music":4.5,"url":"","address":"\u9ad8\u96c4\u5e02\u5de6\u71df\u5340\u6587\u5e9c\u8def416\u865f\u4e4b3","latitude":"22.69081080","longitude":"120.31451550","limited_time":"","socket":"no","standing_desk":"","mrt":"","open_time":""},{"id":"12826970-e547-4c73-8e64-0d38a2ec7fec","name":"KSL Coffee","city":"kaohsiung","wifi":4,"seat":5,"quiet":3,"tasty":4,"cheap":3,"music":5,"url":"https:\/\/www.facebook.com\/Kslcoffee\/","address":"\u9ad8\u96c4\u5e02\u9cf3\u5c71\u5340\u9752\u5e74\u8def\u4e8c\u6bb5167\u865f","latitude":"22.63444600","longitude":"120.34990100","limited_time":"no","socket":"maybe","standing_desk":"","mrt":"","open_time":"\u661f\u671f\u4e8c-\u661f\u671f\u4e9413:00-21:00\uff0c\u661f\u671f\u516d\u3001\u65e510:30-21:00\uff0c\u661f\u671f\u4e00\u516c\u4f11"},{"id":"130f27bc-bf98-4912-a2be-fb6f644b551e","name":"\u5361\u5561\u90a3 CAFFAINA \u660e\u8aa0\u5e97","city":"kaohsiung","wifi":4,"seat":3,"quiet":2.5,"tasty":4,"cheap":1.5,"music":3,"url":"https:\/\/www.facebook.com\/Caffaina-Coffee-Gallery-%E5%8D%A1%E5%95%A1%E9%82%A3%E6%98%8E%E8%AA%A0%E5%A3%B9%E8%99%9F%E5%BA%97-453732771383399\/","address":"\u9ad8\u96c4\u5e02\u5de6\u71df\u5340\u660e\u8aa0\u4e8c\u8def243\u865f","latitude":"22.66080500","longitude":"120.31006300","limited_time":"no","socket":"yes","standing_desk":"","mrt":"\u51f9\u5b50\u5e95\u7ad93\u865f\u51fa\u53e3\u6b6514\u5206\/\u516c\u8eca\u7ad9\"\u6cb3\u5824\u516c\u5712(\u660e\u8aa0\u4e8c\u8def)\"\u6b651\u5206, \"\u660e\u8aa0\u8def\u53e3(\u81ea\u7531\u4e8c\u8def)\"\u6b653\u5206\/CityBike\"\u660e\u8aa0\u5149\u8208\u7ad9\"\u7ad9\u6b651\u5206","open_time":""},{"id":"1454fb0d-839e-4fc2-9d19-957aa7c8ce7c","name":" Monday Black Espresso Bar X \u5496\u5561\u6f2b\u8ac7","city":"kaohsiung","wifi":5,"seat":5,"quiet":4,"tasty":5,"cheap":5,"music":4,"url":"https:\/\/www.facebook.com\/sakicafe.3.0","address":"\u9ad8\u96c4\u5e02\u524d\u93ae\u5340\u53f0\u92c1\u5341\u4e00\u5df7\u5341\u56db\u865f\u4e00\u6a13","latitude":"99.99999999","longitude":"22.61287450","limited_time":"no","socket":"maybe","standing_desk":"yes","mrt":"\u7345\u7532","open_time":"\u6bcf\u6708\u4e0d\u5b9a\u671f\u516c\u4f11\uff0c\u8a73\u898b\u5b98\u7db2"},{"id":"172d9f40-9a17-49f9-b192-9d66b23ae577","name":"The Original One -T O O","city":"kaohsiung","wifi":4,"seat":5,"quiet":4,"tasty":3.5,"cheap":5,"music":0,"url":"https:\/\/www.facebook.com\/TOO138\/?ref=page_internal","address":"\u9ad8\u96c4\u5e02\u524d\u93ae\u5340\u745e\u9686\u8def138\u865f","latitude":"22.60598300","longitude":"120.33642000","limited_time":"no","socket":"","standing_desk":"no","mrt":"","open_time":"09:00-19:00"},{"id":"185d744c-dad1-459b-9d1f-594456e70677","name":"\u9edb\u897f\u5802\u5496\u5561\u8c46\u8216","city":"kaohsiung","wifi":5,"seat":5,"quiet":5,"tasty":5,"cheap":5,"music":5,"url":"https:\/\/goo.gl\/ErJw9M","address":"\u9ad8\u96c4\u5e02\u9cf3\u5c71\u5340\u65b0\u5bcc\u8def182\u865f","latitude":"22.61253970","longitude":"120.33758210","limited_time":"no","socket":"no","standing_desk":"no","mrt":"","open_time":""},{"id":"188fb9f6-ec2e-4028-8cb3-6a273a2f88ed","name":"Coffee Wake Up \u5496\u5561\u89ba\u9192\uff08\u4e2d\u5c71\u5e97\uff09","city":"kaohsiung","wifi":5,"seat":4.5,"quiet":3.5,"tasty":5,"cheap":4,"music":5,"url":"https:\/\/zh-tw.facebook.com\/coffeewakeuptaiwan\/","address":"801\u9ad8\u96c4\u5e02\u524d\u91d1\u5340\u4e2d\u5c71\u4e8c\u8def547\u865f","latitude":"22.62139500","longitude":"120.30139800","limited_time":"no","socket":"yes","standing_desk":"no","mrt":"\u4e2d\u592e\u516c\u5712\u7ad9","open_time":""},{"id":"19a0bc76-2013-4be2-9b8d-b62a9339fe74","name":"AWAKE COFFEE","city":"kaohsiung","wifi":4,"seat":4,"quiet":3,"tasty":4,"cheap":4,"music":4,"url":"https:\/\/www.facebook.com\/coffee.Awake\/","address":"\u9ad8\u96c4\u5e02\u524d\u93ae\u5340\u6c11\u8c50\u885724\u865f","latitude":"22.60539900","longitude":"120.31007900","limited_time":"no","socket":"yes","standing_desk":"yes","mrt":"\u7345\u7532\u7ad9","open_time":""},{"id":"1abc4c2c-f7d6-45b8-853d-02857d0b81e8","name":"Kingmauii Coffee \u91d1\u8302\u5b9c\u5496\u5561 \u6587\u6ff1\u5e97","city":"kaohsiung","wifi":2.5,"seat":4,"quiet":3,"tasty":4.5,"cheap":4,"music":3,"url":"","address":"83048\u9ad8\u96c4\u5e02\u9cf3\u5c71\u5340\u6587\u6ff1\u8def186\u865f1\u6a13","latitude":"22.64421800","longitude":"120.35006900","limited_time":"yes","socket":"no","standing_desk":"no","mrt":"","open_time":""},{"id":"1abca3a0-4afd-4b8d-b13c-87a2d4d56608","name":"\u6613\u6613\u8336\u5ba4","city":"kaohsiung","wifi":5,"seat":4,"quiet":5,"tasty":5,"cheap":5,"music":5,"url":"","address":"\u9ad8\u96c4\u5e02\u82d3\u96c5\u5340\u6d77\u908a\u8def55\u865f","latitude":"22.61935520","longitude":"120.29325760","limited_time":"maybe","socket":"yes","standing_desk":"no","mrt":"","open_time":""},{"id":"1b3164dc-1362-4c44-81da-2c6ed05e3682","name":"14g \u5149\u83ef\u5e97","city":"kaohsiung","wifi":4,"seat":5,"quiet":4,"tasty":5,"cheap":5,"music":5,"url":"","address":"802\u9ad8\u96c4\u5e02\u82d3\u96c5\u5340\u5149\u83ef\u4e00\u8def315\u865f","latitude":"22.62637890","longitude":"120.31445820","limited_time":"no","socket":"yes","standing_desk":"no","mrt":"","open_time":""},{"id":"1cc1269d-fbca-488a-855e-2778a811fa40","name":"\u5b78\u9662\u4fbf\u5229\u96fb","city":"kaohsiung","wifi":2,"seat":5,"quiet":2,"tasty":3,"cheap":3,"music":2,"url":"https:\/\/www.facebook.com\/SCPGJ\/","address":"\u9ad8\u96c4\u5e02\u6960\u6893\u5340\u9ad8\u96c4\u5927\u5b78\u8def700\u865f","latitude":"22.73286670","longitude":"120.28720730","limited_time":"","socket":"no","standing_desk":"yes","mrt":"","open_time":""},{"id":"1d0536d4-b36c-431b-8f98-ae356806d43c","name":"\u5b63\u6d0b\u838a\u5712\u5496\u5561\u96a8\u884c\u5427\u6c11\u65cf\u5e97","city":"kaohsiung","wifi":3,"seat":5,"quiet":2,"tasty":4,"cheap":5,"music":4,"url":"https:\/\/www.facebook.com\/pages\/%E5%AD%A3%E6%B4%8B%E8%8E%8A%E5%9C%92%E5%92%96%E5%95%A1%E9%9A%A8%E8%A1%8C%E5%90%A7%E6%B0%91%E6%97%8F%E5%BA%97\/192027707635318?ref=stream","address":"\u9ad8\u96c4\u5e02\u65b0\u8208\u5340\u6c11\u65cf\u4e8c\u8def65-1\u865f","latitude":"22.63139710","longitude":"120.31299300","limited_time":"","socket":"","standing_desk":"","mrt":"\u6587\u5316\u4e2d\u5fc3\/\u4fe1\u7fa9\u570b\u5c0f","open_time":""},{"id":"1e5229c9-1169-404a-a3e0-1a0e643ec15f","name":"\u807d\u898b\u82b1\u958b\u5496\u5561\u9928 ","city":"kaohsiung","wifi":4,"seat":5,"quiet":5,"tasty":3,"cheap":3,"music":4,"url":"","address":"\u9ad8\u96c4\u5e02\u6960\u6893\u5340\u571f\u5eab\u8def283\u865f","latitude":"22.74037450","longitude":"120.32950420","limited_time":"","socket":"","standing_desk":"","mrt":"","open_time":""},{"id":"1f59f0b3-e320-47cd-864c-be8a36c9ae72","name":"\u6771\u4e8c\u5df7\u5496\u5561","city":"kaohsiung","wifi":5,"seat":5,"quiet":5,"tasty":5,"cheap":5,"music":3,"url":"https:\/\/www.facebook.com\/arashi1986\/","address":"\u53f0\u5357\u5e02\u5f8c\u58c1\u5340\u9577\u5b89\u91cc\u4e2d\u5bee35-5\u865f","latitude":"23.33173600","longitude":"120.35872700","limited_time":"no","socket":"maybe","standing_desk":"yes","mrt":"\u5357\u5d17\u5c71\u7ad9","open_time":""},{"id":"1f7ddfa3-3352-4d1c-892a-0a7762ba94f6","name":"\u597d\u6797\u73c8\u7432","city":"kaohsiung","wifi":0,"seat":0,"quiet":0,"tasty":0,"cheap":0,"music":0,"url":"","address":"\u9ad8\u96c4\u5e02\u65d7\u5c71\u5340\u6c11\u6b0a\u4e8c\u885713\u865f","latitude":"0.00000000","longitude":"0.00000000","limited_time":"","socket":"","standing_desk":"","mrt":"","open_time":""},{"id":"218e1e17-568c-4d7a-be10-02eec3044c52","name":"\u6838\u6843\u6817\u6817\u73c8\u7432\u5c4b","city":"kaohsiung","wifi":5,"seat":5,"quiet":4,"tasty":5,"cheap":5,"music":5,"url":"https:\/\/facebook.com\/kurumicafe","address":"81359\u9ad8\u96c4\u5e02\u5de6\u71df\u5340\u8f9b\u4ea5\u8def43\u865f","latitude":"22.66185480","longitude":"120.30932760","limited_time":"no","socket":"maybe","standing_desk":"yes","mrt":"","open_time":"\u65e5\u8a9e\u6559\u5b78\u6642\u6bb5\u5e97\u9762\u6709\u958b\u672a\u71df\u696d"},{"id":"21a3c602-e48d-42c0-bb8a-d3091c1aa778","name":"HAUS COFFEE","city":"kaohsiung","wifi":5,"seat":5,"quiet":4,"tasty":5,"cheap":4,"music":5,"url":"","address":"\u9ad8\u96c4\u5e02\u5de6\u71df\u5340\u65b0\u6b63\u8def28\u5df71\u865f","latitude":"22.66897400","longitude":"120.29936250","limited_time":"no","socket":"maybe","standing_desk":"no","mrt":"","open_time":""},{"id":"22dd5086-733a-48b6-b218-33f4f50fdf2a","name":"Michel Coffee Beans","city":"kaohsiung","wifi":0,"seat":0,"quiet":0,"tasty":0,"cheap":0,"music":0,"url":"","address":"807\u9ad8\u96c4\u5e02\u4e09\u6c11\u5340\u6c11\u65cf\u4e00\u8def617\u865f","latitude":"22.66881360","longitude":"120.31688910","limited_time":"","socket":"","standing_desk":"","mrt":"","open_time":""},{"id":"241c2c2f-5aec-47aa-9b71-88be22e4d096","name":"Bikecoffee - \u62dc\u514b\u5496\u5561","city":"kaohsiung","wifi":5,"seat":5,"quiet":5,"tasty":5,"cheap":5,"music":5,"url":"https:\/\/www.facebook.com\/Bikecoffee-%E6%8B%9C%E5%85%8B%E5%92%96%E5%95%A1-142406032633950\/","address":"\u9ad8\u96c4\u5e02\u4e09\u6c11\u5340\u6797\u68ee\u4e00\u8def345\u5df713\u865f","latitude":"22.63878490","longitude":"120.30464620","limited_time":"no","socket":"yes","standing_desk":"yes","mrt":"\u9ad8\u96c4\u706b\u8eca\u7ad9(\u524d\u7ad9","open_time":"\u5916\u5e36\u7a97\u53e3\u540c\u71df\u696d\u6642\u9593"},{"id":"24f7acee-2308-4750-b140-f53e518cb111","name":"\u63e1\u5496\u5561 OH\uff01cafe","city":"kaohsiung","wifi":4,"seat":3,"quiet":3,"tasty":4,"cheap":4,"music":3,"url":"","address":"\u9ad8\u96c4\u5e02\u9f13\u5c71\u5340\u6ff1\u6d77\u4e8c\u8def5\u865f","latitude":"22.62001200","longitude":"120.27033400","limited_time":"","socket":"","standing_desk":"","mrt":"","open_time":""},{"id":"272ef094-bbd0-4347-8a9e-21aabaaa570a","name":"\u65c5\u884c\u990a\u5206","city":"kaohsiung","wifi":5,"seat":4,"quiet":4,"tasty":3,"cheap":3,"music":3,"url":"https:\/\/www.facebook.com\/travelnutrients","address":"\u9e7d\u57d5\u5340\u65b0\u8208\u8857291\u865f2\u6a13","latitude":"22.63189700","longitude":"120.28447500","limited_time":"","socket":"maybe","standing_desk":"","mrt":"","open_time":""},{"id":"275aa2ae-4fa3-4a51-bacf-9a444ccd8519","name":"\u865b\u5ba4\u5496\u5561 Fictional Room Coffee","city":"kaohsiung","wifi":5,"seat":4,"quiet":4,"tasty":5,"cheap":5,"music":4,"url":"https:\/\/www.facebook.com\/fictionalroom\/","address":"\u9ad8\u96c4\u5e02\u9f13\u5c71\u5340\u9f13\u6ce2\u885762\u865f","latitude":"22.62368000","longitude":"120.27261000","limited_time":"no","socket":"maybe","standing_desk":"no","mrt":"","open_time":""},{"id":"28a50971-1cd2-4d35-bfc2-d91f8b0dbd2b","name":"\u6162\u751f\u6d3b\u5496\u5561","city":"kaohsiung","wifi":5,"seat":5,"quiet":5,"tasty":5,"cheap":5,"music":4.5,"url":"https:\/\/www.facebook.com\/Slow-Life-Cafe-%E6%85%A2%E7%94%9F%E6%B4%BB%E5%92%96%E5%95%A1-787391827994869\/","address":"\u9ad8\u96c4\u5e02\u9cf3\u5c71\u5340\u4e94\u7532\u4e8c\u8def538\u865f","latitude":"22.59654710","longitude":"120.33356100","limited_time":"","socket":"","standing_desk":"","mrt":"","open_time":""},{"id":"29ab59f5-75ef-49a3-9140-f8f86b4be455","name":"\u8c93\u982d\u9df9\u5496\u5561\u9928","city":"kaohsiung","wifi":4.5,"seat":4.5,"quiet":5,"tasty":5,"cheap":4.5,"music":4.5,"url":"https:\/\/www.facebook.com\/pg\/%E8%B2%93%E9%A0%AD%E9%B7%B9%E5%92%96%E5%95%A1%E9%A4%A8-203670999688804\/about\/?ref=page_internal","address":"\u65b0\u8208\u5340\u5fe0\u5b5d\u4e00\u8def458\u865f","latitude":"22.63477300","longitude":"120.30640440","limited_time":"no","socket":"yes","standing_desk":"","mrt":"","open_time":""},{"id":"29dbca87-8d4e-40f2-a5ed-908b4107a0e1","name":"\u7f85\u65af\u6735.\u6674\u5929\u73fe\u70d8\u5496\u5561-\u7ad9\u524d\u5e97","city":"kaohsiung","wifi":5,"seat":5,"quiet":5,"tasty":5,"cheap":5,"music":5,"url":"https:\/\/www.facebook.com\/roaster.sunny\/","address":"\u9ad8\u96c4\u5e02\u65b0\u8208\u5340\u4e2d\u5c71\u4e00\u8def262\u865f","latitude":"22.63493900","longitude":"120.30251100","limited_time":"no","socket":"maybe","standing_desk":"yes","mrt":"\u9ad8\u96c4\u524d\u706b\u8eca\u7ad9\u3001\u7f8e\u9e97\u5cf6","open_time":""},{"id":"2a929d36-3759-48e9-8729-e2255ac0307b","name":"\u5979\u5979\u5496\u6bd4","city":"kaohsiung","wifi":0,"seat":5,"quiet":3,"tasty":4,"cheap":5,"music":2,"url":"https:\/\/www.facebook.com\/top2gabe160625\/","address":"\u9ad8\u96c4\u5e02\u4e09\u6c11\u5340\u6b63\u5fe0\u8def148\u865f","latitude":"22.64305650","longitude":"120.33056340","limited_time":"","socket":"","standing_desk":"","mrt":"","open_time":""},{"id":"2aeb6efa-626f-4466-9a9c-ff540108e512","name":"\u4f86\u798f\u5496\u5561Life Coffee Studio","city":"kaohsiung","wifi":3,"seat":4,"quiet":5,"tasty":5,"cheap":5,"music":5,"url":"https:\/\/www.facebook.com\/life.coffee.studio\/","address":"\u9ad8\u96c4\u5e02\u82d3\u96c5\u5340\u6c38\u5b9a\u885746\u865f","latitude":"22.61801000","longitude":"120.31210900","limited_time":"no","socket":"","standing_desk":"","mrt":"","open_time":""},{"id":"2af93901-e1b1-4374-9812-218cc1308f48","name":"\u8def\u6613\u838e\u5496\u5561 \u6cb3\u5824\u5e97","city":"kaohsiung","wifi":5,"seat":3.5,"quiet":1.5,"tasty":4,"cheap":4,"music":3,"url":"","address":"\u9ad8\u96c4\u5e02\u4e09\u6c11\u5340\u660e\u4ec1\u8def51\u865f","latitude":"22.66134580","longitude":"120.31430070","limited_time":"no","socket":"maybe","standing_desk":"no","mrt":"","open_time":""},{"id":"2b24b977-c49e-4bc5-9527-8a1a3d7c61c9","name":"\u8def\u6613\u838e\u5496\u5561\u5c0f\u6e2f\u5e97","city":"kaohsiung","wifi":4.5,"seat":5,"quiet":3,"tasty":4,"cheap":4,"music":4,"url":"","address":"\u9ad8\u96c4\u5e02\u5c0f\u6e2f\u5340\u6f22\u6c11\u8def616\u865f","latitude":"22.56675500","longitude":"120.36013500","limited_time":"no","socket":"no","standing_desk":"yes","mrt":"\u5c0f\u6e2f\u7ad9","open_time":"08\uff5e22"},{"id":"2b9cd451-e8d7-4af5-8708-0e38890ff8b8","name":"Lino coffee roastery","city":"kaohsiung","wifi":4,"seat":5,"quiet":4,"tasty":5,"cheap":4,"music":4,"url":"https:\/\/www.facebook.com\/LINOCAFECOMPANY\/","address":"\u9ad8\u96c4\u5e02\u9f13\u5c71\u5340\u6cb3\u897f\u4e00\u8def1591-11\u865f","latitude":"22.65074840","longitude":"120.29144870","limited_time":"","socket":"","standing_desk":"","mrt":"","open_time":""},{"id":"2cab54e8-dd70-4066-9ab9-d8873874427a","name":"\u6b50\u5ba2\u4f6cOklao\u5496\u5561\u8fb2\u5834(\u9ad8\u96c4\u745e\u8c50\u5e97)","city":"kaohsiung","wifi":3,"seat":4,"quiet":2,"tasty":5,"cheap":5,"music":1,"url":"http:\/\/www.oklaocoffee.com\/","address":"\u9ad8\u96c4\u5e02\u5de6\u71df\u5340\u660e\u502b\u8def85\u865f","latitude":"22.66702190","longitude":"120.29785710","limited_time":"no","socket":"no","standing_desk":"no","mrt":"\u5de8\u86cb\u7ad9(R14)","open_time":""},{"id":"2d57601a-8847-4d68-b7da-f9b5e8d1572d","name":"\u60f3\u4eab\u5496\u5561\u8336\u5c4b","city":"kaohsiung","wifi":0,"seat":0,"quiet":0,"tasty":0,"cheap":0,"music":0,"url":"","address":"\u9ad8\u96c4\u5e02\u4e09\u6c11\u5340\u9f0e\u4e2d\u8def639\u865f","latitude":"22.67218890","longitude":"120.32104500","limited_time":"","socket":"","standing_desk":"","mrt":"","open_time":""},{"id":"2ddeef12-655d-4b5d-a6bb-7c4bb3f5f233","name":"\u591a\u90a3\u4e4b(\u4e2d\u6b63)","city":"kaohsiung","wifi":0,"seat":1,"quiet":1,"tasty":3,"cheap":0,"music":2,"url":"","address":"\u9ad8\u96c4\u5e02\u82d3\u96c5\u5340\u4e2d\u6b63\u4e00\u8def288\u865f","latitude":"22.62977830","longitude":"120.32765320","limited_time":"no","socket":"no","standing_desk":"no","mrt":"\u4e94\u584a\u539d","open_time":"00:00~24:00"},{"id":"2f4f29fb-92ae-4669-bac7-7b2cdbf98d06","name":"\u597d\u610f\u5916\u5496\u5561","city":"kaohsiung","wifi":5,"seat":5,"quiet":4,"tasty":5,"cheap":3,"music":5,"url":"https:\/\/www.facebook.com\/SerendipityCoffeeRoasters\/?fref=ts","address":"\u9ad8\u96c4\u5e02\u5de6\u71df\u5340\u6587\u4e0a\u8def38\u865f","latitude":"22.67196560","longitude":"120.30128420","limited_time":"no","socket":"maybe","standing_desk":"no","mrt":"\u5de8\u86cb\u7ad9","open_time":""},{"id":"303820ac-b9a7-4e66-b409-ccaf628fe65c","name":"\u5584\u5ef8\u82b1\u5eda","city":"kaohsiung","wifi":5,"seat":5,"quiet":3,"tasty":4,"cheap":3,"music":4,"url":"https:\/\/www.facebook.com\/SHANDIROSEMEAL\/","address":"\u9ad8\u96c4\u5e02\u9f13\u5c71\u5340\u9752\u6d77\u8def278\u865f","latitude":"22.65143730","longitude":"120.28700710","limited_time":"no","socket":"yes","standing_desk":"yes","mrt":"","open_time":""},{"id":"30a23d21-cf1d-47df-87c0-9238c76df333","name":"\u8d64\u83d3\u5496\u5561\uff08\u884c\u52d5\u5496\u5561\u8eca\uff09","city":"kaohsiung","wifi":1,"seat":1,"quiet":1,"tasty":5,"cheap":5,"music":4.5,"url":"https:\/\/www.facebook.com\/Akakashi.cafe\/","address":"\u9ad8\u96c4\u5e02\u9e7d\u57d5\u5340\u65b0\u5316\u8857\u8207\u5149\u69ae\u8857\u516c\u5712\u5167","latitude":"22.61949700","longitude":"120.28389500","limited_time":"no","socket":"no","standing_desk":"no","mrt":"\u9e7d\u57d5\u57d4\u7ad9","open_time":"\u661f\u671f\u4e00\u516c\u4f11\uff0c\u901a\u5e38\u5728\u65b0\u5316\u516c\u5712\u5167"},{"id":"31b6897a-2362-4836-94f9-8e2d51acbc0d","name":"\u4f34\u73c8\u5bb6","city":"kaohsiung","wifi":5,"seat":5,"quiet":4,"tasty":5,"cheap":3,"music":4,"url":"https:\/\/www.facebook.com\/tomokoka102\/","address":"\u9f13\u5c71\u5340\u7f8e\u8853\u6771\u4e03\u8857102\u865f","latitude":"22.66210120","longitude":"120.28964350","limited_time":"","socket":"maybe","standing_desk":"","mrt":"","open_time":""},{"id":"3218ef96-01b3-4fec-b801-0c6fa05b1626","name":"MINI.D COFFEE \u88d5\u8aa0\u9928","city":"kaohsiung","wifi":5,"seat":5,"quiet":5,"tasty":5,"cheap":5,"music":5,"url":"https:\/\/www.facebook.com\/MINIDCOFFEE","address":"813\u9ad8\u96c4\u5e02\u5de6\u71df\u5340\u88d5\u8aa0\u8def428\u865f","latitude":"22.66582050","longitude":"120.30535110","limited_time":"no","socket":"yes","standing_desk":"no","mrt":"","open_time":""},{"id":"324e4a80-c59e-4c76-a0c7-5e82c594845a","name":"\u7c73\u5948\u5496\u5561 Meet 9 Cafe","city":"kaohsiung","wifi":0,"seat":0,"quiet":0,"tasty":0,"cheap":0,"music":0,"url":"","address":"\u9ad8\u96c4\u5e02\u9e7d\u57d5\u5340\u5e9c\u5317\u8def9\u865f","latitude":"22.62784750","longitude":"120.28582280","limited_time":"","socket":"","standing_desk":"","mrt":"","open_time":""},{"id":"32ba3147-01b5-40aa-a394-12b5f8c3c431","name":"\u5361\u5561\u90a3 CAFFAINA \u6587\u5316\u63a2\u7d22\u9928\uff08\u6587\u5316\u4e2d\u5fc3\uff09","city":"kaohsiung","wifi":5,"seat":5,"quiet":3,"tasty":5,"cheap":4,"music":5,"url":"https:\/\/www.caffaina.com","address":"802\u9ad8\u96c4\u5e02\u82d3\u96c5\u5340\u4e94\u798f\u4e00\u8def67\u865f\u6587\u5316\u4e2d\u5fc3\u897f\u82d1","latitude":"22.62577780","longitude":"120.31806960","limited_time":"no","socket":"yes","standing_desk":"no","mrt":"","open_time":""},{"id":"34a40dd1-47a2-4819-be09-859c94799971","name":"BOOKING","city":"kaohsiung","wifi":4.5,"seat":4.5,"quiet":3,"tasty":3.5,"cheap":3.5,"music":4.5,"url":"https:\/\/www.facebook.com\/bookingbookstore\/","address":"\u9ad8\u96c4\u5e02\u9e7d\u57d5\u5340\u7028\u5357\u8857177\u865f","latitude":"22.62667170","longitude":"120.28332970","limited_time":"maybe","socket":"yes","standing_desk":"no","mrt":"","open_time":""},{"id":"3514f56e-b6b7-4f78-a9c3-820abb744b92","name":"\u5b63\u6d0b\u838a\u5712\u5496\u5561\u96a8\u884c\u5427\uff08\u6cb3\u5824\u5e97\uff09","city":"kaohsiung","wifi":5,"seat":5,"quiet":5,"tasty":4,"cheap":4,"music":5,"url":"","address":"\u9ad8\u96c4\u5e02\u4e09\u6c11\u5340\u6cb3\u5824\u8def586\u865f","latitude":"22.66661460","longitude":"120.31486560","limited_time":"no","socket":"yes","standing_desk":"yes","mrt":"","open_time":""},{"id":"3690e61b-6975-48a3-9c00-0b9f7df513e4","name":"aroma cafe live \u9999\u6c23\u73fe\u5834","city":"kaohsiung","wifi":5,"seat":4,"quiet":4,"tasty":5,"cheap":4,"music":4.5,"url":"https:\/\/www.facebook.com\/aromacafe96","address":"\u9ad8\u96c4\u5e02\u524d\u91d1\u5340\u9577\u751f\u885725\u865f","latitude":"22.62222500","longitude":"120.29603700","limited_time":"no","socket":"maybe","standing_desk":"no","mrt":"\u4e2d\u592e\u516c\u5712","open_time":""},{"id":"3864a1e9-d9ac-4d1b-92ef-0e390eabae5a","name":"\u5496\u5561\u9ce5\u5496\u5561\u9928","city":"kaohsiung","wifi":5,"seat":5,"quiet":4,"tasty":4,"cheap":4,"music":5,"url":"https:\/\/www.facebook.com\/caffe.bird.coffee\/","address":"\u9ad8\u96c4\u5e02\u82d3\u96c5\u5340\u9752\u5e74\u4e00\u8def24\u865f","latitude":"22.62424200","longitude":"120.31404100","limited_time":"no","socket":"yes","standing_desk":"no","mrt":"\u4fe1\u7fa9\u570b\u5c0f\u7ad94\u865f\u51fa\u53e3\u6b6513\u5206\/\u516c\u8eca\u7ad9\"\u6c11\u6b0a\u4e00\u8def\"\u6b655\u5206, \"\u9e97\u5c0a\u9152\u5e97\"\u6b656\u5206\/CityBike\"\u6587\u5316\u4e2d\u5fc3\"\u7ad9\u6b655\u5206","open_time":""},{"id":"38bcec21-879a-4441-b662-2e694825a2b5","name":"14\u514b\u5496\u5561","city":"kaohsiung","wifi":5,"seat":5,"quiet":5,"tasty":5,"cheap":5,"music":5,"url":"https:\/\/www.facebook.com\/14gCoffee\/","address":"\u9ad8\u96c4\u5e02\u65b0\u8208\u5340\u6587\u6a6b\u4e8c\u8def121\u5df728\u865f","latitude":"22.62101220","longitude":"120.30361700","limited_time":"no","socket":"maybe","standing_desk":"no","mrt":"\u4e2d\u592e\u516c\u5712","open_time":"1100-1900"},{"id":"3998ef38-1a2d-4259-8933-9e5b11ae08f8","name":"\u8def\u4eba\u5496\u5561","city":"kaohsiung","wifi":5,"seat":5,"quiet":5,"tasty":5,"cheap":5,"music":5,"url":"https:\/\/www.facebook.com\/ruhcafe\/","address":"\u9ad8\u96c4\u5e02\u82d3\u96c5\u5340\u56db\u7dad\u4e09\u8def217\u865f","latitude":"22.61749600","longitude":"120.30515500","limited_time":"maybe","socket":"maybe","standing_desk":"yes","mrt":"\u6377\u904b\u4e09\u591a\u5546\u5708\u7ad9(R8)","open_time":""},{"id":"3b7be78f-1c6c-46bb-b46d-7cdb64aab953","name":"\u5c0f\u6dbc\u798f","city":"kaohsiung","wifi":3,"seat":3,"quiet":2.5,"tasty":2.5,"cheap":3,"music":2.5,"url":"","address":"\u9ad8\u96c4\u5e02\u4e09\u6c11\u5340\u71b1\u6cb3\u4e00\u8857431\u865f","latitude":"22.64391000","longitude":"120.30405900","limited_time":"","socket":"maybe","standing_desk":"yes","mrt":"","open_time":""},{"id":"3c5a3572-318b-4a67-bf92-cb615c124a0f","name":"\u8c46\u5b85\u5496\u5561","city":"kaohsiung","wifi":5,"seat":5,"quiet":4,"tasty":4,"cheap":5,"music":3,"url":"https:\/\/www.facebook.com\/BeanOtakusCoffe\/","address":"\u9ad8\u96c4\u5e02\u5de6\u71df\u5340\u798f\u5c71\u91cc\u69ae\u5fb7\u885719\u865f","latitude":"22.68113650","longitude":"120.32004520","limited_time":"no","socket":"no","standing_desk":"no","mrt":"No","open_time":"\u5468\u4e00\u516c\u4f11"},{"id":"3ce5c993-2c71-4f23-ad4c-dfe6f55ab08d","name":"My cofi \u54c8\u746a\u661f","city":"kaohsiung","wifi":5,"seat":5,"quiet":3.5,"tasty":5,"cheap":3,"music":5,"url":"","address":"\u9ad8\u96c4\u5e02\u9f13\u5c71\u5340\u9f13\u5143\u885757\u865f1\u6a13 \u9ad8\u96c4\u5e02","latitude":"22.62143000","longitude":"120.27209800","limited_time":"","socket":"","standing_desk":"","mrt":"","open_time":""},{"id":"3d89bf91-d05c-4228-95d6-ec4ece0b6a07","name":"\u5de6\u5496\u5561x\u591c\u9593\u90e8","city":"kaohsiung","wifi":4,"seat":5,"quiet":5,"tasty":4.5,"cheap":5,"music":5,"url":"https:\/\/www.facebook.com\/chocoffee157","address":"\u9ad8\u96c4\u5e02\u9e7d\u57d5\u5340\u5927\u52c7\u8def157\u865f","latitude":"22.62710910","longitude":"120.28555390","limited_time":"no","socket":"yes","standing_desk":"yes","mrt":"","open_time":"\u975e\u75ab\u60c5\u6642\u6709\u71df\u696d\u5230\u665a\u4e0a"},{"id":"3de1f9c2-1b4f-4225-bee6-2a5bf950a878","name":"MAY 16 CAFE","city":"kaohsiung","wifi":5,"seat":5,"quiet":5,"tasty":5,"cheap":4,"music":5,"url":"https:\/\/www.facebook.com\/may16cafe.2013\/","address":"\u9ad8\u96c4\u5e02\u82d3\u96c5\u5340\u9752\u5e74\u4e8c\u8def198\u865f","latitude":"22.61792980","longitude":"120.29544390","limited_time":"no","socket":"","standing_desk":"","mrt":"","open_time":""},{"id":"3e4f734f-611c-4bd6-a925-dbc048ae5cd8","name":"\u767e\u74e6\u54e5\u5496\u5561\u6b63\u8208\u5e97","city":"kaohsiung","wifi":5,"seat":5,"quiet":5,"tasty":5,"cheap":5,"music":5,"url":"https:\/\/www.facebook.com\/BaiwagoPlusZhengxing\/","address":"\u9ad8\u96c4\u5e02\u4e09\u6c11\u5340\u6b63\u8208\u8def1818\u00a0cl4","latitude":"22.64814650","longitude":"120.31973730","limited_time":"no","socket":"maybe","standing_desk":"yes","mrt":"","open_time":""},{"id":"3f2a6133-1707-4405-9bb5-a87b59029e68","name":"AWAY COFFEE","city":"kaohsiung","wifi":0,"seat":4,"quiet":5,"tasty":4,"cheap":3,"music":5,"url":"https:\/\/www.facebook.com\/awaycoffeeshop\/","address":"\u9ad8\u96c4\u5e02\u4e09\u6c11\u5340\u61f7\u5b89\u885766\u865f","latitude":"22.64089320","longitude":"120.31879200","limited_time":"","socket":"","standing_desk":"","mrt":"","open_time":""},{"id":"3f39e9d6-ced8-466b-9bad-a0d4a64b357f","name":"\u634c\u90b8\u6a13 8deroad","city":"kaohsiung","wifi":0,"seat":0,"quiet":0,"tasty":0,"cheap":0,"music":0,"url":"http:\/\/bit.ly\/8deroadfb","address":"\u9ad8\u96c4\u5e02\u65b0\u8208\u5340\u516b\u5fb7\u4e8c\u8def46-1\u865f","latitude":"22.63623110","longitude":"120.29937400","limited_time":"maybe","socket":"yes","standing_desk":"yes","mrt":"\u9ad8\u96c4\u706b\u8eca\u7ad9","open_time":"\u5be6\u969b\u71df\u696d\u6642\u9593\u8acb\u53c3\u8003FB"},{"id":"3ffa340d-ff9f-4cca-9c01-cbf8efc9ac25","name":"\u6a02\u90a6\u5ba2","city":"kaohsiung","wifi":5,"seat":4,"quiet":3.5,"tasty":4,"cheap":4,"music":5,"url":"https:\/\/www.facebook.com\/THEBONCO2017\/","address":"\u9ad8\u96c4\u5e02\u65b0\u8208\u5340\u9326\u7530\u8def11\u865f","latitude":"22.62831100","longitude":"120.30997000","limited_time":"no","socket":"maybe","standing_desk":"no","mrt":"\u4fe1\u7fa9\u570b\u5c0f","open_time":"06:30 - 21:00"},{"id":"4003d7cb-5555-4f19-b74c-e2d0161aae70","name":"\u767e\u74e6\u54e5\u5496\u5561\uff08\u6c11\u751f\u5e97\uff09","city":"kaohsiung","wifi":4.5,"seat":4.5,"quiet":4,"tasty":5,"cheap":5,"music":4,"url":"https:\/\/www.facebook.com\/\u767e\u74e6\u54e5\u5496\u5561-Baiwago-Plus-Cafe-\u9ad8\u96c4\u6c11\u751f\u5e97-376194262744519\/","address":"\u9ad8\u96c4\u5e02\u65b0\u8208\u5340\u6c11\u751f\u4e00\u8def15\u865f","latitude":"22.62821450","longitude":"120.31335710","limited_time":"no","socket":"maybe","standing_desk":"no","mrt":"","open_time":"7:00\uff5e19:00"},{"id":"418419f6-afe0-4c95-96db-8eb4892b8af3","name":"\u65b0\u92b3\u5496\u5561(\u9ad8\u96c4\u9f0e\u4e2d\u5e97)","city":"kaohsiung","wifi":0,"seat":0,"quiet":0,"tasty":0,"cheap":0,"music":0,"url":"","address":"\u9ad8\u96c4\u5e02\u4e09\u6c11\u5340\u9f0e\u4e2d\u8def172\u865f","latitude":"22.66229840","longitude":"120.31936610","limited_time":"","socket":"","standing_desk":"no","mrt":"\u7121","open_time":""},{"id":"41c1a970-8530-45d9-ae0c-916576083624","name":"Arosa Caf\u00e9","city":"kaohsiung","wifi":5,"seat":5,"quiet":5,"tasty":5,"cheap":5,"music":5,"url":"https:\/\/www.facebook.com\/arosacoffee\/","address":"813\u9ad8\u96c4\u5e02\u5de6\u71df\u5340\u660e\u8aa0\u4e8c\u8def539\u865f","latitude":"22.66096250","longitude":"120.30410540","limited_time":"no","socket":"yes","standing_desk":"yes","mrt":"","open_time":""},{"id":"428467d4-f65b-466b-bb69-0fe04f62f582","name":"\u8349\u4f8d\u5496\u5561\u70d8\u7119\u5de5\u574a","city":"kaohsiung","wifi":0,"seat":4.5,"quiet":5,"tasty":5,"cheap":5,"music":4.5,"url":"","address":"\u9ad8\u96c4\u5e02\u6960\u6893\u5340\u85cd\u660c\u8def417\u5df715\u865f","latitude":"22.72971800","longitude":"120.29149010","limited_time":"no","socket":"yes","standing_desk":"yes","mrt":"","open_time":""},{"id":"4369f97a-9341-40ca-9c9b-7f140161e78b","name":"\u66f8\u5e97\u55ab\u8336\u4e00\u4e8c\u4e09\u4ead (\u30d2\u30d5\u30df\u30c6\u30a4)","city":"kaohsiung","wifi":4.5,"seat":5,"quiet":4,"tasty":4,"cheap":4,"music":5,"url":"https:\/\/facebook.com\/cafehifumi\/","address":"\u9ad8\u96c4\u5e02\u9f13\u5c71\u5340\u9f13\u5143\u88574\u865f","latitude":"22.62052770","longitude":"120.27401140","limited_time":"no","socket":"no","standing_desk":"no","mrt":"\u897f\u5b50\u7063\u7ad91 2\u865f\u51fa\u53e3\u6b653\u5206 \u8f15\u8ecc\u54c8\u746a\u661f\u7ad9\u6b653\u5206\/\u516c\u8eca\u7ad9\"\u6377\u904b\u897f\u5b50\u7063\u7ad9(\u51fa\u53e31)\"\"\u6377\u904b\u897f\u5b50\u7063\u7ad9(\u51fa\u53e32)\"\"\u65b0\u6ff1\u78bc\u982d\"\u6b653\u5206\/CityBike\"\u897f\u5b50\u7063\u7ad9\"\u7ad9\u6b654\u5206","open_time":""},{"id":"4576a08c-49c7-4c95-a48f-9c34094aff8a","name":"\u65e5\u6c90\u5496\u5561","city":"kaohsiung","wifi":4,"seat":4,"quiet":3,"tasty":4,"cheap":3,"music":4,"url":"https:\/\/www.facebook.com\/rimoocafe\/","address":"\u9ad8\u96c4\u5e02\u82d3\u96c5\u5340\u51f1\u65cb\u4e09\u8def619\u865f","latitude":"22.61611390","longitude":"120.32679790","limited_time":"no","socket":"yes","standing_desk":"yes","mrt":"\u516c\u8eca\u7ad9\"\u6b66\u660c\u8def\u53e3(\u51f1\u65cb\u4e09\u8def)\"\u6b651\u5206, \"\u4e8c\u8056\u4e00\u8def\"\u6b657\u5206\/CityBike\"\u82f1\u660e\u516c\u5712\u7ad9\"\u7ad9\u6b654\u5206","open_time":""},{"id":"462ec5af-4b03-49e0-9620-354fb7815637","name":"\u829d\u5496\u5561","city":"kaohsiung","wifi":0,"seat":0,"quiet":0,"tasty":0,"cheap":0,"music":0,"url":"","address":"\u9ad8\u96c4\u5e02\u5de6\u71df\u5340\u660e\u8aa0\u4e8c\u8def265\u865f","latitude":"22.66087140","longitude":"120.30944290","limited_time":"","socket":"","standing_desk":"","mrt":"","open_time":""},{"id":"46a0848e-0933-4657-b0e4-1970aa045d57","name":"MINI.D COFFEE \u81f3\u8056\u9928","city":"kaohsiung","wifi":0,"seat":0,"quiet":0,"tasty":0,"cheap":0,"music":0,"url":"https:\/\/www.facebook.com\/MINIDCOFFEE","address":"813\u9ad8\u96c4\u5e02\u5de6\u71df\u5340\u81f3\u8056\u8def250\u865f","latitude":"22.65982480","longitude":"120.30536570","limited_time":"no","socket":"yes","standing_desk":"no","mrt":"","open_time":""},{"id":"47bc0531-e48f-43da-963c-45aa5249a2b5","name":"\u771f\u5fc3\u8c46\u884c","city":"kaohsiung","wifi":3.5,"seat":4,"quiet":3,"tasty":5,"cheap":4,"music":4,"url":"https:\/\/www.facebook.com\/ZhenXinDouHung\/","address":"\u9ad8\u96c4\u5e02\u65b0\u8208\u5340\u6d1b\u967d\u885768\u865f","latitude":"22.63446840","longitude":"120.30930280","limited_time":"no","socket":"","standing_desk":"no","mrt":"","open_time":"9:00-18:00"},{"id":"4b127718-549d-4881-9c7c-31eb42b9836a","name":"161\u70d8\u7119\u5496\u5561\u5c4b(\u6c11\u65cf\u8def)","city":"kaohsiung","wifi":0,"seat":5,"quiet":5,"tasty":5,"cheap":5,"music":5,"url":"","address":"\u9ad8\u96c4\u5e02\u4e09\u6c11\u5340\u6c11\u65cf\u4e00\u8def637\u865f","latitude":"22.66923150","longitude":"120.31700550","limited_time":"","socket":"maybe","standing_desk":"no","mrt":"","open_time":""},{"id":"4d9f9d0d-9bc2-49be-8ae2-46f7eebe1230","name":"always a+","city":"kaohsiung","wifi":5,"seat":4,"quiet":4,"tasty":5,"cheap":4,"music":4,"url":"https:\/\/www.facebook.com\/Always-A-%E5%92%96%E5%95%A1%E9%A4%A8-195980383748847\/","address":"\u9ad8\u96c4\u5e02\u524d\u91d1\u5340\u65b0\u7530\u8def217\u865f","latitude":"22.62106800","longitude":"120.30039600","limited_time":"no","socket":"maybe","standing_desk":"no","mrt":"\u4e2d\u592e\u516c\u5712","open_time":"08:00 - 18:00"},{"id":"4ee5fff7-8b89-4357-85a6-47c8e8308425","name":"\u9435\u5854\u5496\u5561 Tower Cafe","city":"kaohsiung","wifi":5,"seat":4,"quiet":5,"tasty":5,"cheap":3.5,"music":5,"url":"https:\/\/www.facebook.com\/jtowercafe\/","address":"\u9ad8\u96c4\u5e02\u4e09\u6c11\u5340\u540c\u76df\u4e09\u8def198\u865f","latitude":"22.63828810","longitude":"120.28528640","limited_time":"no","socket":"","standing_desk":"","mrt":"","open_time":"\u5e73\u65e5: 06:30-14:30\n\u5047\u65e5: 0800-1600"},{"id":"4f14ce8b-e3c9-42e9-a4eb-c79110f15290","name":"LA MAISON BERRY \u8c9d\u745e\u5bb6 \u9f0e\u83ef\u5e97","city":"kaohsiung","wifi":0,"seat":0,"quiet":0,"tasty":0,"cheap":0,"music":0,"url":"https:\/\/www.lamaisonberry.com\/","address":"\u4e09\u6c11\u5340\u9f0e\u83ef\u8def165\u865f","latitude":"22.65191720","longitude":"120.31608340","limited_time":"maybe","socket":"","standing_desk":"","mrt":"","open_time":""},{"id":"52c671d1-07e4-44a7-b09f-be639a6c3a95","name":"Lab \u99c1\u4e8c","city":"kaohsiung","wifi":4,"seat":4,"quiet":3,"tasty":3.5,"cheap":3.5,"music":4.5,"url":"https:\/\/www.facebook.com\/labpiertwo\/","address":"\u9ad8\u96c4\u5e02\u9e7d\u57d5\u5340\u5927\u7fa9\u88572-1\u865f \u5927\u7fa9\u5009\u5eabC7-5","latitude":"22.62170800","longitude":"120.28602700","limited_time":"","socket":"maybe","standing_desk":"no","mrt":"","open_time":""},{"id":"53baed98-d406-49ed-b903-84ef3bfc3711","name":"\u6f2c Stain","city":"kaohsiung","wifi":5,"seat":5,"quiet":5,"tasty":4,"cheap":3,"music":5,"url":"https:\/\/www.facebook.com\/Stain-%E6%BC%AC-499180870133728\/","address":"\u9ad8\u96c4\u5e02\u9f13\u5c71\u5340\u7f8e\u8853\u5357\u4e94\u885748\u865f","latitude":"22.65240460","longitude":"120.28472400","limited_time":"no","socket":"yes","standing_desk":"yes","mrt":"","open_time":"10:00-19:00"},{"id":"54a8f71d-f59e-4626-9af5-7f35eb42da14","name":"Ciao\u65e5\u5b89\u5496\u5561(\u5927\u83ef\u5e97)","city":"kaohsiung","wifi":4,"seat":4,"quiet":4,"tasty":5,"cheap":4,"music":4,"url":"","address":"\u9ad8\u96c4\u5e02\u9ce5\u677e\u5340\u7403\u5834\u8def42\u5df77\u865f (\u5e97\u9762\u9580\u53e3\u5728\u5f8c\u9580, \u9762\u81e8\u5927\u83ef\u8def)","latitude":"22.65561230","longitude":"120.33720300","limited_time":"no","socket":"maybe","standing_desk":"yes","mrt":"\u7121","open_time":""},{"id":"5506976b-7114-42d1-9ba0-1ef190e84e9a","name":"\u4e8c\u5143\u54c1\u5690\u5496\u5561","city":"kaohsiung","wifi":2.5,"seat":4,"quiet":3,"tasty":4,"cheap":3,"music":4,"url":"https:\/\/www.facebook.com\/pages\/%E4%BA%8C%E5%85%83%E5%93%81%E5%9A%90%E5%92%96%E5%95%A1\/155376311182312?fref=ts","address":"\u9ad8\u96c4\u5e02\u524d\u91d1\u5340\u6c11\u751f\u4e8c\u8def201-1\u865f","latitude":"22.62372330","longitude":"120.29176720","limited_time":"","socket":"","standing_desk":"no","mrt":"\u5e02\u8b70\u6703\u7ad92\u865f\u51fa\u53e3\u6b6510\u5206\/\u516c\u8eca\u7ad9\"\u611b\u4e4b\u8239\u570b\u8cd3\u7ad9\"\u6b653\u5206, \"\u524d\u91d1\u570b\u5c0f(\u6210\u529f\u4e00\u8def)\"\u6b655\u5206, \"\u9ad8\u96c4\u5973\u4e2d(\u771f\u611b\u78bc\u982d)\"\u6b656\u5206, \"\u81fa\u7063\u9280\u884c\"\u6b657\u5206\/CityBike\"\u570b\u8cd3\u98ef\u5e97\"\u7ad9\u6b653\u5206","open_time":"\u4f11\u5047\u65e5\u524d\u4e00\u65e5\u4ea6~2400"},{"id":"5648f3fe-a59c-419d-944b-2498ca732ffc","name":"36\u5473\u5496\u5561\u9928","city":"kaohsiung","wifi":4,"seat":5,"quiet":5,"tasty":5,"cheap":4,"music":4,"url":"","address":"\u9ad8\u96c4\u5e02\u4e09\u6c11\u5340\u6b63\u8208\u8def74\u865f","latitude":"22.64580500","longitude":"120.32130400","limited_time":"no","socket":"maybe","standing_desk":"yes","mrt":"","open_time":""},{"id":"56c09498-755c-4146-b033-d5dca69778f1","name":"\u5361\u5561\u90a3\u9ad8\u96c4\u6587\u6ff1\u5e97","city":"kaohsiung","wifi":5,"seat":4,"quiet":2,"tasty":4,"cheap":3,"music":3,"url":"https:\/\/www.facebook.com\/CaffainaCoffeeGallery","address":"\u9ad8\u96c4\u5e02\u9cf3\u5c71\u5340\u6587\u6ff1\u8def131\u865f","latitude":"22.64464850","longitude":"120.34977220","limited_time":"no","socket":"maybe","standing_desk":"no","mrt":"","open_time":""},{"id":"57b2fdc7-8161-45de-8610-8157ba0a8a84","name":"Helen's son coffee","city":"kaohsiung","wifi":0,"seat":0,"quiet":0,"tasty":0,"cheap":0,"music":0,"url":"https:\/\/www.facebook.com\/helensson.coffee\/","address":"\u9ad8\u96c4\u5e02\u9f13\u5c71\u5340\u9ad8\u96c4\u5e02\u9f13\u5c71\u5340\u54e8\u8239\u885787\u865f","latitude":"22.62435560","longitude":"120.26947850","limited_time":"maybe","socket":"yes","standing_desk":"yes","mrt":"","open_time":""},{"id":"58581eea-b150-4aaf-a059-a7da7b41ff46","name":"\u611a\u5ea6\u5496\u5561 udu caf\u00e9","city":"kaohsiung","wifi":0,"seat":0,"quiet":0,"tasty":0,"cheap":0,"music":0,"url":"","address":"\u9ad8\u96c4\u5e02\u82d3\u96c5\u5340\u61b2\u6cbb\u8def2\u865f","latitude":"22.63359090","longitude":"120.32705290","limited_time":"","socket":"","standing_desk":"","mrt":"","open_time":""},{"id":"59625bbb-f1a5-4d34-ba3d-02b7e949fbed","name":"Caf\u00e9 De Lecture","city":"kaohsiung","wifi":1,"seat":5,"quiet":5,"tasty":1,"cheap":1,"music":5,"url":"https:\/\/www.facebook.com\/MLDtailu\/","address":"\u9ad8\u96c4\u5e02\u524d\u93ae\u5340\u5fe0\u52e4\u8def8\u865f2F","latitude":"22.60433770","longitude":"120.30367770","limited_time":"maybe","socket":"maybe","standing_desk":"no","mrt":"\u7345\u7532\/\u8f15\u8eccC7","open_time":"10:00-22:00"},{"id":"59ee9cfc-e1c5-4c9b-b524-c9b95e3d71a5","name":"\u5b63\u6d0b\u5496\u5561\u96a8\u884c\u5427\u6960\u6893\u5e97","city":"kaohsiung","wifi":0,"seat":0,"quiet":0,"tasty":0,"cheap":0,"music":0,"url":"","address":"\u9ad8\u96c4\u5e02\u6960\u6893\u5340\u85cd\u660c\u8def351\u865f","latitude":"22.72325100","longitude":"120.29095800","limited_time":"","socket":"","standing_desk":"","mrt":"","open_time":""},{"id":"5a919c7e-7cdd-46df-ad98-2d53df7e8667","name":"\u591a\u90a3\u4e4b(\u4e94\u7532\u5e97)","city":"kaohsiung","wifi":0,"seat":4,"quiet":3,"tasty":4,"cheap":5,"music":4,"url":"","address":"\u9ad8\u96c4\u5e02\u9cf3\u5c71\u5340\u4e94\u7532\u4e09\u8def1\u865f","latitude":"22.59308800","longitude":"120.32821470","limited_time":"no","socket":"maybe","standing_desk":"no","mrt":"","open_time":""},{"id":"5c8066fa-93e6-4a54-bca2-cb43ad50cd64","name":"M\u00f6bius \u83ab\u6bd4\u5deb\u5e2b","city":"kaohsiung","wifi":5,"seat":5,"quiet":4,"tasty":5,"cheap":5,"music":5,"url":"https:\/\/www.facebook.com\/pg\/MoBius.Waffle.Cafe\/posts\/?ref=page_internal","address":"830\u9ad8\u96c4\u5e02\u9cf3\u5c71\u5340\u6d77\u6d0b\u4e00\u8def60\u5df77\u865f","latitude":"22.60947690","longitude":"120.34361190","limited_time":"no","socket":"yes","standing_desk":"yes","mrt":"","open_time":"\u5e97\u4f11\u65e5\u4f9d\u6bcf\u6708\u7c89\u5c08\u6216IG\u516c\u544a\u70ba\u4e3b"},{"id":"5dadcc02-dcc0-4715-9348-4d50de4bfbbc","name":"\u54c1\u751c\u5496\u5561","city":"kaohsiung","wifi":0,"seat":0,"quiet":0,"tasty":0,"cheap":0,"music":0,"url":"https:\/\/www.facebook.com\/TASTESWEETCOFFEE\/","address":"\u9ad8\u96c4\u5e02\u4e09\u6c11\u5340\u5927\u660c\u4e8c\u8def533\u5df710\u5f049\u865f","latitude":"22.65142170","longitude":"120.32947910","limited_time":"","socket":"","standing_desk":"","mrt":"","open_time":""},{"id":"5f1019aa-3ab6-4339-9814-dc3bd5c7f89f","name":"\u5143\u5561\u9a62\u6d3e","city":"kaohsiung","wifi":3.5,"seat":4,"quiet":4,"tasty":5,"cheap":3.5,"music":4,"url":"https:\/\/www.facebook.com\/donkeypie\/","address":"\u9ad8\u96c4\u5e02\u9e7d\u57d5\u5340\u5efa\u570b\u56db\u8def276\u865f","latitude":"22.63105010","longitude":"120.28346650","limited_time":"maybe","socket":"maybe","standing_desk":"yes","mrt":"\u9e7d\u57d5\u57d4\u7ad92\u865f\u51fa\u53e3\u6b6512\u5206\/\u516c\u8eca\u7ad9\"\u9e7d\u57d5\u5206\u5c40\"\"\u5317\u6597\u8857\u53e3\"\u6b651\u5206, \"\u4e03\u8ce2\u4e09\u8def\u53e3\"\u6b653\u5206\/CityBike\"WO\u65c5\u5e97\u7ad9\"\"\u5bb6\u6a02\u798f\u611b\u6cb3\u7ad9\"\u7ad9\u6b658\u5206, \"\u9f13\u5c71\u4e00\u8def\u7ad9\"\u7ad9\u6b659\u5206, \"\u6b77\u53f2\u535a\u7269\u9928\"\u7ad9\u6b6510\u5206","open_time":""},{"id":"5f458e6c-c481-4f78-a211-310b1d795a49","name":"612\u865f\u6708\u5149\u6d77\u6d0b\u5496\u5561\u9928","city":"kaohsiung","wifi":4,"seat":4.5,"quiet":4,"tasty":4,"cheap":2.5,"music":4,"url":"https:\/\/www.facebook.com\/612cafe\/","address":"\u9ad8\u96c4\u5e02\u4e09\u6c11\u5340\u660e\u8ce2\u885767\u865f","latitude":"22.66178210","longitude":"120.31214770","limited_time":"no","socket":"yes","standing_desk":"no","mrt":"\u516c\u8eca\u7ad9\"\u6cb3\u5824\u8def\u53e3(\u660e\u8aa0\u4e8c\u8def)\"\"\u660e\u54f2\u8def\u53e3\"\u6b654\u5206, \"\u6c11\u65cf\u8def(\u660e\u8aa0\u8def\u53e3)\"\u6b657\u5206\/CityBike\"\u660e\u5824\u516c\u5712\"\u7ad9\u6b652\u5206, \"\u660e\u8aa0\u5149\u8208\"\u7ad9\u6b654\u5206","open_time":""},{"id":"5fdf4d92-0f09-4cf8-a611-5970647536a2","name":"Tryer Cafe \u55dc\u5496\u5561","city":"kaohsiung","wifi":5,"seat":5,"quiet":4,"tasty":5,"cheap":5,"music":5,"url":"https:\/\/www.facebook.com\/TRYerCafe\/","address":"\u9ad8\u96c4\u5e02\u82d3\u96c5\u5340\u6797\u5357\u885719\u865f","latitude":"22.62565270","longitude":"120.31576740","limited_time":"no","socket":"yes","standing_desk":"yes","mrt":"\u6587\u5316\u4e2d\u5fc3\u7ad92\u865f\u51fa\u53e3","open_time":"\u4f9b\u9910\u81f3\u4e5d\u9ede"},{"id":"616fd985-14d8-4c57-ba00-63c54f87b15a","name":"TADYcoffee \u6cf0\u8fea\u5496\u5561","city":"kaohsiung","wifi":0,"seat":0,"quiet":0,"tasty":0,"cheap":0,"music":0,"url":"https:\/\/www.facebook.com\/tadycoffeeshop\/","address":"\u9ad8\u96c4\u5e02\u4e09\u6c11\u5340\u65c5\u9806\u88578\u865f","latitude":"22.64131840","longitude":"120.31356670","limited_time":"no","socket":"yes","standing_desk":"yes","mrt":"","open_time":""},{"id":"61ddf40b-af83-45ff-b810-ee94e80a24a8","name":"Formula Coffee Roaster","city":"kaohsiung","wifi":0,"seat":5,"quiet":4,"tasty":5,"cheap":5,"music":4,"url":"fcrcoffeeroaster.com","address":"\u9ad8\u96c4\u5e02\u4e09\u6c11\u5340\u91cd\u6176\u8857117\u865f","latitude":"22.64489500","longitude":"120.30201600","limited_time":"no","socket":"maybe","standing_desk":"no","mrt":"","open_time":""},{"id":"6380ace7-514d-4f11-8f8d-fbed6eb3da1e","name":"\u7fa9\u4f86\u7fa9\u53bb Eagle Cafe","city":"kaohsiung","wifi":5,"seat":5,"quiet":4,"tasty":4,"cheap":3,"music":4,"url":"https:\/\/www.facebook.com\/eaglehk19\/","address":"\u9ad8\u96c4\u5e02\u9f13\u5c71\u5340\u5357\u5c4f\u8def599\u865f","latitude":"22.65965060","longitude":"120.30006810","limited_time":"no","socket":"yes","standing_desk":"no","mrt":"","open_time":""},{"id":"63d5db51-b1fc-4055-a593-0fd11d0d5a67","name":"\u5496\u5561\u96b1 Cofein Caf\u00e9 \u6f22\u795e\u81ea\u5f37\u5e97","city":"kaohsiung","wifi":0,"seat":0,"quiet":0,"tasty":0,"cheap":0,"music":0,"url":"","address":"802\u9ad8\u96c4\u5e02\u82d3\u96c5\u5340\u81ea\u5f37\u4e09\u8def275\u865f","latitude":"22.62075340","longitude":"120.29694730","limited_time":"","socket":"","standing_desk":"","mrt":"","open_time":""},{"id":"64fc3577-e8cc-434d-a08d-f62ea589956f","name":"\u9003\u5496\u5561","city":"kaohsiung","wifi":0,"seat":0,"quiet":0,"tasty":0,"cheap":0,"music":0,"url":"https:\/\/www.facebook.com\/chintecoffee\/","address":"\u9ad8\u96c4\u5e02\u4e09\u6c11\u5340\u7fa9\u5fb7\u8def3\u865f","latitude":"22.64246330","longitude":"120.33546570","limited_time":"","socket":"","standing_desk":"","mrt":"","open_time":""},{"id":"66b83aae-0fa6-45e0-9d6c-6e006c84037e","name":"Parlare cafe","city":"kaohsiung","wifi":4,"seat":4,"quiet":3,"tasty":5,"cheap":3,"music":3,"url":"https:\/\/www.facebook.com\/Parlare.coffee\/","address":"\u9cf3\u5c71\u5340\u6587\u5316\u897f\u8def7\u865f","latitude":"22.63472910","longitude":"120.34963110","limited_time":"","socket":"maybe","standing_desk":"no","mrt":"","open_time":""},{"id":"6763177e-44b5-418d-a960-6f9474dfc845","name":"\u6d77\u73c8\u7432 \u6d77\u3068\u30b3\u30fc\u30d2\u30fc","city":"kaohsiung","wifi":5,"seat":4,"quiet":5,"tasty":5,"cheap":5,"music":5,"url":"https:\/\/instagram.com\/umi.to.kohi?igshid=1bjnl6yxm8jip","address":"804\u9ad8\u96c4\u5e02\u9f13\u5c71\u5340\u9f13\u5c71\u4e00\u8def26\u865f","latitude":"22.62093460","longitude":"120.27495210","limited_time":"maybe","socket":"yes","standing_desk":"no","mrt":"","open_time":""},{"id":"67fe136d-9e96-4612-99b5-6400fd04a709","name":"\u99a4 \u5496\u5561\u3002\u98df\u4f5c","city":"kaohsiung","wifi":4,"seat":5,"quiet":5,"tasty":4,"cheap":4,"music":5,"url":"https:\/\/www.facebook.com\/hay.cafeteria\/","address":"\u9ad8\u96c4\u5e02\u5de6\u71df\u5340\u6587\u5e9c\u8def159\u5df718\u865f","latitude":"22.68828700","longitude":"120.31049800","limited_time":"no","socket":"maybe","standing_desk":"no","mrt":"\u9ad8\u9435\u5de6\u71df\u7ad9(R16)","open_time":""},{"id":"68c18813-64de-477a-8868-935b02347c30","name":"Do good coffee & dessert","city":"kaohsiung","wifi":5,"seat":4,"quiet":4.5,"tasty":5,"cheap":5,"music":5,"url":"https:\/\/www.facebook.com\/dogood1161\/","address":"803\u9ad8\u96c4\u5e02\u9e7d\u57d5\u5340\u5fc5\u4fe1\u8857116-1\u865f","latitude":"22.62171460","longitude":"120.28024750","limited_time":"no","socket":"yes","standing_desk":"yes","mrt":"\u897f\u5b50\u7063\uff0f\u9e7d\u57d5\u57d4","open_time":"10:00~18:00"},{"id":"69804668-b9b9-4323-b3f6-7ed01fb2514a","name":"\u5c0f\u8fb2\u574a","city":"kaohsiung","wifi":0,"seat":0,"quiet":5,"tasty":5,"cheap":0,"music":5,"url":"","address":"\u9ad8\u96c4\u5e02\u524d\u91d1\u5340\u81ea\u5f37\u4e09\u8def237\u865f\uff08235\u5df7\u5167\uff09","latitude":"22.61974860","longitude":"120.29730410","limited_time":"","socket":"","standing_desk":"","mrt":"","open_time":""},{"id":"6981e6d1-aa6f-4013-a9f1-066543ca5a68","name":"Fans cafe","city":"kaohsiung","wifi":5,"seat":4,"quiet":3,"tasty":3,"cheap":5,"music":4,"url":"https:\/\/www.facebook.com\/fanscafekh\/","address":"\u571f\u5eab\u4e00\u8def158\u865f","latitude":"22.73634400","longitude":"120.32977800","limited_time":"","socket":"maybe","standing_desk":"no","mrt":"","open_time":""},{"id":"6a631dc9-713c-43aa-beb8-7b6c6d071ad7","name":"\u610f\u6eff\u6f01","city":"kaohsiung","wifi":4,"seat":4,"quiet":0,"tasty":5,"cheap":4,"music":4,"url":"https:\/\/www.facebook.com\/%E6%84%8F%E6%BB%BF%E6%BC%81-1736990176523613\/","address":"826\u9ad8\u96c4\u5e02\u6893\u5b98\u5340\u8d64\u5d01\u5357\u8def130\u5df730\u865f","latitude":"22.73412410","longitude":"120.24764140","limited_time":"maybe","socket":"no","standing_desk":"yes","mrt":"","open_time":"1100-2200"},{"id":"6b081749-b8a3-4c91-93fc-4694adce3158","name":"amical caf\u00e9 \u65e5\u5149\u5df4\u9ece\u5496\u5561\u5ef3","city":"kaohsiung","wifi":0,"seat":0,"quiet":0,"tasty":0,"cheap":0,"music":0,"url":"","address":"\u9ad8\u96c4\u5e02\u4e09\u6c11\u5340\u81ea\u7531\u4e00\u8def105\u865f","latitude":"22.64375200","longitude":"120.30856800","limited_time":"","socket":"","standing_desk":"","mrt":"","open_time":""},{"id":"6bcf48e5-5e6b-4258-8060-a869e23126d0","name":"\u83c1\u5496\u5561","city":"kaohsiung","wifi":5,"seat":4,"quiet":4,"tasty":5,"cheap":5,"music":4,"url":"https:\/\/www.facebook.com\/CQICoffeeDrink\/","address":"\u9ad8\u96c4\u5e02\u71d5\u5de2\u5340\u6a6b\u5c71\u8def86\u865f","latitude":"22.76511290","longitude":"120.37453200","limited_time":"maybe","socket":"yes","standing_desk":"yes","mrt":"","open_time":""},{"id":"6f8251d0-9439-4fa2-a1b2-165be678df0d","name":"\u79fb\u52d5\u5496\u5561 (\u9032\u99d0\u65bc\u9ad8\u96c4\u500b\u5171\u4f5c\u7a7a\u9593)","city":"kaohsiung","wifi":5,"seat":5,"quiet":5,"tasty":5,"cheap":4,"music":5,"url":"https:\/\/www.facebook.com\/mobile.coffe\/\n","address":"\u9ad8\u96c4\u5e02\u4e09\u6c11\u5340\u71b1\u6cb3\u4e8c\u8857\u516d\u5df716\u865f","latitude":"22.64476000","longitude":"120.30252300","limited_time":"no","socket":"yes","standing_desk":"yes","mrt":"","open_time":"\u4e8c-\u4e9416:00-20:00\n\u516d\u65e5 14:00-21:00"},{"id":"702378c1-e872-405b-941f-e489f5eec902","name":"\u5496\u5561\u4e2d\u5b78","city":"kaohsiung","wifi":5,"seat":4,"quiet":4,"tasty":5,"cheap":4,"music":4,"url":"https:\/\/www.facebook.com\/lic392yang\/","address":"\u9f13\u5c71\u5340\u9752\u6d77\u8def392\u865f","latitude":"22.65159030","longitude":"120.28512980","limited_time":"","socket":"yes","standing_desk":"","mrt":"","open_time":""},{"id":"7201a5b0-feb8-4c22-9b3d-03dda298c886","name":"Buii sheep's","city":"kaohsiung","wifi":4,"seat":3,"quiet":3,"tasty":5,"cheap":4,"music":3,"url":"","address":"\u9ad8\u96c4\u5e02\u5de6\u71df\u5340\u660e\u83ef\u4e00\u8def13\u865f","latitude":"22.66228050","longitude":"120.31040430","limited_time":"","socket":"","standing_desk":"","mrt":"","open_time":""},{"id":"73836884-34ae-41be-bc4b-87a29bfa459f","name":"\u6b50\u5496\u903c","city":"kaohsiung","wifi":0,"seat":4,"quiet":5,"tasty":5,"cheap":5,"music":4,"url":"","address":"\u9ad8\u96c4\u5e02\u6960\u6893\u5340\u60e0\u6c11\u8def158\u865f","latitude":"22.72374490","longitude":"120.29554320","limited_time":"no","socket":"maybe","standing_desk":"no","mrt":"","open_time":""},{"id":"7479d2e5-23c0-4722-9cb0-c1828053a616","name":"GEORGE HOUSE (\u9ad8\u96c4\u6587\u5c71\u5e97)","city":"kaohsiung","wifi":5,"seat":5,"quiet":5,"tasty":5,"cheap":3,"music":4,"url":"http:\/\/www.georgehousefinecoffee.com\/ws.htm","address":"\u9ad8\u96c4\u5e02\u9cf3\u5c71\u5340\u6587\u5e73\u885733\u865f","latitude":"22.64254900","longitude":"120.35078650","limited_time":"no","socket":"no","standing_desk":"no","mrt":"","open_time":""},{"id":"760c55aa-e33f-4bf5-89c0-378baf5bcd17","name":"\u672c\u6771\u5496\u5561","city":"kaohsiung","wifi":4,"seat":4,"quiet":5,"tasty":4,"cheap":5,"music":4,"url":"https:\/\/www.facebook.com\/pages\/%E6%9C%AC%E6%9D%B1%E5%92%96%E5%95%A1\/217428735008414?rf=539327169465754","address":"\u9ad8\u96c4\u5e02\u65b0\u8208\u5340\u6c11\u6709\u885786\u865f","latitude":"22.62267210","longitude":"120.30595010","limited_time":"","socket":"maybe","standing_desk":"no","mrt":"\u4e2d\u592e\u516c\u5712\u7ad92\u865f\u51fa\u53e3\u6b6510\u5206\/\u516c\u8eca\u7ad9\"\u65b0\u8208\u9ad8\u4e2d(\u65b0\u5800\u6c5f)\"\"\u9752\u5e74\u4e00\u8def\"\u6b653\u5206, \"\u65b0\u8208\u9ad8\u4e2d\"\u6b654\u5206, \"\u9ad8\u96c4\u9ad8\u5546(\u5fa9\u8208\u4e8c\u8def)\"\u6b655\u5206, \"\u65b0\u7530\u8def\u53e3(\u4e2d\u5c71\u4e8c\u8def)\"\u6b658\u5206\/CityBike\"\u9ad8\u96c4\u9ad8\u5546\"\u7ad9\u6b657\u5206","open_time":""},{"id":"760f32e2-29aa-4acb-a8de-d114c11edd77","name":"\u5496\u5561\u96b1 Cofein Caf\u00e9 \u9752\u5e74\u65d7\u8266\u5e97","city":"kaohsiung","wifi":0,"seat":0,"quiet":0,"tasty":0,"cheap":0,"music":0,"url":"","address":"830\u9ad8\u96c4\u5e02\u9cf3\u5c71\u5340\u9752\u5e74\u8def\u4e8c\u6bb5317-2\u865f","latitude":"22.64053220","longitude":"120.35092910","limited_time":"","socket":"","standing_desk":"","mrt":"","open_time":""},{"id":"76d0960c-90d2-4b58-839b-4ac3a1c2566f","name":"\u516c\u5bd3\u5496\u5561","city":"kaohsiung","wifi":3,"seat":3,"quiet":3,"tasty":4,"cheap":4,"music":4,"url":"https:\/\/www.facebook.com\/%E5%85%AC%E5%AF%93%E5%92%96%E5%95%A1-198711466969602\/","address":"\u9ad8\u96c4\u5e02\u524d\u91d1\u5340\u4ec1\u7fa9\u8857227\u865f","latitude":"22.62040560","longitude":"120.30096270","limited_time":"","socket":"maybe","standing_desk":"no","mrt":"\u4e2d\u592e\u516c\u5712\u7ad92\u865f\u51fa\u53e3\u6b656\u5206\/\u516c\u8eca\u7ad9\"\u65b0\u7530\u8def\u53e3(\u4e2d\u5c71\u4e8c\u8def)\"\u6b654\u5206, \"\u65b0\u7530\u8def\u53e3(\u4e2d\u83ef\u56db\u8def)\"\u6b654\u5206","open_time":""},{"id":"779b04f4-db37-4bad-88c0-be141afc76bd","name":"Light 3 Cafe","city":"kaohsiung","wifi":5,"seat":5,"quiet":5,"tasty":4.5,"cheap":4.5,"music":5,"url":"","address":"\u9ad8\u96c4\u5e02\u4e09\u6c11\u5340\u6709\u5149\u8def3\u5df71\u865f","latitude":"22.63679940","longitude":"120.33459160","limited_time":"","socket":"","standing_desk":"","mrt":"","open_time":""},{"id":"78e09503-5cf6-4028-a299-b719ecd5f8ea","name":"\u4e00\u9ea5\u73c8\u7432","city":"kaohsiung","wifi":0,"seat":0,"quiet":0,"tasty":0,"cheap":0,"music":0,"url":"https:\/\/m.facebook.com\/Yimile0906570470\/?locale2=zh_TW","address":"\u9ad8\u96c4\u5e02\u5de6\u71df\u5340\u81ea\u7531\u4e8c\u8def382\u865f","latitude":"22.66668030","longitude":"120.30923750","limited_time":"no","socket":"maybe","standing_desk":"no","mrt":"","open_time":""},{"id":"791b7edd-5112-4872-83ff-ed7955477b11","name":"\u5c0f\u5c0f\u745c\u5496\u5561","city":"kaohsiung","wifi":0,"seat":0,"quiet":0,"tasty":0,"cheap":0,"music":0,"url":"","address":"811\u9ad8\u96c4\u5e02\u6960\u6893\u5340\u52a0\u5b8f\u8def158\u865f","latitude":"22.71732840","longitude":"120.29472910","limited_time":"","socket":"","standing_desk":"","mrt":"","open_time":""},{"id":"7952eed3-3343-4675-9e5a-6b6e31e136d4","name":"\u6d1b\u65af\u7279\u5496\u5561","city":"kaohsiung","wifi":0,"seat":4,"quiet":5,"tasty":5,"cheap":4,"music":5,"url":"https:\/\/www.facebook.com\/roastcafe\/","address":"\u65b0\u8208\u5340\u4e03\u8ce2\u4e8c\u8def90\u865f","latitude":"22.63433500","longitude":"120.29879110","limited_time":"","socket":"","standing_desk":"","mrt":"","open_time":""},{"id":"7b2e35c8-cf56-4df8-9ae9-6277f161b64b","name":"\u5a01\u723e\u5e0c\u65af","city":"kaohsiung","wifi":1,"seat":2,"quiet":2,"tasty":1,"cheap":5,"music":1,"url":"","address":"\u9ad8\u96c4\u5e02\u9f13\u5c71\u5340\u84ee\u6d77\u8def70\u865f","latitude":"22.62701790","longitude":"120.26741020","limited_time":"","socket":"","standing_desk":"","mrt":"\u897f\u5b50\u7063","open_time":""},{"id":"7d4af445-04be-47e1-a9d4-602af6976b8c","name":"Li\u00e9vre Cafe","city":"kaohsiung","wifi":5,"seat":5,"quiet":5,"tasty":5,"cheap":5,"music":4,"url":"https:\/\/www.facebook.com\/lievrercafe\/","address":"807\u9ad8\u96c4\u5e02\u4e09\u6c11\u5340\u7693\u6771\u8def171-6\u865f","latitude":"22.64945870","longitude":"120.33384070","limited_time":"","socket":"yes","standing_desk":"yes","mrt":"","open_time":""},{"id":"7dffb3be-6665-43d1-bb8b-7329c83f28f7","name":"Good Day Coffee ","city":"kaohsiung","wifi":4.5,"seat":4,"quiet":3.5,"tasty":4.5,"cheap":4,"music":3.5,"url":"https:\/\/www.facebook.com\/a5354319","address":"\u9ad8\u96c4\u5e02\u524d\u93ae\u5340\u6606\u660e\u885780\u865f","latitude":"22.61203700","longitude":"120.30704600","limited_time":"no","socket":"maybe","standing_desk":"","mrt":"\u4e09\u591a\u5546\u5708\u7ad93\u865f\u51fa\u53e3\u6b654\u5206\/\u516c\u8eca\u7ad9\"\u6797\u68ee\u4e09\u8def\u53e3\"\u6b653\u5206, ''\u4e09\u591a\u5546\u5708\u7ad9''\u6b654\u5206\/CityBike\"\u65b0\u5149\u4e2d\u5c71\"\u7ad9\u6b655\u5206","open_time":""},{"id":"7f03af79-4d22-4c2c-9cfe-ca74f9d4adb3","name":"CaffeBene \u5496\u5561\u4f34_\u6587\u5316\u9580\u5e02","city":"kaohsiung","wifi":0,"seat":0,"quiet":0,"tasty":0,"cheap":0,"music":0,"url":"https:\/\/www.facebook.com\/caffebene.culture\/","address":"\u9ad8\u96c4\u5e02\u82d3\u96c5\u5340\u5ee3\u5dde\u4e00\u8857131\u865f","latitude":"22.62343710","longitude":"120.31726950","limited_time":"no","socket":"yes","standing_desk":"no","mrt":"","open_time":""},{"id":"7f48725b-a78e-4437-bce9-dfb95967b573","name":"\u5ead\u5712\u6a39\u5496\u5561","city":"kaohsiung","wifi":0,"seat":4,"quiet":3,"tasty":4,"cheap":5,"music":2,"url":"","address":"\u9ad8\u96c4\u5e02\u6960\u6893\u5340\u5fb7\u6c11\u8def46-25\u865f","latitude":"22.72841600","longitude":"120.31258000","limited_time":"no","socket":"","standing_desk":"no","mrt":"","open_time":""},{"id":"7fffa54d-9a15-404b-b8c1-b78f87f51378","name":"Caf\u00e9 d'Amour \u66ae\u6155\u5496\u5561","city":"kaohsiung","wifi":5,"seat":5,"quiet":4,"tasty":4,"cheap":3,"music":5,"url":"https:\/\/www.facebook.com\/cafedamour\/","address":"\u9ad8\u96c4\u5e02\u524d\u91d1\u5340\u6210\u529f\u4e00\u8def295\u865f","latitude":"22.62264130","longitude":"120.29422880","limited_time":"no","socket":"yes","standing_desk":"no","mrt":"\u4e2d\u592e\u516c\u5712\u7ad9(R9)","open_time":""},{"id":"813c7dbb-6b7b-44e0-a84e-928bdcdaf48b","name":"Try\u8a66\u7814\u6240","city":"kaohsiung","wifi":0,"seat":5,"quiet":4,"tasty":4,"cheap":5,"music":5,"url":"https:\/\/www.facebook.com\/TRYforyou2019\/","address":"\u9ad8\u96c4\u5e02\u4e09\u6c11\u5340\u540c\u76df\u4e8c\u8def217\u865f","latitude":"22.64988580","longitude":"120.29503910","limited_time":"no","socket":"maybe","standing_desk":"yes","mrt":"\u5f8c\u9a5b\u6377\u904b\u7ad9","open_time":""},{"id":"818bd320-63ed-41ff-9e1a-efecfce06564","name":"\u67f4\u5409\u4ed6\u3002\u5496\u5561","city":"kaohsiung","wifi":5,"seat":5,"quiet":4.5,"tasty":5,"cheap":5,"music":4,"url":"https:\/\/www.facebook.com\/pg\/Lee198675\/about\/?ref=page_internal","address":"\u9ad8\u96c4\u5e02\u9cf3\u5c71\u5340\u6587\u5b78\u885783\u865f","latitude":"22.63504090","longitude":"120.34595940","limited_time":"no","socket":"yes","standing_desk":"no","mrt":"\u9cf3\u5c71\u897f\u7ad9","open_time":""},{"id":"82c14833-28e9-4cb0-9ae1-118c39befabd","name":"Planet \u00b7 10 \u5496\u5561\u9928","city":"kaohsiung","wifi":5,"seat":5,"quiet":5,"tasty":4,"cheap":5,"music":5,"url":"https:\/\/www.facebook.com\/Planet10cafe\/","address":"\u9ad8\u96c4\u5e02\u82d3\u96c5\u5340\u6c38\u5b9a\u8857148\u865f","latitude":"22.62147600","longitude":"120.31076300","limited_time":"no","socket":"maybe","standing_desk":"no","mrt":"\u6377\u904b\u4e2d\u592e\u516c\u5712\u7ad9(R9)\/\u4e09\u591a\u5546\u5708\u7ad9(R8)\u6b65\u884c20\u5206\u9418","open_time":"\u5468\u4e00\u516c\u4f11"},{"id":"844670ec-4eaf-46a8-8297-259b9ddedaf7","name":"OD Coffee","city":"kaohsiung","wifi":1,"seat":5,"quiet":5,"tasty":5,"cheap":5,"music":2,"url":"https:\/\/www.facebook.com\/OD.Coffee\/?hc_ref=PAGES_TIMELINE","address":"\u9ad8\u96c4\u5e02\u4e09\u6c11\u5340\u61f7\u5b89\u8857137\u865f","latitude":"22.64074060","longitude":"120.31692470","limited_time":"no","socket":"no","standing_desk":"yes","mrt":"","open_time":""},{"id":"85211c60-c208-47fc-9bde-c6f6ed5b3c54","name":"\u5927\u57ce\u5c0f\u4e8b","city":"kaohsiung","wifi":5,"seat":5,"quiet":5,"tasty":4,"cheap":4,"music":5,"url":"https:\/\/www.facebook.com\/bigtownsmallthings\/","address":"\u9ad8\u96c4\u5e02\u9e7d\u57d5\u5340\u6cb3\u897f\u8def147\u865f\u4e09\u89d2\u7a97 (\u4e03\u8ce2\u6a4b\u65c1)","latitude":"22.62986620","longitude":"120.28372490","limited_time":"","socket":"","standing_desk":"","mrt":"\u9e7d\u57d5\u57d4\u7ad92\u865f\u51fa\u53e3\u6b659\u5206","open_time":"11:30 - 22:00 \u5468\u4e8c\u4f11(\u6bcf\u500b\u6708\u7684\u7b2c\u4e00\u500b\u79ae\u62dc\u4e00\u7279\u4f11)\n"},{"id":"85c49a41-b59d-4e7d-b36c-9e26dbf03bd0","name":"Bon Voyage \u68d2\uff01\u9060\u884c\u5496\u5561","city":"kaohsiung","wifi":0,"seat":0,"quiet":0,"tasty":0,"cheap":0,"music":0,"url":"","address":"\u9ad8\u96c4\u5e02\u9cf3\u5c71\u5340\u9cf3\u660e\u885711\u865f","latitude":"22.62639100","longitude":"120.36162000","limited_time":"","socket":"","standing_desk":"","mrt":"","open_time":""},{"id":"875e957a-e674-4ad1-b73a-e8f2d4279cdd","name":"\u70d8\u8c46\u574a\uff08\u6587\u5316\u5e97\uff09","city":"kaohsiung","wifi":3,"seat":4,"quiet":4,"tasty":5,"cheap":4,"music":3,"url":"","address":"\u9ad8\u96c4\u5e02\u82d3\u96c5\u5340\u9752\u5e74\u4e00\u8def2-5\u865f","latitude":"22.62488850","longitude":"120.31649770","limited_time":"no","socket":"maybe","standing_desk":"yes","mrt":"","open_time":""},{"id":"87686b66-8b9b-4604-aef1-fb3f16755069","name":"Louisa Coffee\u8def\u6613\u838e\u5496\u5561(\u9ad8\u96c4\u660c\u76db\u5e97)","city":"kaohsiung","wifi":5,"seat":4.5,"quiet":5,"tasty":5,"cheap":5,"music":5,"url":"https:\/\/www.facebook.com\/louisacoffee.292\/","address":"\u9ad8\u96c4\u5e02\u9f13\u5c71\u5340\u660c\u76db\u8def292\u865f","latitude":"22.66424420","longitude":"120.29914700","limited_time":"maybe","socket":"maybe","standing_desk":"","mrt":"","open_time":""},{"id":"8804e7ee-1ecf-4696-ad3e-b176f9c7e839","name":"\u7e6b\u524d\u7de3","city":"kaohsiung","wifi":0,"seat":5,"quiet":3,"tasty":5,"cheap":5,"music":2,"url":"","address":"\u9ad8\u96c4\u5e02\u5de6\u71df\u5340\u5b54\u71df\u8def78\u865f","latitude":"22.68954180","longitude":"120.29585130","limited_time":"","socket":"","standing_desk":"","mrt":"","open_time":""},{"id":"888c767a-48d9-49cd-9eea-a00d216e5b26","name":"Gavagai Caf\u00e9(\u5404\u6bd4\u4f0a\u5496\u5561)","city":"kaohsiung","wifi":5,"seat":5,"quiet":5,"tasty":5,"cheap":4,"music":5,"url":"https:\/\/zh-tw.facebook.com\/GavagaiCafe\/","address":"\u9ad8\u96c4\u5e02\u4e09\u6c11\u5340\u6566\u714c\u8def80\u5df711\u865f","latitude":"22.65892850","longitude":"120.31346940","limited_time":"no","socket":"","standing_desk":"no","mrt":"\u516c\u8eca\u7ad9\"\u6cb3\u5824\u8def\u53e3(\u660e\u8aa0\u4e8c\u8def)\"\"\u660e\u54f2\u8def\u53e3\"\"\u5927\u6a02\u6c11\u65cf\u5e97\"\u6b653\u5206, \"\u5927\u7d71\u65b0\u4e16\u7d00(\u6c11\u65cf\u4e00\u8def)\"\u6b654\u5206\/CityBike\"\u660e\u8aa0\u5149\u8208\"\u7ad9\u6b655\u5206","open_time":""},{"id":"889ba94c-b37c-4354-bd9d-7cdf6b3ab27d","name":"\u4ec1\u548c\u96c5\u5496\u5561","city":"kaohsiung","wifi":0,"seat":0,"quiet":0,"tasty":0,"cheap":0,"music":0,"url":"","address":"\u9ad8\u96c4\u5e02\u65d7\u5c71\u5340\u4ec1\u548c\u8857112\u865f","latitude":"22.89049160","longitude":"120.48005290","limited_time":"","socket":"","standing_desk":"","mrt":"","open_time":""},{"id":"8b8708dc-f888-4e1d-b035-bb311a110a1b","name":"In-Lane\u5167\u5411\u5496\u5561","city":"kaohsiung","wifi":4,"seat":4,"quiet":4,"tasty":5,"cheap":4,"music":5,"url":"https:\/\/www.facebook.com\/inlanecafe\/","address":"\u9ad8\u96c4\u5e02\u524d\u91d1\u5340\u5e02\u4e2d\u4e00\u8def268\u865f","latitude":"22.63183950","longitude":"120.28907190","limited_time":"no","socket":"yes","standing_desk":"no","mrt":"\u5e02\u8b70\u6703","open_time":"10:30 - 19:00"},{"id":"8c110750-20ce-492f-872d-08fac0e71862","name":"Reve\u9ed1\u6d6e\u5496\u5561\uff08\u6960\u6893\u5e97\uff09","city":"kaohsiung","wifi":0,"seat":4,"quiet":3,"tasty":3,"cheap":3,"music":4,"url":"","address":"\u9ad8\u96c4\u5e02\u6960\u6893\u5340\u76ca\u7fa4\u8def63\u865f","latitude":"22.72470830","longitude":"120.29686610","limited_time":"yes","socket":"","standing_desk":"no","mrt":"","open_time":""},{"id":"8ce9d31a-bff7-4210-a9dd-f42acbc16724","name":"NAMU \u62ff\u6c90","city":"kaohsiung","wifi":0,"seat":0,"quiet":0,"tasty":0,"cheap":0,"music":0,"url":"","address":"\u9ad8\u96c4\u5e02\u4e2d\u6b63\u56db\u8def235\u865f","latitude":"22.62790830","longitude":"120.29259650","limited_time":"","socket":"","standing_desk":"","mrt":"","open_time":""},{"id":"8d0376f0-e7a3-4406-b9e2-94b8efdf1af2","name":"\u7070\u5496\u5561","city":"kaohsiung","wifi":5,"seat":4.5,"quiet":5,"tasty":5,"cheap":5,"music":5,"url":"https:\/\/www.facebook.com\/hwaycoffee.taiwan\/","address":"\u65b0\u8208\u5340\u6797\u68ee\u4e00\u8def146\u5df72\u865f","latitude":"22.62919600","longitude":"120.30482000","limited_time":"no","socket":"yes","standing_desk":"yes","mrt":"\u7f8e\u9e97\u5cf6\u7ad96\u865f\u51fa\u53e3\u6b654\u5206\/\u516c\u8eca\u7ad9''\u6377\u904b\u7f8e\u9e97\u5cf6\u7ad9''\u6b655\u5206\/CityBike\"\u90f5\u653f\u7e3d\u5c40\"\u7ad9\u6b654\u5206","open_time":"23:30\u5f8c\u53ea\u4f9b\u61c9\u8336\u985e\u548c\u9152\u985e"},{"id":"8dc86e73-3840-4038-9e8c-d0fd233ba649","name":"\u79c1\u5fc3\u5496\u5561Favorite Caf\u00e9","city":"kaohsiung","wifi":5,"seat":3.5,"quiet":5,"tasty":5,"cheap":4.5,"music":4.5,"url":"https:\/\/www.facebook.com\/cafefavorite\/","address":"\u9ad8\u96c4\u5e02\u5de6\u71df\u5340\u7fe0\u83ef\u8def584\u865f(\u679c\u8cbf\u793e\u5340)","latitude":"22.67082000","longitude":"120.28986200","limited_time":"no","socket":"no","standing_desk":"no","mrt":"NO","open_time":"10:00-19:00 (\u9031\u4e09\u516c\u4f11)"},{"id":"8e9b74a8-55ef-4830-8e45-63a6ca5bc888","name":"\u8106\u963f\u5c3c\u5496\u5561","city":"kaohsiung","wifi":5,"seat":5,"quiet":4.5,"tasty":5,"cheap":4,"music":3.5,"url":"","address":"\u9ad8\u96c4\u5e02\u9f13\u5c71\u5340\u6ff1\u6d77\u4e00\u8def79\u865f","latitude":"22.61962200","longitude":"120.27118500","limited_time":"","socket":"","standing_desk":"","mrt":"\u897f\u5b50\u7063\u6377\u904b\u7ad9","open_time":""},{"id":"907f36f4-541d-4676-a3b8-0513703de16d","name":"\u83c1\u5496\u5561 coffee drink \u7f8e\u8853\u5e97","city":"kaohsiung","wifi":0,"seat":0,"quiet":0,"tasty":0,"cheap":0,"music":0,"url":"","address":"\u9ad8\u96c4\u5e02\u9f13\u5c71\u5340\u7f8e\u8853\u6771\u4e09\u8def\u4e00\u865f","latitude":"22.65722560","longitude":"120.29380340","limited_time":"no","socket":"maybe","standing_desk":"no","mrt":"","open_time":""},{"id":"91396b55-d32b-4f40-b20d-d6a7a9a09a52","name":"Grace cafe","city":"kaohsiung","wifi":5,"seat":3,"quiet":5,"tasty":5,"cheap":4,"music":5,"url":"https:\/\/www.facebook.com\/gracecafe0507\/","address":"\u9ad8\u96c4\u5e02\u4e09\u6c11\u5340\u660e\u5409\u8def8\u865f","latitude":"22.66171140","longitude":"120.31343040","limited_time":"maybe","socket":"no","standing_desk":"no","mrt":"","open_time":"12:00-20:00"},{"id":"916e8025-0a3c-4bb5-bb88-334a645b5e2a","name":"\u4e94\u96f6\u5e74\u4ee3\u5496\u5561","city":"kaohsiung","wifi":5,"seat":5,"quiet":5,"tasty":4.5,"cheap":4.5,"music":5,"url":"","address":"\u9ad8\u96c4\u5e02\u9e7d\u57d5\u5340\u5927\u667a\u8def99\u865f","latitude":"22.62214000","longitude":"120.28556000","limited_time":"no","socket":"yes","standing_desk":"yes","mrt":"\u9e7d\u57d5\u57d4\u7ad9","open_time":"\u516c\u4f11\u65e5\u53ef\u4ee5\u53c3\u8003\u7c89\u5c08\u516c\u4f48"},{"id":"92121cc3-f2a6-4233-8ba4-c9248b92bf74","name":"\u627e\u5496\u5561","city":"kaohsiung","wifi":4,"seat":5,"quiet":4,"tasty":5,"cheap":5,"music":5,"url":"https:\/\/www.facebook.com\/ilikeifound\/","address":"\u9ad8\u96c4\u5e02\u5de6\u71df\u5340\u6587\u81ea\u8def735\u865f","latitude":"22.68314380","longitude":"120.31371580","limited_time":"no","socket":"yes","standing_desk":"no","mrt":"","open_time":""},{"id":"92c47f7d-7667-4280-944b-f9a4494de41a","name":"94 cafe","city":"kaohsiung","wifi":5,"seat":5,"quiet":5,"tasty":5,"cheap":5,"music":5,"url":"","address":"\u9ad8\u96c4\u5e02\u5ca1\u5c71\u5340\u5e73\u548c\u8def48\u865f","latitude":"22.79450190","longitude":"120.29503260","limited_time":"","socket":"","standing_desk":"","mrt":"","open_time":""},{"id":"944c9018-7ed8-4bf2-9ced-02ed73b570b7","name":"\u8def\u6613\u838e\u9ad8\u96c4\u4e2d\u6b63\u5e97","city":"kaohsiung","wifi":4,"seat":5,"quiet":4,"tasty":4,"cheap":5,"music":4,"url":"https:\/\/www.facebook.com\/LouisaCoffeeKaohsiung\/","address":"\u4e2d\u6b63\u4e09\u8def68-2\u865f","latitude":"22.63108300","longitude":"120.30859680","limited_time":"no","socket":"yes","standing_desk":"yes","mrt":"","open_time":""},{"id":"9583b53f-2c71-45f2-9b5d-eb77aed1e434","name":"\u963f\u8cb4\u79c1\u587e","city":"kaohsiung","wifi":3,"seat":5,"quiet":5,"tasty":4,"cheap":4,"music":4,"url":"https:\/\/www.facebook.com\/pages\/%E9%98%BF%E8%B2%B4%E7%A7%81%E5%A1%BE\/111915355552548","address":"\u9ad8\u96c4\u5e02\u9e7d\u57d5\u5340\u8392\u5149\u885785\u865f","latitude":"22.62109900","longitude":"120.28322100","limited_time":"no","socket":"maybe","standing_desk":"yes","mrt":"\u9e7d\u57d5\u57d4\u7ad9(O2)","open_time":""},{"id":"9b39081f-26f8-421e-90a3-e62df4eb2d9c","name":"Amis cafe","city":"kaohsiung","wifi":5,"seat":4,"quiet":4,"tasty":4.5,"cheap":4,"music":3.5,"url":"https:\/\/www.facebook.com\/amiscafe99\/","address":"\u9ad8\u96c4\u5e02\u65b0\u8208\u5340\u4fe1\u5b88\u885799\u865f","latitude":"22.63131500","longitude":"120.31465230","limited_time":"no","socket":"maybe","standing_desk":"no","mrt":"\u6377\u904b\u4fe1\u7fa9\u570b\u5c0f\u7ad9","open_time":""},{"id":"9b465171-0f7e-44d0-811d-c1d2c9073c36","name":"\u6fc3\u597d\u5496\u5561","city":"kaohsiung","wifi":4,"seat":4,"quiet":3,"tasty":4,"cheap":5,"music":4,"url":"https:\/\/www.facebook.com\/KnowHowCoffee\/","address":"\u9ad8\u96c4\u5e02\u5ca1\u5c71\u5340\u4e2d\u5c71\u5357\u8def430\u865f","latitude":"22.78965300","longitude":"120.29956020","limited_time":"no","socket":"no","standing_desk":"no","mrt":"\u53f0\u9435\u5ca1\u5c71\u7ad9\u6b655\u5206, \u6377\u904b\u5357\u5ca1\u5c71\u7ad92\u865f\u51fa\u53e3\u6b6513\u5206\/\u516c\u8eca\u7ad9\"\u5927\u5fb7\u4e09\u8def\u53e3\"\u6b651\u5206, \"\u5ca1\u5c71\u8f49\u904b\u7ad9(\u5ca1\u5c71\u706b\u8eca\u7ad9)\"\u6b654\u5206\/CityBike\"\u5ca1\u5c71\u706b\u8eca\u7ad9\"\u7ad9\u6b65\u5206, \"\u5ca1\u5c71\u5fe0\u5b5d\u91cc\u7ad9\"\u7ad9\u6b656\u5206","open_time":""},{"id":"9b700783-6f08-43f0-91e3-e10556c67b8b","name":"Acc Caf\u00e9 de Coeur \u771f\u5fc3\u8c46\u884c\u4e03\u8ce2\u5e97","city":"kaohsiung","wifi":0,"seat":0,"quiet":0,"tasty":0,"cheap":0,"music":0,"url":"","address":" 801\u9ad8\u96c4\u5e02\u524d\u91d1\u5340\u4e03\u8ce2\u4e8c\u8def365\u865f","latitude":"22.63071640","longitude":"120.28874270","limited_time":"","socket":"","standing_desk":"","mrt":"","open_time":""},{"id":"9ba0f950-3c2a-4976-a817-31b63ddc7bca","name":"\u5361\u5561\u90a3 CAFFAINA \u7f8e\u8853\u9928\u5e97","city":"kaohsiung","wifi":4.5,"seat":3,"quiet":2,"tasty":3,"cheap":3,"music":5,"url":"https:\/\/www.facebook.com\/Caffaina-Coffee-Gallery-%E5%8D%A1%E5%95%A1%E9%82%A3%E6%98%8E%E8%AA%A0%E5%A3%B9%E8%99%9F%E5%BA%97-453732771383399\/?fref=ts","address":"\u9ad8\u96c4\u5e02\u9f13\u5c71\u5340\u7f8e\u8853\u6771\u4e8c\u8def3\u865f","latitude":"22.65122570","longitude":"120.28775100","limited_time":"no","socket":"yes","standing_desk":"","mrt":"\u516c\u8eca\u7ad9\"\u7f8e\u8853\u5712\u5340\"''\u9858\u666f\u6a4b''\u6b653\u5206\/CityBike\"\u9858\u666f\u6a4b\"\u7ad9\u6b651\u5206","open_time":""},{"id":"9c294788-2e76-4477-8cf3-fa99be8b45fd","name":"Illuminate coffee\u6cb3\u6620\u5496\u5561","city":"kaohsiung","wifi":5,"seat":5,"quiet":3,"tasty":3,"cheap":3,"music":5,"url":"https:\/\/www.facebook.com\/Illuminate-%E6%B2%B3%E6%98%A0%E5%92%96%E5%95%A1-911688742217740","address":"\u9ad8\u96c4\u5e02\u4e09\u6c11\u5340\u6cb3\u5824\u8def302\u865f","latitude":"22.66187500","longitude":"120.31177400","limited_time":"no","socket":"maybe","standing_desk":"no","mrt":"","open_time":""},{"id":"9c96c7d8-b1d5-4b29-9081-64f3d8f99a75","name":"NOW & THEN by nybc \u99c1\u4e8c\u5e97","city":"kaohsiung","wifi":4.5,"seat":4,"quiet":3,"tasty":5,"cheap":3,"music":5,"url":"https:\/\/www.facebook.com\/nowandthenbynybc\/","address":"\u9ad8\u96c4\u5e02\u9e7d\u57d5\u5340\u5927\u7fa9\u88572\u865f\u99c1\u4e8c\u85dd\u8853\u7279\u5340\u5927\u7fa9\u5009\u5eabC9-19","latitude":"22.61807700","longitude":"120.28556730","limited_time":"no","socket":"yes","standing_desk":"no","mrt":"\u897f\u5b50\u7063\/\u9e7d\u57d5\u57d4","open_time":"\u5e73\u65e5:10:00-21:00\n\u5047\u65e5:10:00-22:00"},{"id":"9cad08b2-1387-434c-a23e-c5e38e3082f8","name":"Around Cafe \u6d41\u6d6a\u5496\u5561","city":"kaohsiung","wifi":0,"seat":0,"quiet":0,"tasty":0,"cheap":0,"music":0,"url":"https:\/\/www.facebook.com\/Around.cafe","address":"802\u9ad8\u96c4\u5e02\u82d3\u96c5\u5340\u798f\u5efa\u885766\u865f","latitude":"22.62013000","longitude":"120.31627800","limited_time":"no","socket":"","standing_desk":"no","mrt":"","open_time":""},{"id":"9de68bf3-1fe5-45fc-86c0-bb1c936fe9da","name":"MiS Cafe \u8b0e\u601d\u5496\u5561","city":"kaohsiung","wifi":5,"seat":5,"quiet":5,"tasty":5,"cheap":4,"music":5,"url":"https:\/\/www.facebook.com\/MISCOFFEE\/","address":"\u9ad8\u96c4\u5e02\u524d\u91d1\u5340\u5e02\u4e2d\u4e00\u8def167\u865f","latitude":"22.62540100","longitude":"120.29127800","limited_time":"no","socket":"yes","standing_desk":"no","mrt":"\u5e02\u8b70\u6703\u6377\u904b\u7ad9","open_time":"08:00 - 18:00"},{"id":"9ebd6f40-8765-4df2-b50f-e62bd1b3f96a","name":"\u54c1\u597d\u4e73\u916a","city":"kaohsiung","wifi":5,"seat":5,"quiet":5,"tasty":5,"cheap":3,"music":5,"url":"https:\/\/www.pincheesecake.com\/","address":"\u9ad8\u96c4\u5e02\u9f13\u5c71\u5340\u660c\u76db\u8def379\u865f","latitude":"22.66377050","longitude":"120.29736830","limited_time":"no","socket":"maybe","standing_desk":"yes","mrt":"","open_time":""},{"id":"9f648e4a-ee2c-4386-af07-4c7666221b46","name":"6\u540b\u76e4\u65e9\u5348\u9910-\u524d\u93ae\u745e\u8208\u5e97","city":"kaohsiung","wifi":0,"seat":0,"quiet":0,"tasty":0,"cheap":0,"music":0,"url":"","address":"806\u9ad8\u96c4\u5e02\u524d\u93ae\u5340\u745e\u8208\u8857105-1\u865f","latitude":"22.61103460","longitude":"120.33019510","limited_time":"no","socket":"no","standing_desk":"no","mrt":"","open_time":""},{"id":"a06d7466-0245-45dc-9669-4ccd936607da","name":"\u7b2c\u56db\u7d00\u5496\u5561","city":"kaohsiung","wifi":4,"seat":5,"quiet":5,"tasty":5,"cheap":5,"music":5,"url":"https:\/\/www.facebook.com\/%E7%AC%AC%E5%9B%9B%E7%B4%80%E5%92%96%E5%95%A1-173037693143767\/","address":"\u9ad8\u96c4\u5e02\u5de6\u71df\u5340\u535a\u611b\u4e8c\u8def204\u865f","latitude":"22.66009800","longitude":"120.30333400","limited_time":"","socket":"","standing_desk":"yes","mrt":"","open_time":""},{"id":"a17d0e50-d9ae-485c-be9f-fe4346911215","name":"\u5496\u5561\u5f37Coffejohn","city":"kaohsiung","wifi":3,"seat":4,"quiet":4,"tasty":5,"cheap":5,"music":5,"url":"https:\/\/www.facebook.com\/CoffeeJohn0915056758\/","address":"\u9ad8\u96c4\u5e02\u9f13\u5c71\u5340\u5ef6\u5e73\u885764-3\u865f","latitude":"22.62310640","longitude":"120.27328470","limited_time":"no","socket":"maybe","standing_desk":"yes","mrt":"\u897f\u5b50\u7063\u7ad9","open_time":"\u4e2d\u9593\u4f11\u606f4\u5c0f\u664216\uff5e20"},{"id":"a2b5d5eb-a07a-43a7-a991-4ed6fd283d36","name":"Jamling cafe\u9ad8\u96c4\u5e97","city":"kaohsiung","wifi":4,"seat":4,"quiet":3,"tasty":4,"cheap":4,"music":4,"url":"https:\/\/www.facebook.com\/jamlingcafekaohsiung\/","address":"\u9ad8\u96c4\u5e02\u9f13\u5c71\u5340\u7f8e\u8853\u6771\u4e94\u8def56\u865f","latitude":"22.65896760","longitude":"120.29450970","limited_time":"yes","socket":"","standing_desk":"","mrt":"","open_time":"12:00 - 21:00"},{"id":"a3688df2-a4bf-4e47-a57e-1f1bbb5eaa5e","name":"Kbsca\u9ad8\u96c4\u7cbe\u54c1\u5496\u5561","city":"kaohsiung","wifi":0,"seat":0,"quiet":0,"tasty":0,"cheap":0,"music":0,"url":"","address":"\u9ad8\u96c4\u5e02\u5869\u57d5\u5340\u5e9c\u5317\u8def27\u4e4b2\u865f","latitude":"22.62831610","longitude":"120.28570170","limited_time":"","socket":"","standing_desk":"","mrt":"","open_time":""},{"id":"a3dc7bfd-ccc2-4754-9108-37bd74738a22","name":"\u4ea8\u5229\u5496\u5561(\u897f\u5b50\u7063)","city":"kaohsiung","wifi":5,"seat":5,"quiet":5,"tasty":5,"cheap":4,"music":5,"url":"https:\/\/www.facebook.com\/%E8%A5%BF%E5%AD%90%E7%81%A3%E4%BA%A8%E5%88%A9%E5%92%96%E5%95%A1-663165500473447\/","address":"\u9ad8\u96c4\u5e02\u9f13\u5c71\u5340\u54e8\u8239\u885775-18\u865f","latitude":"22.62256590","longitude":"120.26926850","limited_time":"","socket":"maybe","standing_desk":"no","mrt":"\u897f\u5b50\u7063\u7ad91\u865f\u51fa\u53e3\u6b659\u5206\/\u516c\u8eca\u7ad9''\u54e8\u8239\u8857''\u65c1","open_time":""},{"id":"a3e0c948-8ecb-4c22-94f6-282714423617","name":"\u7559\u4e00\u9ede\u7a7a\u9593\u5496\u5561","city":"kaohsiung","wifi":0,"seat":0,"quiet":0,"tasty":0,"cheap":0,"music":0,"url":"","address":"\u9ad8\u96c4\u5e02\u9cf3\u5c71\u5340\u6587\u9cf3\u8def63\u865f","latitude":"22.64256570","longitude":"120.34822310","limited_time":"","socket":"","standing_desk":"","mrt":"","open_time":""},{"id":"a43590b0-f339-4ad3-b0b0-f20632896359","name":"\u71c3\u6728\u5496\u5561\u7814\u7a76\u6240Fuelwood Coffee Lab","city":"kaohsiung","wifi":0,"seat":0,"quiet":0,"tasty":0,"cheap":0,"music":0,"url":"","address":"802\u9ad8\u96c4\u5e02\u82d3\u96c5\u5340\u5efa\u570b\u4e00\u8def90-1\u865f16F-2","latitude":"22.63190510","longitude":"120.33250600","limited_time":"","socket":"","standing_desk":"","mrt":"","open_time":""},{"id":"a46950c6-6b9e-47a0-948b-8128e91886ea","name":"BuCafe \u4e0d\u5496\u5561","city":"kaohsiung","wifi":5,"seat":5,"quiet":5,"tasty":5,"cheap":5,"music":5,"url":"https:\/\/www.facebook.com\/bubucafe\/","address":"\u9ad8\u96c4\u5e02\u9f13\u5c71\u5340\u7f8e\u8853\u5357\u4e8c\u8def2\u865f","latitude":"22.64954660","longitude":"120.28500770","limited_time":"no","socket":"no","standing_desk":"no","mrt":"\u516c\u8eca\u7ad9''\u9858\u666f\u6a4b''\u6b653\u5206\/CityBike\"\u9858\u666f\u6a4b\"\u7ad9\u6b655\u5206","open_time":""},{"id":"a5231be4-ad73-4e71-ba18-649b1e0d4b8d","name":"Menippe \u5a9a\u529b\u6cca\u5496\u5561\u6797\u68ee\u5e97","city":"kaohsiung","wifi":4,"seat":4,"quiet":3,"tasty":3,"cheap":4,"music":4,"url":"https:\/\/www.facebook.com\/Cafe.de.parfum.tw\/","address":"\u9ad8\u96c4\u5e02\u65b0\u8208\u5340\u6797\u68ee\u4e00\u8def195\u865f","latitude":"22.63215650","longitude":"120.30448730","limited_time":"no","socket":"maybe","standing_desk":"no","mrt":"","open_time":"7:30 - 22:00"},{"id":"a7053386-0872-4055-aa4d-9c40f8761bb3","name":"Coffee\u3002\u4fee","city":"kaohsiung","wifi":4,"seat":4,"quiet":3,"tasty":4,"cheap":5,"music":3,"url":"https:\/\/www.facebook.com\/coffeehsiu\/","address":"\u9ad8\u96c4\u5e02\u65d7\u5c71\u5340\u4e2d\u5c71\u8def60-7\u865f","latitude":"22.88641900","longitude":"120.48235810","limited_time":"no","socket":"yes","standing_desk":"yes","mrt":"","open_time":"11:00 - 21:00"},{"id":"a7ccf39c-f4cd-4bbf-a33a-7d272bad560c","name":"51\u5496\u5561","city":"kaohsiung","wifi":0,"seat":5,"quiet":4,"tasty":3.5,"cheap":4.5,"music":4,"url":"https:\/\/www.facebook.com\/51cafe%E4%BA%94%E4%B8%80%E5%92%96%E5%95%A1-1406305012920644\/","address":"\u9ad8\u96c4\u5e02\u5de6\u71df\u5340\u91cd\u4fe1\u8def577\u865f","latitude":"22.68541110","longitude":"120.30884100","limited_time":"","socket":"no","standing_desk":"no","mrt":"\u9ad8\u9435\/\u6377\u904b\u5de6\u71df\u7ad9(R16)\/\u53f0\u9435\u65b0\u5de6\u71df\u7ad9","open_time":""},{"id":"a85c99c3-83fb-42a4-9ba0-17a6c80a7adc","name":"\u6ce2\u8c9d\u62c9\u5496\u5561Bobelle Coffee Brunch","city":"kaohsiung","wifi":3.5,"seat":4,"quiet":3.5,"tasty":2.5,"cheap":4,"music":3.5,"url":"https:\/\/www.facebook.com\/bobelletw","address":"\u9ad8\u96c4\u5e02\u5de6\u71df\u5340\u5d07\u5fb7\u8def272\u865f","latitude":"22.67586170","longitude":"120.30386880","limited_time":"no","socket":"maybe","standing_desk":"no","mrt":"","open_time":"8:30-22:00"},{"id":"a88dc084-8c35-4e1a-b0d9-60ad15345596","name":"Drake193 Coffee Roaster","city":"kaohsiung","wifi":0,"seat":0,"quiet":0,"tasty":0,"cheap":0,"music":0,"url":"https:\/\/www.facebook.com\/drake193\/","address":"\u9ad8\u96c4\u5e02\u9f13\u5c71\u5340\u8446\u798e\u8def58\u5df740\u865f","latitude":"22.66289280","longitude":"120.28330770","limited_time":"","socket":"","standing_desk":"","mrt":"","open_time":""},{"id":"a97f718a-7130-4228-9969-f0a92c0a1ff9","name":"\u4e00\u76de\u5496\u5561","city":"kaohsiung","wifi":4.5,"seat":5,"quiet":5,"tasty":5,"cheap":5,"music":5,"url":"https:\/\/www.facebook.com\/tsitpha\/","address":"\u9ad8\u96c4\u5e02\u82d3\u96c5\u5340\u5fa9\u8208\u4e8c\u8def49\u5df79\u865f","latitude":"22.62037300","longitude":"120.30986200","limited_time":"no","socket":"yes","standing_desk":"","mrt":"\u4e09\u591a\u5546\u5708\u7ad96\u865f\u51fa\u53e3\u6b6515\u5206\/\u516c\u8eca\u7ad9\"\u5e02\u653f\u5927\u6a13(\u5fa9\u8208\u4e8c\u8def)\"\u6b651\u5206, \"\u5e02\u653f\u5927\u6a13(\u56db\u7dad\u4e09\u8def)\"\"\u82d3\u96c5\u570b\u4e2d(\u6797\u68ee\u4e8c\u8def)\"\"\u570b\u6c11\u5e02\u5834\"\u6b654\u5206\/CityBike\"\u5e02\u5e9c\u56db\u7dad\u7ad9\"\u7ad9\u6b655\u5206","open_time":""},{"id":"aaf83449-bddb-46dc-b1c8-02bb7536b4a4","name":"\u91d1\u7926\u5496\u5561(\u56db\u7dad\u5e97)","city":"kaohsiung","wifi":4,"seat":4,"quiet":3,"tasty":4,"cheap":4,"music":5,"url":"http:\/\/www.crownfancy.com\/index.php","address":"\u9ad8\u96c4\u5e02\u82d3\u96c5\u5340\u56db\u7dad\u56db\u8def63\u865f ","latitude":"22.61537200","longitude":"120.29900400","limited_time":"no","socket":"maybe","standing_desk":"yes","mrt":"","open_time":"07:30~24:00"},{"id":"abc29ada-3815-4cd2-9233-7087bdb37ff7","name":"\u683c\u8a00\u5496\u5561 Maximum Coffee","city":"kaohsiung","wifi":5,"seat":5,"quiet":5,"tasty":5,"cheap":5,"music":5,"url":"","address":"\u9ad8\u96c4\u5e02\u9f13\u5c71\u5340\u7f8e\u8853\u6771\u4e94\u8def50\u865f","latitude":"22.65898690","longitude":"120.29468740","limited_time":"","socket":"","standing_desk":"","mrt":"","open_time":""},{"id":"ae1a4867-1b48-4187-ab2a-27c061c31564","name":"Kingmauii \u91d1\u8302\u5b9c\u5496\u5561 \u7f8e\u8853\u5e97","city":"kaohsiung","wifi":0,"seat":0,"quiet":0,"tasty":0,"cheap":0,"music":0,"url":"","address":"804\u9ad8\u96c4\u5e02\u9f13\u5c71\u5340\u7f8e\u8853\u6771\u4e94\u8def75\u865f","latitude":"22.65877230","longitude":"120.29322780","limited_time":"","socket":"","standing_desk":"","mrt":"","open_time":""},{"id":"aeeea9d6-11e4-4934-af4b-b16168a74511","name":"Wolong Coffee Studio\u81e5\u9f8d\u5496\u5561\u5de5\u4f5c\u5ba4","city":"kaohsiung","wifi":0,"seat":5,"quiet":5,"tasty":5,"cheap":5,"music":4,"url":"","address":"\u9ad8\u96c4\u5e02\u4e09\u6c11\u5340\u6176\u96f2\u8857117\u865f","latitude":"22.64347830","longitude":"120.31514750","limited_time":"","socket":"","standing_desk":"","mrt":"","open_time":""},{"id":"afb1f8b1-1f32-44ab-a8c8-7c60c8a3f6f7","name":"Eske Place Coffee House","city":"kaohsiung","wifi":5,"seat":5,"quiet":5,"tasty":5,"cheap":3,"music":3,"url":"https:\/\/www.facebook.com\/eskeplace\/","address":"\u9ad8\u96c4\u5e02\u6960\u6893\u52a0\u5de5\u5340\u4e2d\u4e00\u88575\u865f","latitude":"22.71912340","longitude":"120.30344420","limited_time":"","socket":"","standing_desk":"","mrt":"","open_time":""},{"id":"b1573cf1-4b8d-4e1b-aabe-8de343ea4095","name":"Louisa Coffee \u8def\u6613\uff0e\u838e\u5496\u5561(\u9ad8\u96c4\u6cb3\u5824\u5e97)","city":"kaohsiung","wifi":4,"seat":3,"quiet":3,"tasty":4,"cheap":4,"music":4,"url":"https:\/\/www.facebook.com\/LouisaCoffee3rdWave0810\/","address":"807\u9ad8\u96c4\u5e02\u4e09\u6c11\u5340\u660e\u4ec1\u8def51\u865f","latitude":"22.66143430","longitude":"120.31432840","limited_time":"no","socket":"no","standing_desk":"no","mrt":"","open_time":""},{"id":"b288b963-f318-4551-bb9b-6d473dcb0308","name":"\u5967\u723e\u53f8\u5496\u5561","city":"kaohsiung","wifi":5,"seat":5,"quiet":4.5,"tasty":5,"cheap":5,"music":5,"url":"https:\/\/www.facebook.com\/OursCafe62\/","address":"\u9ad8\u96c4\u5e02\u65b0\u8208\u5340\u4e2d\u6771\u885762\u865f","latitude":"22.63285600","longitude":"120.31657900","limited_time":"no","socket":"yes","standing_desk":"no","mrt":"","open_time":""},{"id":"b30e0f80-6b31-4300-8a35-489ff5f5bc27","name":"Atti\u5496\u5561\u7814\u7a76\u5de5\u574a","city":"kaohsiung","wifi":5,"seat":4,"quiet":5,"tasty":5,"cheap":4,"music":5,"url":"https:\/\/m.facebook.com\/atticoffee","address":"\u9ad8\u96c4\u5e02\u4e09\u6c11\u5340\u8208\u9686\u885758\u865f","latitude":"22.64712610","longitude":"120.31847480","limited_time":"no","socket":"maybe","standing_desk":"yes","mrt":"","open_time":""},{"id":"b3ef0e12-92f0-4d37-b8e1-4c089566c015","name":"TiARA Cafe","city":"kaohsiung","wifi":0,"seat":0,"quiet":0,"tasty":0,"cheap":0,"music":0,"url":"","address":"\u9ad8\u96c4\u5e02\u9ce5\u677e\u5340\u5927\u660c\u8def563\u865f","latitude":"22.65768810","longitude":"120.33503910","limited_time":"","socket":"maybe","standing_desk":"","mrt":"","open_time":""},{"id":"b47fb6bd-6065-4d96-85c2-94166f69e06d","name":"Hay un caf\u00e9 \u6c81\u99a3","city":"kaohsiung","wifi":0,"seat":0,"quiet":0,"tasty":0,"cheap":0,"music":0,"url":"","address":"\u9ad8\u96c4\u5e02\u9f13\u5c71\u5340\u6176\u8c50\u8857131\u865f","latitude":"22.66727430","longitude":"120.29428610","limited_time":"","socket":"","standing_desk":"","mrt":"","open_time":""},{"id":"b4aafc21-57fc-4b17-a646-08969c6cfff6","name":"BasiD6Cafe","city":"kaohsiung","wifi":5,"seat":5,"quiet":5,"tasty":5,"cheap":5,"music":3,"url":"https:\/\/www.facebook.com\/basid6cafe\/","address":"\u9ad8\u96c4\u5e02\u4e2d\u83ef\u4e00\u8def2250\u865f","latitude":"22.65260200","longitude":"120.29163400","limited_time":"","socket":"yes","standing_desk":"yes","mrt":"","open_time":""},{"id":"b4fb304d-2dae-41d6-8f3c-e2f4043c0b1f","name":"\u81ea\u7136\u9192cafe","city":"kaohsiung","wifi":4,"seat":5,"quiet":4,"tasty":5,"cheap":4,"music":4,"url":"https:\/\/www.facebook.com\/Cafewakeup\/","address":"\u9ad8\u96c4\u5e02\u82d3\u96c5\u5340\u4e2d\u5c71\u4e8c\u8def463\u865f","latitude":"22.61832900","longitude":"120.30257000","limited_time":"no","socket":"no","standing_desk":"yes","mrt":"\u4e09\u591a\u5546\u5708\u7ad97\u865f\u51fa\u53e3\u6b656\u5206\/\u516c\u8eca\u7ad9\"\u82d3\u96c5\u8def\u53e3(\u4e2d\u5c71\u4e8c\u8def)\"\u6b651\u5206, \"\u82d3\u96c5\u8def\u53e3(\u4e2d\u83ef\u56db\u8def)\"\u6b654\u5206, \"\u82d3\u96c5\u570b\u4e2d\"\u6b655\u5206, \/CityBike\"\u751f\u65e5\u516c\u5712\"\u7ad9\u6b654\u5206, \"\u4e09\u591a\"\u7ad9\u6b657\u5206","open_time":""},{"id":"b57f79a1-b3b1-4e17-bceb-aa71f48a55e0","name":"Donutes \u591a\u90a3\u4e4b(\u745e\u9686\u5e97)","city":"kaohsiung","wifi":4,"seat":4,"quiet":3,"tasty":4,"cheap":5,"music":4,"url":"http:\/\/www.donutes.com.tw\/","address":"\u9ad8\u96c4\u5e02\u524d\u93ae\u5340\u745e\u9686\u8def232\u865f","latitude":"22.60576110","longitude":"120.33369930","limited_time":"no","socket":"no","standing_desk":"yes","mrt":"","open_time":"00:00~24:00"},{"id":"b671533d-52c7-412a-848a-be9c877652b3","name":"\u548c\u99ac\u5496\u5561","city":"kaohsiung","wifi":4,"seat":4,"quiet":3.5,"tasty":4.5,"cheap":4,"music":4,"url":"https:\/\/www.facebook.com\/cafe.homer\/","address":"\u9ad8\u96c4\u5e02\u9cf3\u5c71\u5340\u9ad4\u80b2\u8def41\u865f","latitude":"22.62339730","longitude":"120.35622810","limited_time":"","socket":"","standing_desk":"","mrt":"","open_time":"10:00-17:00 \u9031\u56db\u4f11"},{"id":"b6f1773a-9047-4f31-a63d-150cc568f519","name":"\u7070\u5bb6\u5496\u5561 Hway + Coffee","city":"kaohsiung","wifi":0,"seat":0,"quiet":0,"tasty":0,"cheap":0,"music":0,"url":"","address":"803007\u9ad8\u96c4\u5e02\u9e7d\u57d5\u5340\u6cb3\u897f\u8def10\u865f","latitude":"22.62268790","longitude":"120.28911780","limited_time":"","socket":"","standing_desk":"","mrt":"","open_time":""},{"id":"b7ebf381-0521-40bc-9123-1ae665edf250","name":"\u738b\u54c1\u5496\u5561","city":"kaohsiung","wifi":0,"seat":0,"quiet":0,"tasty":0,"cheap":0,"music":0,"url":"","address":"\u9ad8\u96c4\u5e02\u6960\u6893\u5340\u5ee3\u660c\u8857182\u5df733\u5f046\u865f","latitude":"22.70979400","longitude":"120.28538300","limited_time":"","socket":"","standing_desk":"","mrt":"","open_time":""},{"id":"b83815b4-a88b-42b1-ba57-baf2457a1e16","name":"\u96c5\u88f4\u8a69\u5496\u5561","city":"kaohsiung","wifi":2,"seat":4,"quiet":4.5,"tasty":4.5,"cheap":3.5,"music":4.5,"url":"https:\/\/www.facebook.com\/apeuls\/","address":"\u9ad8\u96c4\u5e02\u65b0\u8208\u5340\u4e2d\u5c71\u4e00\u8def115\u865fB1(\u7f8e\u9e97\u5cf6\u7ad9\u5167)","latitude":"22.63151700","longitude":"120.30132940","limited_time":"no","socket":"maybe","standing_desk":"no","mrt":"\u7f8e\u9e97\u5cf6\u7ad9","open_time":""},{"id":"b92d967e-bbec-4d4e-8451-f121acd15f1b","name":"Agent caf's ","city":"kaohsiung","wifi":0,"seat":5,"quiet":3,"tasty":5,"cheap":5,"music":0,"url":"https:\/\/www.facebook.com\/Agent-cafe-144558948919014\/","address":"\u9ad8\u96c4\u5dff\u6893\u5b98\u5340\u6f01\u6e2f\u4e8c\u8def22\u865f\u9644\u8fd1","latitude":"22.72573530","longitude":"120.25626190","limited_time":"yes","socket":"no","standing_desk":"no","mrt":"","open_time":"1300-1900"},{"id":"bb169798-1a73-454d-b6bf-1219d38842a3","name":"25\u5df73\u865fCaffe \u81ea\u5bb6\u5496\u5561\u70d8\u7119\u9928","city":"kaohsiung","wifi":5,"seat":5,"quiet":5,"tasty":5,"cheap":5,"music":5,"url":"https:\/\/www.facebook.com\/253caffe","address":"\u9ad8\u96c4\u5e02\u5927\u5bee\u5340\u81ea\u5f37\u885725\u5df73\u865f","latitude":"22.63539100","longitude":"120.39226400","limited_time":"","socket":"","standing_desk":"","mrt":"","open_time":""},{"id":"bb666ac6-cf0b-4082-9a16-3c051ca75066","name":"MARS\u7766\u5de5\u5834\u98a8\u683c\u9910\u5ef3","city":"kaohsiung","wifi":5,"seat":4,"quiet":3,"tasty":4,"cheap":3,"music":5,"url":"https:\/\/www.facebook.com\/MarsCube","address":"\u9ad8\u96c4\u5e02\u9e7d\u57d5\u5340\u5927\u52c7\u8def80\u865f","latitude":"22.62394080","longitude":"120.28408910","limited_time":"no","socket":"maybe","standing_desk":"","mrt":"\u9e7d\u57d5\u57d4","open_time":"10:00-22:00"},{"id":"bce9efcf-a4bd-4d06-8860-854453ca036d","name":"Arosa Caf\u00e9","city":"kaohsiung","wifi":0,"seat":0,"quiet":0,"tasty":0,"cheap":0,"music":0,"url":"","address":"80052\u9ad8\u96c4\u5e02\u65b0\u8208\u5340\u4ec1\u611b\u4e00\u885774\u865f","latitude":"22.62963110","longitude":"120.30733640","limited_time":"","socket":"","standing_desk":"","mrt":"","open_time":""},{"id":"bd35262a-a8ef-4674-8b0f-b2484c4a29dc","name":"\u8857\u982d\u5496\u5561.\u745e\u9686\u5e97","city":"kaohsiung","wifi":3,"seat":3,"quiet":1,"tasty":4,"cheap":5,"music":3,"url":"https:\/\/www.facebook.com\/Streetcafe61\/","address":"\u9ad8\u96c4\u5e02\u524d\u93ae\u5340\u745e\u9686\u8def530\u865f","latitude":"22.60532780","longitude":"120.32752460","limited_time":"no","socket":"no","standing_desk":"no","mrt":"","open_time":"07:00-21:00"},{"id":"be4b8ae0-3325-4bae-b4fb-6b3cde2e5a49","name":"\u5e36\u6211\u53bb\u65c5\u884c.\u975c\u5496\u5561\uff08\u82f1\u660e\u5e97\uff09","city":"kaohsiung","wifi":5,"seat":4,"quiet":3,"tasty":4,"cheap":5,"music":3,"url":"https:\/\/www.facebook.com\/pages\/category\/Coffee-Shop\/%E5%B8%B6%E6%88%91%E5%8E%BB%E6%97%85%E8%A1%8C%E9%9D%9C%E5%92%96%E5%95%A1%E8%8B%B1%E6%98%8E%E5%BA%97-2113603452302540\/","address":"\u9ad8\u96c4\u5e02\u82d3\u96c5\u5340\u82f1\u660e\u8def186\u865f","latitude":"22.61645520","longitude":"120.32498820","limited_time":"","socket":"maybe","standing_desk":"no","mrt":"","open_time":""},{"id":"be95b66a-4719-4e61-9b24-64e54e7c9839","name":"\u5408\u7406\u9918\u9999 \u5496\u5561\u8c46\u8216","city":"kaohsiung","wifi":0,"seat":0,"quiet":0,"tasty":0,"cheap":0,"music":0,"url":"https:\/\/www.facebook.com\/reasonablegoodcoffee\/","address":"\u9ad8\u96c4\u5e02\u4e09\u6c11\u5340\u5927\u660c\u4e00\u8def218\u865f","latitude":"22.65645780","longitude":"120.32273000","limited_time":"no","socket":"yes","standing_desk":"yes","mrt":"","open_time":""},{"id":"bebfd636-7ac7-452e-b556-c3494ee77713","name":"\u9019\u689d\u8def\u5496\u5561 Thisway Coffee","city":"kaohsiung","wifi":0,"seat":0,"quiet":0,"tasty":0,"cheap":0,"music":0,"url":"","address":"\u9ad8\u96c4\u5e02\u65b0\u8208\u5340\u7389\u7af9\u4e00\u885717\u5df713\u865f","latitude":"22.62482170","longitude":"120.30193850","limited_time":"","socket":"","standing_desk":"","mrt":"","open_time":""},{"id":"becdbdbc-ae2d-4f34-9969-362368555698","name":"\u5fb7\u723e\u6587\u5496\u5561","city":"kaohsiung","wifi":0,"seat":0,"quiet":0,"tasty":0,"cheap":0,"music":0,"url":"","address":"\u9ad8\u96c4\u5e02\u4e09\u6c11\u5340\u5927\u8c50\u4e8c\u8def67\u865f","latitude":"22.64652400","longitude":"120.32719100","limited_time":"","socket":"","standing_desk":"","mrt":"","open_time":""},{"id":"bef555ed-da37-419e-a048-47e438c87ab8","name":"Mi's Mate","city":"kaohsiung","wifi":4,"seat":4,"quiet":3.5,"tasty":4,"cheap":4,"music":3.5,"url":"https:\/\/www.facebook.com\/MISMATECOFFEE\/","address":"802\u53f0\u7063\u9ad8\u96c4\u5e02\u82d3\u96c5\u5340\u65b0\u5149\u8def24\u5df721\u865f","latitude":"22.61269260","longitude":"120.30322500","limited_time":"maybe","socket":"yes","standing_desk":"no","mrt":"","open_time":""},{"id":"bf234a28-dc4b-432f-9986-f572bdcfa23f","name":"\u8299\u8afe\u6cb3","city":"kaohsiung","wifi":1,"seat":5,"quiet":5,"tasty":5,"cheap":3,"music":4,"url":"https:\/\/www.facebook.com\/coffeeflower\/","address":"\u9ad8\u96c4\u5e02\u9ad8\u96c4\u5e02\u82d3\u96c5\u5340\u798f\u5fb7\u4e00\u8def50-4\u865f","latitude":"22.63435700","longitude":"120.33496500","limited_time":"","socket":"no","standing_desk":"no","mrt":"","open_time":""},{"id":"bf635a1d-1421-48c8-a551-41f9c70d223b","name":"\u63cfCafe X \u5c4b Brunch","city":"kaohsiung","wifi":4,"seat":4,"quiet":3,"tasty":4,"cheap":3,"music":3,"url":"https:\/\/www.facebook.com\/%E6%8F%8FCafe-X-%E5%B1%8BBrunch-351238351720863\/","address":"\u9ad8\u96c4\u5e02\u65b0\u8208\u5340\u6587\u6a6b\u4e00\u8def68\u865f","latitude":"22.62643530","longitude":"120.30284390","limited_time":"maybe","socket":"","standing_desk":"","mrt":"","open_time":""},{"id":"bf9f9106-73ed-4414-8bd4-986b902a63e2","name":"\u73c8\u54c1\u8c46\u884cKaFei","city":"kaohsiung","wifi":5,"seat":5,"quiet":5,"tasty":5,"cheap":5,"music":5,"url":"https:\/\/m.facebook.com\/cripcafe\/","address":"\u9ad8\u96c4\u5e02\u9cf3\u5c71\u5340\u65b0\u5bcc\u8def480\u5df78\u865f","latitude":"22.61327720","longitude":"120.34713090","limited_time":"no","socket":"maybe","standing_desk":"yes","mrt":"\u9cf3\u5c71\u897f\u7ad9","open_time":"\u4e0a\u53489:30-\u665a\u4e0a20:00"},{"id":"c00206d5-bd5b-43c4-9e3b-e8e3d04964bf","name":"161\u70d8\u7119\u5496\u5561\u5c4b(\u660e\u83ef\u8def)","city":"kaohsiung","wifi":0,"seat":0,"quiet":0,"tasty":0,"cheap":0,"music":0,"url":"","address":"\u9ad8\u96c4\u5e02\u5de6\u71df\u5340\u660e\u83ef\u4e00\u8def5\u865f","latitude":"22.66220960","longitude":"120.31057840","limited_time":"","socket":"","standing_desk":"","mrt":"","open_time":""},{"id":"c16d9cf3-57ae-400b-87b6-2905b04876ff","name":"\u9752\u7530","city":"kaohsiung","wifi":4,"seat":2,"quiet":4,"tasty":4,"cheap":4,"music":5,"url":"https:\/\/www.facebook.com\/SugarAnndc\/","address":"\u65b0\u7530\u8def29\u865f","latitude":"22.62347800","longitude":"120.30757700","limited_time":"","socket":"maybe","standing_desk":"no","mrt":"","open_time":""},{"id":"c1dc6432-2049-46e0-85d7-ea6248bc862d","name":"\u5496\u5561\u6797\u5496\u5561 \u6cb3\u5824\u5e97","city":"kaohsiung","wifi":5,"seat":5,"quiet":5,"tasty":5,"cheap":5,"music":5,"url":"https:\/\/www.facebook.com\/coffeelingcafe\/","address":"\u9ad8\u96c4\u5e02\u4e09\u6c11\u5340\u9f0e\u7965\u885712\u865f","latitude":"22.66507750","longitude":"120.31577930","limited_time":"maybe","socket":"yes","standing_desk":"no","mrt":"","open_time":""},{"id":"c37b4ac3-b98f-4922-a169-e2b0dccdd41f","name":"Betterman Pizza x Coffee ","city":"kaohsiung","wifi":5,"seat":5,"quiet":2,"tasty":5,"cheap":3,"music":5,"url":"https:\/\/www.facebook.com\/betterman265\/","address":"\u9ad8\u96c4\u5e02\u65b0\u8208\u5340\u9ad8\u96c4\u5e02\u65b0\u8208\u5340\u6c11\u751f\u4e00\u8def265\u865f","latitude":"22.62717500","longitude":"120.30724300","limited_time":"","socket":"","standing_desk":"","mrt":"","open_time":""},{"id":"c4e3176f-bd57-41ed-bda1-00e4b25d44fb","name":"LA MAISON BERRY \u8c9d\u745e\u5bb6 \u5de8\u86cb\u5e97","city":"kaohsiung","wifi":0,"seat":0,"quiet":0,"tasty":0,"cheap":0,"music":0,"url":"https:\/\/www.lamaisonberry.com\/","address":"\u5de6\u71df\u5340\u65b0\u838a\u4ed4\u8def614\u865f","latitude":"22.66926800","longitude":"120.30648800","limited_time":"maybe","socket":"","standing_desk":"","mrt":"R14\u5de8\u86cb","open_time":""},{"id":"c52350b1-d25d-4f15-901e-53df79799564","name":"\u745f\u62c9\u5a01","city":"kaohsiung","wifi":5,"seat":5,"quiet":3.5,"tasty":4.5,"cheap":5,"music":4.5,"url":"https:\/\/www.facebook.com\/cestlavie2232633\/","address":"\u9ad8\u96c4\u5e02\u6c11\u65cf\u4e8c\u8def66\u865f","latitude":"22.63251800","longitude":"120.31373800","limited_time":"","socket":"maybe","standing_desk":"no","mrt":"\u4fe1\u7fa9\u570b\u5c0f\u4e94\u865f\u51fa\u53e3\uff0c\u8d70\u8def\u7d045\u5206","open_time":""},{"id":"c52c92e5-cec4-42e9-aa8d-7231916fba38","name":"\u611b\u502b\u624b\u611f\u70d8\u7119\u3001\u5496\u5561-\u5927\u793e\u65d7\u8266\u5e97","city":"kaohsiung","wifi":1,"seat":3,"quiet":3,"tasty":5,"cheap":5,"music":5,"url":"https:\/\/www.facebook.com\/allen.cake\/","address":"\u9ad8\u96c4\u5e02\u5927\u793e\u5340\u4e2d\u5c71\u8def223\u4e4b1\u30012\u865f","latitude":"22.73191370","longitude":"120.34776820","limited_time":"no","socket":"no","standing_desk":"yes","mrt":"","open_time":"\u4e0a\u534808\uff1a00\u81f3\u4e0b\u534823\uff1a00"},{"id":"c7b2aa7a-ad0f-4cd9-8069-186fb7ff26d2","name":"HWC \u9ed1\u6c83\u5496\u5561\uff08\u9ad8\u96c4\u9ad8\u91ab\u5e97\uff09","city":"kaohsiung","wifi":5,"seat":5,"quiet":4,"tasty":5,"cheap":5,"music":4,"url":"https:\/\/www.hwcroasters.com","address":"80782 \u9ad8\u96c4\u5e02\u4e09\u6c11\u5340\u6b63\u5fe0\u8def228-1\u865f","latitude":"22.64606680","longitude":"120.33032280","limited_time":"no","socket":"maybe","standing_desk":"no","mrt":"","open_time":""},{"id":"c91aa4c7-d50c-4fae-8576-9fae346ab541","name":"\u5496\u5561\u9019\u4ef6\u4e8b","city":"kaohsiung","wifi":5,"seat":4,"quiet":5,"tasty":5,"cheap":4,"music":5,"url":"\u5496\u5561\u9019\u4ef6\u4e8b","address":"\u9ad8\u96c4\u5e02\u5de6\u71df\u5340\u83ef\u590f\u8def262\u865f","latitude":"22.67063800","longitude":"120.29719000","limited_time":"maybe","socket":"yes","standing_desk":"no","mrt":"","open_time":""},{"id":"c9246d43-3b83-4abe-a255-12887dc1550f","name":"\u91d1\u9328\u5496\u5561","city":"kaohsiung","wifi":0,"seat":0,"quiet":0,"tasty":0,"cheap":0,"music":0,"url":"","address":"\u9ad8\u96c4\u5e02\u65b0\u8208\u5340\u5c1a\u7fa9\u8857113\u865f","latitude":"22.63100200","longitude":"120.31522100","limited_time":"","socket":"","standing_desk":"","mrt":"","open_time":""},{"id":"c933b393-0cc4-4e93-bad7-36d61a0d783f","name":"Room 71 Cafe","city":"kaohsiung","wifi":5,"seat":5,"quiet":5,"tasty":5,"cheap":5,"music":5,"url":"https:\/\/m.facebook.com\/room71cafe\/","address":"\u9ad8\u96c4\u5e02\u65b0\u8208\u5340\u516d\u5408\u4e00\u8def71\u865f","latitude":"22.63252080","longitude":"120.30724840","limited_time":"no","socket":"yes","standing_desk":"yes","mrt":"","open_time":""},{"id":"c98c017e-38af-40e0-a471-33461761c378","name":"\u84ee\u8cb4\u85dd\u6587\u5496\u5561\u9928","city":"kaohsiung","wifi":0,"seat":0,"quiet":0,"tasty":0,"cheap":0,"music":0,"url":"","address":"\u9ad8\u96c4\u5e02\u65b0\u8208\u5340\u6cb3\u5357\u4e00\u8def119\u865f","latitude":"22.63646900","longitude":"120.30313280","limited_time":"","socket":"","standing_desk":"","mrt":"","open_time":""},{"id":"ca21c60f-e470-4a92-ac0b-5d797fc7c4ca","name":"\u8000cafe","city":"kaohsiung","wifi":5,"seat":4.5,"quiet":5,"tasty":5,"cheap":4.5,"music":5,"url":"https:\/\/www.facebook.com\/YaoCafeYaoCafe\/","address":"\u9ad8\u96c4\u5e02\u6960\u6893\u5340\u6176\u660c\u885711\u5df718\u865f","latitude":"22.71104490","longitude":"120.29629920","limited_time":"no","socket":"maybe","standing_desk":"yes","mrt":"\u6cb9\u5ee0\u570b\u5c0f","open_time":""},{"id":"cac47c0f-1979-4f7c-9c9c-904331bac535","name":"\u5bae\u524d\u5496\u5561","city":"kaohsiung","wifi":5,"seat":0,"quiet":0,"tasty":5,"cheap":5,"music":0,"url":"https:\/\/goo.gl\/6H2HbG","address":"\u9ad8\u96c4\u5e02\u65b0\u8208\u5340\u7403\u5ead\u8def79\u865f","latitude":"22.63034600","longitude":"120.30357740","limited_time":"no","socket":"no","standing_desk":"no","mrt":"\u7f8e\u9e97\u5cf6","open_time":"AM10:00~PM08:00"},{"id":"cb257154-2405-457d-bc6e-7b946f7ff04b","name":"oracle coffee\u795e\u8aed\u5496\u5561","city":"kaohsiung","wifi":4.5,"seat":5,"quiet":4.5,"tasty":5,"cheap":4,"music":4.5,"url":"https:\/\/www.facebook.com\/Oracle7272672\/","address":"\u9ad8\u96c4\u5e02\u65b0\u8208\u5340\u5927\u540c\u4e00\u8def103\u865f","latitude":"22.62887470","longitude":"120.30381520","limited_time":"no","socket":"maybe","standing_desk":"no","mrt":"","open_time":""},{"id":"cb39e4df-1d7d-4a63-9b8b-7dad8aedcf45","name":"FANs cafe","city":"kaohsiung","wifi":5,"seat":4,"quiet":3,"tasty":4,"cheap":5,"music":5,"url":"https:\/\/www.facebook.com\/fanscafekh\/","address":"\u9ad8\u96c4\u5e02\u6960\u6893\u5340\u571f\u5eab\u4e00\u8def158\u865f","latitude":"22.73641810","longitude":"120.32972000","limited_time":"maybe","socket":"maybe","standing_desk":"no","mrt":"","open_time":""},{"id":"cb848021-63f7-401c-a385-0c1572fbcfeb","name":"\u99ac\u4fee\u5496\u5561\u00b7\u5eda\u623f","city":"kaohsiung","wifi":5,"seat":3,"quiet":3,"tasty":4,"cheap":3.5,"music":4,"url":"https:\/\/m.facebook.com\/matther.cafe.kitchen\/?locale2=zh_TW","address":"\u9ad8\u96c4\u5e02\u9f13\u5c71\u5340\u5927\u9806\u4e00\u8def925\u865f","latitude":"22.65482830","longitude":"120.29829060","limited_time":"no","socket":"maybe","standing_desk":"yes","mrt":"\u51f9\u5b50\u5e95\u7ad9(R13)","open_time":""},{"id":"cb9f780a-5f91-4acc-b12e-1d4e5c9b97a6","name":"\u597d\u4e45\u4e0d\u898b \u2022 \u5496\u5561","city":"kaohsiung","wifi":5,"seat":3,"quiet":4,"tasty":4,"cheap":5,"music":5,"url":"https:\/\/www.facebook.com\/pages\/category\/Coffee-Shop\/%E5%A5%BD%E4%B9%85%E4%B8%8D%E8%A6%8B%E5%92%96%E5%95%A1-2481470691903422\/","address":"\u9ad8\u96c4\u5e02\u82d3\u96c5\u5340\u6797\u6cc9\u8857108\u865f","latitude":"22.62254900","longitude":"120.31645700","limited_time":"no","socket":"maybe","standing_desk":"no","mrt":"","open_time":""},{"id":"cc1ff80d-b71f-4bf0-8002-4a5a8024f7bb","name":"\u8208\u8da3xsimtree","city":"kaohsiung","wifi":4,"seat":4,"quiet":1,"tasty":3,"cheap":3,"music":4,"url":"https:\/\/www.facebook.com\/simtree.tw\/","address":"\u9ad8\u96c4\u5e02\u65b0\u8208\u5340\u4e2d\u6b63\u4e09\u8def73\u865f","latitude":"22.63084420","longitude":"120.30749470","limited_time":"no","socket":"maybe","standing_desk":"yes","mrt":"\u4fe1\u7fa9\u570b\u5c0f","open_time":""},{"id":"cca961a6-296c-444a-a850-834a2dbeb019","name":"\u548c\u3002\u597d\u73c8\u7432\u5e97","city":"kaohsiung","wifi":5,"seat":4,"quiet":5,"tasty":5,"cheap":4,"music":5,"url":"https:\/\/www.facebook.com\/hhcafe\/","address":"\u9ad8\u96c4\u5e02\u4e09\u6c11\u5340\u8208\u9686\u885721\u865f","latitude":"22.64703800","longitude":"120.31909200","limited_time":"no","socket":"maybe","standing_desk":"no","mrt":"","open_time":"\u9031\u4e8c\u5230\u9031\u65e509:00-18:00"},{"id":"cda888fd-7d0f-4d0b-8311-d8c3bf266000","name":"\u5927\u885b\u5496\u5561\u6587\u5b57\u5e97","city":"kaohsiung","wifi":3,"seat":5,"quiet":4,"tasty":5,"cheap":5,"music":4,"url":"https:\/\/www.facebook.com\/carwashfun\/","address":"\u9ad8\u96c4\u5e02\u5de6\u71df\u5340\u6587\u81ea\u8def99\u865f","latitude":"22.67178820","longitude":"120.30631860","limited_time":"","socket":"yes","standing_desk":"","mrt":"","open_time":""},{"id":"cf964ccd-ac85-4997-a16f-bfb4bcd0f3c5","name":"Dmore Coffee \u9054\u58a8\u723e\u5496\u5561","city":"kaohsiung","wifi":5,"seat":5,"quiet":5,"tasty":5,"cheap":5,"music":5,"url":"","address":"\u9ad8\u96c4\u5e02\u9e7d\u57d5\u5340\u5fc5\u5fe0\u885719\u865f","latitude":"22.61983890","longitude":"120.28842200","limited_time":"no","socket":"maybe","standing_desk":"no","mrt":"","open_time":""},{"id":"cfe837d0-ba27-4174-ac21-64fdfdd4f5ff","name":"Lab Library","city":"kaohsiung","wifi":5,"seat":4.5,"quiet":5,"tasty":3,"cheap":3,"music":5,"url":"https:\/\/www.facebook.com\/Lablibrarycafe\/?fref=ts","address":"\u9ad8\u96c4\u5e02\u524d\u93ae\u5340\u65b0\u5149\u8def61\u865f3\u6a13","latitude":"22.61029840","longitude":"120.30195670","limited_time":"no","socket":"no","standing_desk":"yes","mrt":"\u4e09\u591a\u5546\u5708\u7ad92\u865f\u51fa\u53e3\u6b6510\u5206 \u8f15\u8ecc\u9ad8\u96c4\u5c55\u89bd\u9928\u7ad9\u6b657\u5206\/\u516c\u8eca\u7ad9\"\u5716\u66f8\u7e3d\u9928\"\u524d ''\u65b0\u5149\u8def\u53e3(\u5716\u66f8\u7e3d\u9928)''\u6b653\u5206, ''\u9ad8\u96c4\u5c55\u89bd\u9928''\u6b656\u5206\/CityBike\"\u5716\u66f8\u7e3d\u9928\"\u7ad9\u524d","open_time":""},{"id":"d041396e-0fe4-4c30-b801-cade4ac7e599","name":"Freedom \u5496\u5561BAR","city":"kaohsiung","wifi":0,"seat":5,"quiet":5,"tasty":4,"cheap":4,"music":4,"url":"","address":"\u9ad8\u96c4\u5e02\u535a\u611b\u4e00\u8def192-1\u865f","latitude":"22.64672130","longitude":"120.30348060","limited_time":"maybe","socket":"yes","standing_desk":"no","mrt":"","open_time":"11:00~24:00"},{"id":"d1e00731-cf13-4aaf-af83-8855b87f89ae","name":"\u999e\u5496\u5561 \u5149\u83ef\u5e97","city":"kaohsiung","wifi":4,"seat":5,"quiet":5,"tasty":5,"cheap":4,"music":5,"url":"https:\/\/www.facebook.com\/balmy.cafe\/","address":"\u9ad8\u96c4\u5e02\u82d3\u96c5\u5340\u5149\u83ef\u4e00\u8def207\u865f","latitude":"22.62347000","longitude":"120.31556500","limited_time":"no","socket":"yes","standing_desk":"no","mrt":"\u4fe1\u7fa9\u570b\u5c0f\u7ad94\u865f\u51fa\u53e3\u6b6514\u5206 \u6587\u5316\u4e2d\u5fc3\u7ad92\u865f\u51fa\u53e3\u6b6515\u5206\/\u516c\u8eca\u7ad9\"\u9752\u5e74\u8def\u53e3(\u5149\u83ef\u4e00\u8def)\"\u6b651\u5206, \"\u5149\u83ef\u8def\u53e3(\u56db\u7dad\u4e8c\u8def)\"\u6b655\u5206, \"\u56db\u7dad\u570b\u5c0f(\u6c11\u6b0a\u4e00\u8def)\"\u6b656\u5206\/CityBike\"\u6587\u5316\u4e2d\u5fc3\"\u7ad9\u6b655\u5206","open_time":""},{"id":"d214c05b-13f9-475c-aa3e-4db911d437a9","name":"\u6cca\u5496\u5561 Theo Coffee","city":"kaohsiung","wifi":0,"seat":0,"quiet":0,"tasty":0,"cheap":0,"music":0,"url":"https:\/\/www.facebook.com\/KaohsiungTheoCoffee\/","address":"\u9ad8\u96c4\u5e02\u5de6\u71df\u5340\u7fe0\u5cf0\u8def16\u865f","latitude":"22.67139320","longitude":"120.28972520","limited_time":"","socket":"","standing_desk":"","mrt":"","open_time":""},{"id":"d26c7411-dc43-4fa3-8006-ea81e7c56c46","name":"\u5408\u65e5\u5496\u5561","city":"kaohsiung","wifi":0,"seat":5,"quiet":3,"tasty":5,"cheap":4,"music":2,"url":"https:\/\/www.facebook.com\/hericafe409\/","address":"\u9ad8\u96c4\u5e02\u5de6\u71df\u5340\u6587\u5f37\u8def409\u865f","latitude":"22.67695190","longitude":"120.30944190","limited_time":"no","socket":"no","standing_desk":"no","mrt":"","open_time":""},{"id":"d28fc611-6456-4922-bad5-3e7f20e8a1e0","name":"Reel_\u6728\u8ef8\u5496\u5561\u9928","city":"kaohsiung","wifi":5,"seat":4,"quiet":5,"tasty":5,"cheap":5,"music":5,"url":"https:\/\/www.facebook.com\/Reelcoffeespace\/","address":"\u9ad8\u96c4\u5e02\u4e09\u6c11\u5340\u5929\u6c11\u8def11\u865f","latitude":"22.64331300","longitude":"120.34563800","limited_time":"no","socket":"maybe","standing_desk":"no","mrt":"N\/A","open_time":"09:30-20:00\uff0c\u9031\u4e09\u516c\u4f11"},{"id":"d29db7ac-4e7d-4cb2-9d24-6054f64dd287","name":"#Space Cafe'","city":"kaohsiung","wifi":5,"seat":5,"quiet":5,"tasty":5,"cheap":4,"music":5,"url":"","address":"\u9ad8\u96c4\u5e02\u65b0\u8208\u5340\u6c11\u4eab\u885788\u865f","latitude":"22.62209530","longitude":"120.30533560","limited_time":"no","socket":"yes","standing_desk":"no","mrt":"","open_time":""},{"id":"d44ee072-5a42-46b2-90ed-a2eca8ef8c5f","name":"\u96fb\u5546\u5496\u5561\u9ad8\u96c4\u9e7d\u57d5\u5e97","city":"kaohsiung","wifi":3,"seat":4.5,"quiet":3,"tasty":3,"cheap":3,"music":3,"url":"","address":"\u9ad8\u96c4\u5e02\u9e7d\u57d5\u5340\u5927\u52c7\u8def98\u865f","latitude":"22.62459120","longitude":"120.28440900","limited_time":"no","socket":"maybe","standing_desk":"no","mrt":"\u5df2\u6b47\u696d","open_time":"\u5df2\u6b47\u696d"},{"id":"d895792f-1826-4805-b8b6-3b3b04fa309d","name":"\u53f0\u7063\u58f9\u54c1\u5496\u5561","city":"kaohsiung","wifi":0,"seat":0,"quiet":0,"tasty":0,"cheap":0,"music":0,"url":"https:\/\/www.facebook.com\/pages\/category\/Coffee-Shop\/%E5%8F%B0%E7%81%A3%E5%A3%B9%E5%93%81%E5%92%96%E5%95%A1-175371296700742\/","address":"\u9ad8\u96c4\u5e02\u5de6\u71df\u5340\u84ee\u6f6d\u8def40\u865f","latitude":"22.68264180","longitude":"120.29257420","limited_time":"","socket":"","standing_desk":"","mrt":"","open_time":""},{"id":"db4c9ee4-1c17-4605-bb00-f208d9f9bfd5","name":"\u5149\u4e95\u5496\u5561","city":"kaohsiung","wifi":5,"seat":5,"quiet":5,"tasty":5,"cheap":5,"music":5,"url":"https:\/\/www.facebook.com\/%E5%85%89%E4%BA%95%E5%92%96%E5%95%A1-Wellight-Coffee-308913679242263\/","address":"\u9ad8\u96c4\u5e02\u5ca1\u5c71\u5340\u7dad\u4ec1\u8def30\u5df76\u865f","latitude":"22.79242650","longitude":"120.29303970","limited_time":"","socket":"no","standing_desk":"yes","mrt":"\u53f0\u9435\u5ca1\u5c71\u7ad9\u6b659\u5206\/\u516c\u8eca\u7ad9\"\u5ca1\u5c71\u570b\u5c0f\"\u6b654\u5206, ''\u79fb\u6c11\u7f72''''\u5ca1\u5c71\u90f5\u5c40''\u6b656\u5206\/CityBike\"\u5ca1\u5c71\u5fe0\u5b5d\u91cc\"\u7ad9\u6b656\u5206","open_time":""},{"id":"de8add79-1448-4894-b7a6-d0b4b8ee0424","name":"\u5496\u5561\u5e73\u65b9\u5de6\u71df\u81ea\u7531\u5e97","city":"kaohsiung","wifi":4,"seat":5,"quiet":4,"tasty":4,"cheap":5,"music":3,"url":"https:\/\/www.facebook.com\/%E5%92%96%E5%95%A1%E5%B9%B3%E6%96%B9-%E5%B7%A6%E7%87%9F%E8%87%AA%E7%94%B1%E5%BA%97-595095634020891\/","address":"\u9ad8\u96c4\u5e02\u5de6\u71df\u5340\u81ea\u7531\u4e8c\u8def109\u865f","latitude":"22.65914300","longitude":"120.30865300","limited_time":"maybe","socket":"no","standing_desk":"yes","mrt":"\u51f9\u5b50\u5e95","open_time":""},{"id":"dfa64265-0428-4dd1-8d16-72af9668308c","name":"Lab 146","city":"kaohsiung","wifi":3,"seat":3.5,"quiet":3.5,"tasty":4,"cheap":3.5,"music":4,"url":"https:\/\/www.facebook.com\/lab146cafe\/","address":"\u9ad8\u96c4\u5e02\u524d\u91d1\u5340\u4e2d\u6b63\u56db\u8def146\u865f","latitude":"22.62990300","longitude":"120.29692810","limited_time":"","socket":"","standing_desk":"no","mrt":"","open_time":""},{"id":"e374746d-4a44-4470-92e9-2415c38f42f1","name":"\u6a02\u5ba2\u98df\u54c1\u884c","city":"kaohsiung","wifi":5,"seat":5,"quiet":5,"tasty":5,"cheap":5,"music":5,"url":"https:\/\/m.facebook.com\/pg\/Lecocoffee\/posts\/","address":"\u9ad8\u96c4\u5e02\u82d3\u96c5\u5340\u5efa\u570b\u4e00\u8def139-8\u865f","latitude":"22.63231400","longitude":"120.33018660","limited_time":"no","socket":"maybe","standing_desk":"yes","mrt":"","open_time":""},{"id":"e3c95f99-1a38-419f-8dcd-b4add0c0cb24","name":"\u4f867\u865f\u5496\u5561","city":"kaohsiung","wifi":0,"seat":0,"quiet":5,"tasty":4,"cheap":4,"music":0,"url":"https:\/\/www.facebook.com\/no7cafe\/","address":"\u9ad8\u96c4\u5e02\u9cf3\u5c71\u5340\u570b\u5149\u8def7\u865f","latitude":"22.61812610","longitude":"120.35372300","limited_time":"no","socket":"maybe","standing_desk":"no","mrt":"\u9cf3\u5c71\u7ad9\u3001\u9cf3\u5c71\u897f\u7ad9","open_time":"10:00-19:00"},{"id":"e3f76fc8-7150-4ebe-8305-4ae906591505","name":"\u9ed1\u9ed1\u9ed1\u5496\u5561","city":"kaohsiung","wifi":5,"seat":5,"quiet":2,"tasty":5,"cheap":4,"music":4,"url":"https:\/\/www.facebook.com\/BLACKx3CafexGangShan\/","address":"\u9ad8\u96c4\u5e02\u5ca1\u5c71\u5340\u67f3\u6a4b\u897f\u8def1\u865f","latitude":"22.79007200","longitude":"120.29001200","limited_time":"no","socket":"maybe","standing_desk":"no","mrt":"","open_time":""},{"id":"e4f947d6-5414-4332-bc6f-354112e076c8","name":"\u5361\u5561\u90a3\u7f8e\u8853\u9928\u5e97","city":"kaohsiung","wifi":5,"seat":5,"quiet":3,"tasty":4,"cheap":4,"music":4,"url":"","address":"804\u9ad8\u96c4\u5e02\u9f13\u5c71\u5340\u7f8e\u8853\u6771\u4e8c\u8def3\u865f","latitude":"22.65114630","longitude":"120.28760330","limited_time":"no","socket":"maybe","standing_desk":"no","mrt":"","open_time":""},{"id":"e52f2293-92fe-4773-88b2-ecf7e32455b1","name":"\u6709\u3002\u5496\u5561","city":"kaohsiung","wifi":5,"seat":4,"quiet":5,"tasty":5,"cheap":5,"music":5,"url":"https:\/\/www.facebook.com\/rruyocafe\/","address":"\u9ad8\u96c4\u5e02\u82d3\u96c5\u5340\u4e2d\u6b63\u4e8c\u8def56\u5df711\u865f","latitude":"0.00000000","longitude":"0.00000000","limited_time":"maybe","socket":"no","standing_desk":"no","mrt":"","open_time":""},{"id":"e53ecc8c-f48e-422e-b3ed-507b53300970","name":"G Coffee ","city":"kaohsiung","wifi":5,"seat":4,"quiet":5,"tasty":5,"cheap":5,"music":5,"url":"www.facebook.com.tw\/GCoffeeKHH","address":"\u9ad8\u96c4\u5e02\u9cf3\u5c71\u5340\u5927\u6771\u4e8c\u8def92\u865f","latitude":"22.61905700","longitude":"120.35886200","limited_time":"maybe","socket":"maybe","standing_desk":"no","mrt":"","open_time":"\u5982\u6709\u53e6\u4f11\u6703\u516c\u544a"},{"id":"e63d775d-7914-4f21-bb35-a2438b8191ec","name":"KBSCA","city":"kaohsiung","wifi":0,"seat":0,"quiet":0,"tasty":0,"cheap":0,"music":0,"url":"","address":"\u9ad8\u96c4\u5e02\u5869\u57d5\u5340\u5e9c\u5317\u8def27\u4e4b2\u865f","latitude":"22.62815280","longitude":"120.28570440","limited_time":"","socket":"","standing_desk":"","mrt":"","open_time":""},{"id":"e752712f-113f-4b9f-91c5-a6a7565b1894","name":"\u7235\u54c1\u5496\u5561","city":"kaohsiung","wifi":0,"seat":5,"quiet":4,"tasty":5,"cheap":4,"music":5,"url":"https:\/\/www.facebook.com\/%E7%88%B5%E5%93%81%E5%92%96%E5%95%A1-313543022017911\/","address":"\u9ad8\u96c4\u5e02\u82d3\u96c5\u5340\u6b66\u6176\u4e09\u8def81\u865f","latitude":"22.62136000","longitude":"120.33156900","limited_time":"","socket":"no","standing_desk":"","mrt":"","open_time":""},{"id":"e790aa4f-1d6b-41ab-b32e-3ebf5e5234d9","name":"\u69cb\u7b51\u5496\u5561 weave cafe","city":"kaohsiung","wifi":0,"seat":5,"quiet":4,"tasty":5,"cheap":4.5,"music":4.5,"url":"http:\/\/fb.me\/weavecoffee","address":"\u9ad8\u96c4\u5e02\u5de6\u71df\u5340\u6c11\u65cf\u4e00\u8def909\u865f","latitude":"22.68126400","longitude":"120.31932100","limited_time":"no","socket":"","standing_desk":"","mrt":"","open_time":""},{"id":"e7da8642-1701-44f4-85ab-d964b185ca6b","name":"\u4e94\u91d1\u5496\u5561","city":"kaohsiung","wifi":5,"seat":5,"quiet":4,"tasty":5,"cheap":5,"music":5,"url":"https:\/\/www.facebook.com\/5Ghardwarecoffee\/","address":"\u9ad8\u96c4\u5dff\u6893\u5b98\u5340\u5927\u820d\u5317\u8def38\u865f","latitude":"22.74835400","longitude":"120.26145410","limited_time":"no","socket":"no","standing_desk":"yes","mrt":"","open_time":"0700-1700"},{"id":"e8a6ce4a-00bd-45fe-874f-4f195bf66917","name":"MINI.D COFFEE \u660e\u502b\u9928","city":"kaohsiung","wifi":5,"seat":5,"quiet":4,"tasty":5,"cheap":5,"music":5,"url":"https:\/\/www.facebook.com\/MINIDCOFFEE\/","address":"804060\u9ad8\u96c4\u5e02\u9f13\u5c71\u5340\u660e\u502b\u8def141\u865f","latitude":"22.66507230","longitude":"120.29819950","limited_time":"no","socket":"yes","standing_desk":"no","mrt":"","open_time":""},{"id":"e8f2a433-4d29-4ccb-a1ee-30f3ff52622e","name":"KAFEi \u73c8\u54c1\u5496\u5561-\u5efa\u570b\u5e97","city":"kaohsiung","wifi":5,"seat":5,"quiet":5,"tasty":4.5,"cheap":5,"music":5,"url":"https:\/\/www.facebook.com\/kafei7226990\/","address":"\u9ad8\u96c4\u5e02\u82d3\u96c5\u5340\u5efa\u570b\u4e00\u8def137-5\u865f","latitude":"22.63207410","longitude":"120.33090010","limited_time":"no","socket":"maybe","standing_desk":"no","mrt":"\u6a58\u7dda5\u584a\u539d6\u865f\u51fa\u53e3\u51fa\u4f86\u76f4\u8d70 \u27a1\ufe0f\u770b\u5230\u6b63\u8a00\u8def\u5de6\u8f49 \u27a1\ufe0f\u6b63\u8a00\u8def\u76f4\u8d70\u5230\u5efa\u570b\u4e00\u8def \u27a1\ufe0f\u770b\u5230\u9f0e\u5c71\u81ea\u52a9\u9910\u53f3\u8f49 \u27a1\ufe0f\u300eKAFEi\u73c8\u54c1\u300f\u5c31\u5728\u81ea\u52a9\u9910\u9694\u58c1","open_time":""},{"id":"e9cae906-cc12-4260-aa47-40c8dad15e6a","name":"\u62c9\u8309\u5496\u5561 Lamore coffee","city":"kaohsiung","wifi":0,"seat":0,"quiet":0,"tasty":0,"cheap":0,"music":0,"url":"","address":"\u9ad8\u96c4\u5e02\u5de6\u71df\u5340\u84ee\u6f6d\u8def18\u865f","latitude":"22.68276150","longitude":"120.29196580","limited_time":"","socket":"","standing_desk":"","mrt":"","open_time":""},{"id":"ea2862bf-4591-4ba3-87ec-97a8ce945b1e","name":"\u6cee\u5496\u5561","city":"kaohsiung","wifi":4,"seat":4,"quiet":4,"tasty":4,"cheap":4,"music":5,"url":"https:\/\/m.facebook.com\/PAMMACoffee\/","address":"\u9ad8\u96c4\u5e02\u5de6\u71df\u5340\u84ee\u6f6d\u8def400\u865f\u5357\u5074","latitude":"22.68923860","longitude":"120.29904170","limited_time":"no","socket":"yes","standing_desk":"yes","mrt":"","open_time":"10:00-24:00"},{"id":"ea29c35f-b420-4312-b73c-2ee240bf6101","name":"PiNNCafe \u54c1\uff0e\u5496\u5561","city":"kaohsiung","wifi":5,"seat":4.5,"quiet":5,"tasty":5,"cheap":4,"music":4,"url":"https:\/\/www.facebook.com\/PiNNCafe\/","address":"\u9ad8\u96c4\u5e02\u5de6\u71df\u5340\u65b0\u5e84\u4ed4\u8def704\u865f","latitude":"22.66887100","longitude":"120.30851950","limited_time":"yes","socket":"maybe","standing_desk":"yes","mrt":"","open_time":""},{"id":"ea3fe515-8664-4861-8333-e7d43c51aea1","name":"Bunny Walking Coffee","city":"kaohsiung","wifi":0,"seat":0,"quiet":0,"tasty":0,"cheap":0,"music":0,"url":"","address":"\u9ad8\u96c4\u5e02\u5de6\u71df\u5340\u6587\u5f37\u8def33\u865f","latitude":"22.67301400","longitude":"120.30511900","limited_time":"","socket":"","standing_desk":"","mrt":"","open_time":""},{"id":"eb3f37d6-1fa8-4dd5-9c1f-886c38a3f23f","name":"MAD","city":"kaohsiung","wifi":5,"seat":5,"quiet":3,"tasty":4,"cheap":2,"music":5,"url":"https:\/\/www.facebook.com\/MAD073555711\/","address":"\u9ad8\u96c4\u5e02\u6960\u6893\u5340\u571f\u5eab\u4e09\u8def215\u865f","latitude":"22.73929350","longitude":"120.32818610","limited_time":"no","socket":"maybe","standing_desk":"no","mrt":"","open_time":""},{"id":"ec44fd55-aa51-4f49-8a72-58391a6d2b86","name":"\u8def\u4eba\u5496\u55613\u865f\u5e97","city":"kaohsiung","wifi":5,"seat":4.5,"quiet":4,"tasty":5,"cheap":5,"music":5,"url":"https:\/\/www.facebook.com\/ruhcafeno.3\/","address":"\u9ad8\u96c4\u5e02\u4e09\u6c11\u5340\u5929\u6d25\u8def253\u865f","latitude":"22.64559880","longitude":"120.30096230","limited_time":"maybe","socket":"yes","standing_desk":"no","mrt":"\u5f8c\u9a5b\u7ad94\u865f\u51fa\u53e3\uff0c\u6b65\u884c\u7d045\u5206","open_time":""},{"id":"ee1d30f4-1692-4694-a675-8b51d7e48fdf","name":"\u9b32\u79bb\u5496\u5561\u9928","city":"kaohsiung","wifi":4.5,"seat":4,"quiet":4,"tasty":1,"cheap":1,"music":4,"url":"https:\/\/www.facebook.com\/GELIcoffee\/","address":"\u9ad8\u96c4\u5e02\u5de6\u71df\u5340\u65b0\u4e0a\u8857253\u865f","latitude":"22.66901140","longitude":"120.30599210","limited_time":"","socket":"yes","standing_desk":"yes","mrt":"","open_time":""},{"id":"eea53a69-5849-45ee-aae9-55f9ffdc7b86","name":"\u632a\u5a01\u68ee\u6797\u5496\u5561\u9928","city":"kaohsiung","wifi":4,"seat":4,"quiet":4,"tasty":4,"cheap":4,"music":4,"url":"https:\/\/www.facebook.com\/%E6%8C%AA%E5%A8%81%E6%A3%AE%E6%9E%97%E5%92%96%E5%95%A1%E9%A4%A8-354151644700977\/","address":"\u9ad8\u96c4\u5e02\u4e09\u6c11\u5340\u4e5d\u5982\u4e8c\u8def512\u865f","latitude":"22.64172800","longitude":"120.29785700","limited_time":"","socket":"maybe","standing_desk":"no","mrt":"\u53f0\u9435\u9ad8\u96c4\u7ad9\/\u53f0\u9435\u4e09\u584a\u539d\u7ad9\/\u6377\u904b\u9ad8\u96c4\u8eca\u7ad9","open_time":""},{"id":"eec936a1-9689-4904-945f-9ed6aead0ab0","name":"\u6642\u523b\u5496\u5561","city":"kaohsiung","wifi":5,"seat":5,"quiet":5,"tasty":4,"cheap":3,"music":5,"url":"https:\/\/www.facebook.com\/CafeDeTiming\/","address":"\u9ad8\u96c4\u5e02\u524d\u91d1\u5340\u80b2\u624d\u88574\u865f","latitude":"22.63216900","longitude":"120.29698600","limited_time":"no","socket":"maybe","standing_desk":"no","mrt":"","open_time":""},{"id":"ef43c443-6d44-45a4-b527-c9e3177ff41a","name":"\u7f85\u65af\u6735\u3002\u6674\u5929\u73fe\u70d8\u5496\u5561","city":"kaohsiung","wifi":3,"seat":4,"quiet":3,"tasty":3.5,"cheap":4.5,"music":3,"url":"https:\/\/www.facebook.com\/sunnyday.cafe.roaster\/","address":"\u9ad8\u96c4\u5e02\u82d3\u96c5\u5340\u5ee3\u5dde\u4e00\u8857143-5\u865f(\u6587\u5316\u4e2d\u5fc3\u897f\u5074\u9580)","latitude":"22.62517240","longitude":"120.31663940","limited_time":"no","socket":"no","standing_desk":"no","mrt":"\u6587\u5316\u4e2d\u5fc3\u7ad92\u865f\u51fa\u53e3\u6b6510\u5206","open_time":""},{"id":"f08bf341-e387-47ff-8628-16f4ff8e7373","name":"36\u5473\u5496\u5561\u9928","city":"kaohsiung","wifi":5,"seat":5,"quiet":4.5,"tasty":5,"cheap":4,"music":4,"url":"https:\/\/www.facebook.com\/36%E5%91%B3%E5%92%96%E5%95%A1%E9%A4%A8%E8%87%AA%E5%AE%B6%E7%85%8E%E7%84%99-137578109645701\/","address":"\u9ad8\u96c4\u5e02\u4e09\u6c11\u5340\u6b63\u8208\u8def74\u865f","latitude":"22.64573510","longitude":"120.32123390","limited_time":"","socket":"yes","standing_desk":"yes","mrt":"","open_time":""},{"id":"f1ad08ff-70ba-4992-8f8c-5e70407269e4","name":"\u5143\u6975CAF'E","city":"kaohsiung","wifi":0,"seat":0,"quiet":0,"tasty":0,"cheap":0,"music":0,"url":"","address":"\u9ad8\u96c4\u5e02\u6960\u6893\u5340\u571f\u5eab\u4e00\u8def232\u865f","latitude":"22.73658410","longitude":"120.32854840","limited_time":"","socket":"","standing_desk":"","mrt":"","open_time":""},{"id":"f41118b2-3a02-47b9-8626-1e1e315e3ecf","name":"Cafe\u7a2e\u5b50\u5c4b","city":"kaohsiung","wifi":4,"seat":5,"quiet":5,"tasty":5,"cheap":5,"music":5,"url":"","address":"\u9ad8\u96c4\u5e02\u6a4b\u982d\u5340\u6a4b\u982d\u8def125\u865f","latitude":"22.75733510","longitude":"120.31136080","limited_time":"no","socket":"maybe","standing_desk":"","mrt":"","open_time":""},{"id":"f532defc-14aa-412f-b492-2b6be403a0d1","name":"\u8c93\u9b5a\u5496\u5561 Cat&Fish Coffee","city":"kaohsiung","wifi":5,"seat":5,"quiet":5,"tasty":5,"cheap":5,"music":5,"url":"","address":"\u9ad8\u96c4\u5e02\u5de6\u71df\u5340\u6c11\u65cf\u4e00\u8def1012-1\u865f","latitude":"22.68028800","longitude":"120.31956700","limited_time":"","socket":"","standing_desk":"","mrt":"","open_time":""},{"id":"f5595732-a004-4be3-80d5-d46729db363a","name":"O-Ba\u6ce1\u8299\u624b\u6c96\u5496\u5561","city":"kaohsiung","wifi":0,"seat":0,"quiet":0,"tasty":0,"cheap":0,"music":0,"url":"","address":"\u9ad8\u96c4\u5e02\u82d3\u96c5\u5340\u9752\u5e74\u4e00\u8def4\u5df710\u865f","latitude":"22.62507240","longitude":"120.31632070","limited_time":"","socket":"","standing_desk":"","mrt":"","open_time":""},{"id":"f57bf6e7-c0c7-45f7-b3af-3090cd49c2a1","name":"\u5e36\u6211\u53bb\u65c5\u884c","city":"kaohsiung","wifi":0,"seat":0,"quiet":0,"tasty":0,"cheap":0,"music":0,"url":"","address":"\u9ad8\u96c4\u5e02\u9cf3\u5c71\u5340\u5149\u5fa9\u8def171\u865f","latitude":"22.62891670","longitude":"120.35761100","limited_time":"","socket":"","standing_desk":"","mrt":"","open_time":""},{"id":"f5b13736-64d1-4f7d-8672-58a4bea9176d","name":"Artisan Cafe","city":"kaohsiung","wifi":5,"seat":4.5,"quiet":4.5,"tasty":4,"cheap":3,"music":4,"url":"https:\/\/www.facebook.com\/pg\/artisantw\/about\/?tab=page_info","address":"\u9ad8\u96c4\u5e02\u524d\u91d1\u5340\u4ec1\u7fa9\u8857223\u865f","latitude":"22.62036500","longitude":"120.30101600","limited_time":"no","socket":"no","standing_desk":"no","mrt":"\u4e2d\u592e\u516c\u5712","open_time":"12:00-20:00"},{"id":"f820b167-e2fb-437e-bf08-ddc8eb7ec2dd","name":"\u8fb0\u5496\u5561\u9928 (Tatsu Cafe)","city":"kaohsiung","wifi":0,"seat":0,"quiet":0,"tasty":0,"cheap":0,"music":0,"url":"","address":"807\u53f0\u7063\u9ad8\u96c4\u5e02\u4e09\u6c11\u5340\u4e2d\u83ef\u4e8c\u8def369\u865f","latitude":"22.64764700","longitude":"120.29149800","limited_time":"","socket":"","standing_desk":"","mrt":"","open_time":""},{"id":"f83f67cc-f57d-4509-86cf-d921472babc5","name":"\u745e\u798f\u5496\u5561 Revel","city":"kaohsiung","wifi":5,"seat":4,"quiet":3,"tasty":5,"cheap":5,"music":5,"url":"https:\/\/www.facebook.com\/revelcoffeestudio\/","address":"\u9ad8\u96c4\u5e02\u6797\u68ee\u4e09\u8def83\u5df731\u865f1\u6a13","latitude":"22.61222800","longitude":"120.30719200","limited_time":"no","socket":"","standing_desk":"no","mrt":"","open_time":""},{"id":"f88bde66-f0f2-4b20-bf6d-67b5a655dd06","name":"\u8c93\u6b66\u5c07","city":"kaohsiung","wifi":4,"seat":5,"quiet":5,"tasty":4,"cheap":5,"music":4,"url":"https:\/\/www.facebook.com\/pages\/%E8%B2%93%E6%AD%A6%E5%B0%87\/130251404010625?fref=ts","address":"\u9ad8\u96c4\u5e02\u5927\u793e\u5340\u5927\u793e\u8def137\u865f","latitude":"22.73524740","longitude":"120.35361190","limited_time":"","socket":"","standing_desk":"no","mrt":"","open_time":""},{"id":"f91f3299-101a-4d0b-bf20-abe7a64e4317","name":"\u746a\u742a\u6735\u6735","city":"kaohsiung","wifi":4.5,"seat":4,"quiet":4,"tasty":4,"cheap":3,"music":3,"url":"https:\/\/www.facebook.com\/m5372066\/","address":"\u6c11\u6b0a\u4e8c\u8def411\u865f","latitude":"22.61192000","longitude":"120.31363300","limited_time":"maybe","socket":"maybe","standing_desk":"no","mrt":"","open_time":""},{"id":"f94e79ed-b47d-4d8d-ac63-695d2383644b","name":"\u8def\u6613\u838e\u5496\u5561","city":"kaohsiung","wifi":5,"seat":5,"quiet":5,"tasty":5,"cheap":5,"music":5,"url":"https:\/\/www.facebook.com\/louisacoffee20161116\/","address":"\u9ad8\u96c4\u5e02\u6960\u6893\u5340\u5fb7\u60e0\u8def22\u865f","latitude":"22.72576270","longitude":"120.30293470","limited_time":"no","socket":"yes","standing_desk":"yes","mrt":"","open_time":""},{"id":"faa96c24-dd41-4d0a-b8ca-ae2e8ba75176","name":"\u99ac\u53ef\u7684\u5e97\uff5c\u81ea\u5bb6\u70d8\u7119\u5496\u5561","city":"kaohsiung","wifi":5,"seat":3,"quiet":3,"tasty":5,"cheap":3,"music":5,"url":"https:\/\/www.facebook.com\/MarcoCafeKaohsiung\/","address":"\u9ad8\u96c4\u5e02\u4e09\u6c11\u5340\u6b63\u8208\u8def165\u865f","latitude":"22.64670900","longitude":"120.31967400","limited_time":"no","socket":"maybe","standing_desk":"yes","mrt":"","open_time":""},{"id":"fb431907-355b-480f-9416-ce1f0c003841","name":"\u6625\u6b63\u5546\u884c","city":"kaohsiung","wifi":0,"seat":4.5,"quiet":3.5,"tasty":5,"cheap":4,"music":4.5,"url":"","address":"\u9ad8\u96c4\u5e02\u9ce5\u677e\u5340\u672c\u9928\u8def72\u5df711-1\u865f","latitude":"22.65320880","longitude":"120.34094710","limited_time":"","socket":"","standing_desk":"","mrt":"","open_time":""},{"id":"fb8a1692-275e-4305-864c-a4f15cd958d6","name":"\u5ba5\u8b19\u8c46\u884c","city":"kaohsiung","wifi":4,"seat":4,"quiet":5,"tasty":5,"cheap":5,"music":4,"url":"https:\/\/www.facebook.com\/yocheer.coffee\/","address":"\u9ad8\u96c4\u5e02\u5c0f\u6e2f\u5340\u65b0\u660c\u885721\u4e4b26\u865f","latitude":"22.58442700","longitude":"120.36101820","limited_time":"no","socket":"no","standing_desk":"yes","mrt":"\u6377\u904b\u8349\u8859\u7ad9","open_time":""},{"id":"fba3d560-e69b-47cc-82bd-4b441932bc8c","name":"\u6ef4\u6ef4\u5496\u5561 Daily Dose Coffee","city":"kaohsiung","wifi":5,"seat":5,"quiet":5,"tasty":5,"cheap":5,"music":5,"url":"www.facebook.com\/ddcaffee","address":"\u9ad8\u96c4\u5e02\u524d\u91d1\u5340\u4e2d\u6b63\u56db\u8def106\u865f","latitude":"22.63035120","longitude":"120.29822780","limited_time":"no","socket":"no","standing_desk":"yes","mrt":"","open_time":""},{"id":"ff97e646-9e02-4da8-802e-566605ed3c01","name":"\u591a\u90a3\u4e4b\u660e\u8aa0\u5e97","city":"kaohsiung","wifi":0,"seat":5,"quiet":3,"tasty":4,"cheap":3,"music":4,"url":"","address":"813\u53f0\u7063\u9ad8\u96c4\u5e02\u5de6\u71df\u5340\u660e\u8aa0\u4e8c\u8def433\u865f","latitude":"22.66091200","longitude":"120.30638500","limited_time":"no","socket":"no","standing_desk":"yes","mrt":"","open_time":"24\u5c0f\u6642"},{"id":"ffe1b3ce-e239-44cc-b93b-72a1f4982bac","name":"\u54c8\u7dad\u5361","city":"kaohsiung","wifi":4,"seat":4.5,"quiet":4.5,"tasty":5,"cheap":5,"music":4.5,"url":"https:\/\/www.facebook.com\/%E5%93%88%E7%B6%AD%E5%8D%A1%E5%92%96%E5%95%A1%E7%83%98%E7%84%99%E9%A4%A8-481151981913441\/","address":"\u9ad8\u96c4\u5e02\u5de6\u71df\u5340\u6587\u5b88\u8def168\u5df78\u5f041\u865f","latitude":"22.67098310","longitude":"120.31697340","limited_time":"no","socket":"maybe","standing_desk":"no","mrt":"","open_time":""}]}