{"data":[{"id":"06810569-7409-4c91-8f99-898bda126b1a","name":"\u5c0f\u7fa9\u5927\u5229\u5496\u5561 Ocean","city":"keelung","wifi":0,"seat":4.5,"quiet":4.5,"tasty":4.5,"cheap":4.5,"music":5,"url":"https:\/\/m.facebook.com\/littleitalyocean\/?locale2=zh_TW","address":"\u57fa\u9686\u5e02\u4ec1\u611b\u5340\u5b5d\u4e00\u8def67\u865f","latitude":"25.13027290","longitude":"121.74162150","limited_time":"maybe","socket":"","standing_desk":"no","mrt":"","open_time":""},{"id":"091dfcf3-757f-413c-be3b-1dc0792ad44f","name":"Comme cafe","city":"keelung","wifi":0,"seat":0,"quiet":0,"tasty":0,"cheap":0,"music":0,"url":"","address":"\u57fa\u9686\u5e02\u4fe1\u7fa9\u5340\u4fe1\u4e8c\u8def284\u865f1\u6a13","latitude":"25.13122090","longitude":"121.74628970","limited_time":"no","socket":"maybe","standing_desk":"no","mrt":"","open_time":""},{"id":"0c8fd155-e548-4f81-9896-7d939c7dc66a","name":"\u91d1\u8c46\u5496\u5561","city":"keelung","wifi":5,"seat":5,"quiet":4,"tasty":5,"cheap":4,"music":5,"url":"https:\/\/www.facebook.com\/%E9%87%91%E8%B1%86%E5%92%96%E5%95%A1-174715529207985\/","address":"\u57fa\u9686\u5e02\u4ec1\u611b\u5340\u5fe0\u4e09\u8def75\u865f","latitude":"25.12926450","longitude":"121.73902060","limited_time":"no","socket":"","standing_desk":"no","mrt":"","open_time":"\u6bcf\u9031\u4e8c\u4e0d\u56fa\u5b9a\u5e97\u4f11\uff0c\u53ef\u53bb\u96fb\u6d3d\u8a62"},{"id":"1303c9d8-e9be-4fe6-97e4-e03db54b704f","name":"\u300c\u50cf\u6975\u4e86\u611b\u60c5\u300d\u4eba\u6587\u5171\u4eab\u7a7a\u9593","city":"keelung","wifi":5,"seat":5,"quiet":5,"tasty":5,"cheap":5,"music":5,"url":"https:\/\/bit.ly\/3eTre7s","address":"\u57fa\u9686\u5e02\u4e2d\u6b63\u5340\u5317\u5be7\u8def2\u865f\uff0c\u6d77\u6d0b\u5927\u5b78\u5b78\u751f\u6d3b\u52d5\u4e2d\u5fc31F\uff0c\u8cb4\u65cf\u4e16\u5bb6\u9694\u58c1","latitude":"25.15013470","longitude":"121.78005910","limited_time":"maybe","socket":"maybe","standing_desk":"no","mrt":"","open_time":""},{"id":"1f7bf985-6608-40cb-9e81-9b96b6b726eb","name":"\u963f\u4fe1\u5496\u5561\u9928","city":"keelung","wifi":0,"seat":4,"quiet":3,"tasty":4,"cheap":5,"music":4,"url":"","address":"\u57fa\u9686\u5e02\u4ec1\u611b\u5340\u611b\u4e94\u8def3\u865f","latitude":"25.12798480","longitude":"121.74512790","limited_time":"","socket":"","standing_desk":"","mrt":"","open_time":""},{"id":"3662b90c-c266-402f-8326-fba227642f6b","name":"Ruth C. Coffee","city":"keelung","wifi":5,"seat":5,"quiet":5,"tasty":4,"cheap":4,"music":4,"url":"https:\/\/www.facebook.com\/ruthc.coffee\/?fref=ts","address":"\u57fa\u9686\u5e02\u4ec1\u611b\u5340\u5fe0\u4e00\u8def3\u5df725\u865f","latitude":"25.12995000","longitude":"121.74099500","limited_time":"no","socket":"yes","standing_desk":"no","mrt":"","open_time":"13:00-21:00"},{"id":"37ec7398-5df2-4f52-bdd8-35cc0f24f490","name":"\u50cf\u6975\u4e86\u611b\u60c5\uff5c\u4eba\u6587\u5171\u4eab\u7a7a\u9593","city":"keelung","wifi":0,"seat":0,"quiet":0,"tasty":0,"cheap":0,"music":0,"url":"https:\/\/www.facebook.com\/JustLikeLove\/","address":"\u57fa\u9686\u5e02\u4e2d\u6b63\u5340\u5317\u5be7\u8def2\u865f_\u6d77\u5927\u5b78\u751f\u6d3b\u52d5\u4e2d\u5fc31F(\u8cb4\u65cf\u4e16\u5bb6\u725b\u6392\/\u53f3\u624b\u908a\u9694\u58c1)","latitude":"25.15024730","longitude":"121.78013430","limited_time":"maybe","socket":"maybe","standing_desk":"yes","mrt":"","open_time":"\u5305\u5834\u53ef\u6d3d\u5c08\u7528\u6642\u9593"},{"id":"40bd419c-1ca8-4e07-b24d-b8c0928b7c14","name":"SOH Espresso Cafe","city":"keelung","wifi":5,"seat":3,"quiet":3,"tasty":5,"cheap":4,"music":4,"url":"https:\/\/www.facebook.com\/sohespresso\/","address":"\u57fa\u9686\u5e02\u5289\u9298\u50b3\u8def6\u5df724\u865f","latitude":"25.12800860","longitude":"121.74942000","limited_time":"no","socket":"maybe","standing_desk":"no","mrt":"","open_time":"\u5be6\u969b\u71df\u696d\u6642\u9593\u7c89\u7d72\u5718\u4e0d\u5b9a\u6642\u66f4\u65b0"},{"id":"426566b9-74de-48c1-ae92-e0f7594f17cf","name":"\u4e09\u5947\u58f9\u865f\u5496\u5561\u9928","city":"keelung","wifi":5,"seat":4,"quiet":4,"tasty":5,"cheap":4,"music":5,"url":"https:\/\/www.facebook.com\/senkicoffee\/","address":"200\u57fa\u9686\u5e02\u611b\u4e8c\u8def54\u5df72\u865f","latitude":"25.12897510","longitude":"121.74250040","limited_time":"no","socket":"maybe","standing_desk":"no","mrt":"","open_time":""},{"id":"50d32b2d-d5ef-4bb7-9238-d18134508d96","name":"\u718a\u8c46\u5496\u5561","city":"keelung","wifi":5,"seat":4,"quiet":5,"tasty":5,"cheap":5,"music":4,"url":"https:\/\/www.facebook.com\/%E7%86%8A%E8%B1%86%E5%92%96%E5%95%A1-527945280744393\/","address":"\u57fa\u9686\u5e02\u4e2d\u6b63\u5340\u4e2d\u6b63\u8def579-1\u865f","latitude":"25.15204280","longitude":"121.76991390","limited_time":"maybe","socket":"maybe","standing_desk":"yes","mrt":"","open_time":""},{"id":"5a13623e-b264-476a-9e3f-4e54cbe81420","name":"\u590f\u9686\u5496\u5561","city":"keelung","wifi":5,"seat":5,"quiet":5,"tasty":5,"cheap":0,"music":5,"url":"https:\/\/www.facebook.com\/%E5%A4%8F%E9%9A%86%E5%92%96%E5%95%A1%E9%A4%A8-Shalom-Coffee-948211421873402\/","address":" \u57fa\u9686\u5e02\u4fe1\u7fa9\u5340\u7fa9\u516d\u8def38\u865f","latitude":"25.13141050","longitude":"121.75175460","limited_time":"no","socket":"yes","standing_desk":"","mrt":"","open_time":""},{"id":"6596d0c0-5022-4986-ad29-9d0529c5b769","name":"COZY Beans Coffee \u827e\u723e\u5496\u5561","city":"keelung","wifi":5,"seat":5,"quiet":4,"tasty":3,"cheap":4,"music":5,"url":"https:\/\/www.facebook.com\/cozybeans66\/","address":"\u57fa\u9686\u5e02\u4e03\u5835\u5340\u767e\u516d\u8857107\u5df77\u865f","latitude":"25.08575430","longitude":"121.69712850","limited_time":"maybe","socket":"no","standing_desk":"yes","mrt":"","open_time":"\u5076\u723e\u516c\u4f11"},{"id":"6a020200-595e-4bff-b151-a1da7f542535","name":"Yili Coffee House \u4e00\u7c92\u73c8\u7432","city":"keelung","wifi":0,"seat":4,"quiet":3,"tasty":5,"cheap":4,"music":2,"url":"https:\/\/www.facebook.com\/YiliCoffee\/","address":"\u57fa\u9686\u5e02\u4e2d\u6b63\u5340\u5317\u5be7\u8def242\u4e4b6\u865f","latitude":"25.14702050","longitude":"121.78317600","limited_time":"no","socket":"no","standing_desk":"no","mrt":"","open_time":""},{"id":"71e1fcd1-14dd-41d6-9ee4-2eeaa85433d5","name":"FLOW CAFE","city":"keelung","wifi":5,"seat":5,"quiet":4,"tasty":4,"cheap":4,"music":5,"url":"https:\/\/www.facebook.com\/flowcafetw\/","address":"\u6771\u4fe1\u8def35\u5df74\u865f1\u6a13","latitude":"25.12716800","longitude":"121.76644820","limited_time":"maybe","socket":"no","standing_desk":"yes","mrt":"","open_time":"\u672a\u8a3b\u660e\u5e97\u4f11\u65e5"},{"id":"774c158c-9ea7-44d0-a7d6-7e2f3aad6277","name":"Kai Jie Huang","city":"keelung","wifi":0,"seat":0,"quiet":0,"tasty":0,"cheap":0,"music":0,"url":"","address":"Zhuanyao Rd.","latitude":"30.89237710","longitude":"120.89549020","limited_time":"","socket":"","standing_desk":"","mrt":"","open_time":""},{"id":"77ef917b-544a-44f7-9bca-cd5d6b99d2ed","name":"Vita A Simple Cafe'","city":"keelung","wifi":0,"seat":0,"quiet":0,"tasty":0,"cheap":0,"music":0,"url":"https:\/\/www.facebook.com\/Vitaasimple\/","address":"\u57fa\u9686\u5e02\u4fe1\u7fa9\u5340\u5d07\u6cd5\u885712\u865f","latitude":"25.12841950","longitude":"121.76460880","limited_time":"no","socket":"yes","standing_desk":"yes","mrt":"","open_time":""},{"id":"7e107546-b695-4d01-976f-360a98016ce6","name":"Homerun Roasters","city":"keelung","wifi":5,"seat":4,"quiet":3,"tasty":4.5,"cheap":4.5,"music":4.5,"url":"https:\/\/www.google.com.tw\/url?sa=t&rct=j&q=&esrc=s&source=web&cd=1&cad=rja&uact=8&ved=0ahUKEwi4rM768LvSAhVGKpQKHdwbCV4QFggaMAA&url=https%3A%2F%2Fzh-tw.facebook.com%2Fhomerunroasters%2F&usg=AFQjCNGMuBRmxswiWdcjVOAdSsbbyZuD1g&sig2=Gei5oWSaVHTy8cjb3aNIaQ","address":"200\u57fa\u9686\u5e02\u4ec1\u611b\u5340\u4ec1\u4e8c\u8def82\u865f","latitude":"25.12779000","longitude":"121.74846700","limited_time":"no","socket":"maybe","standing_desk":"yes","mrt":"","open_time":"10:00 ~ 21:00"},{"id":"84f5b4fb-cede-443a-80e1-c7db962ec859","name":"LOKA CAFE","city":"keelung","wifi":5,"seat":4,"quiet":5,"tasty":5,"cheap":4,"music":0,"url":"https:\/\/www.facebook.com\/KEELUNGLOKACAFE\/?fref=ts","address":"202\u57fa\u9686\u5e02\u4e2d\u6b63\u5340\u4e2d\u6b63\u8def28\u865f","latitude":"25.13293100","longitude":"121.74475970","limited_time":"no","socket":"maybe","standing_desk":"no","mrt":"","open_time":""},{"id":"903c92dd-a12b-4587-aba1-72d156132a77","name":"\u4e38\u89d2\u5f8c\u9662 MaruCorner Coffee Stage & Bar","city":"keelung","wifi":0,"seat":0,"quiet":0,"tasty":0,"cheap":0,"music":0,"url":"","address":"200\u57fa\u9686\u5e02\u4ec1\u611b\u5340\u5b5d\u4e00\u8def23\u5df75\u5f0413\u865f","latitude":"25.12855860","longitude":"121.73979210","limited_time":"","socket":"","standing_desk":"","mrt":"","open_time":""},{"id":"950b2e4c-e1df-443e-8d29-2c002eb53f23","name":"\u9b5a\u5496\u5561","city":"keelung","wifi":5,"seat":5,"quiet":5,"tasty":5,"cheap":0,"music":5,"url":"https:\/\/www.facebook.com\/2018YuCoffee\/?eid=ARBOe_X1ctejlzjOpmhBLcAuCrtFjyw1_wDiRxwan4GNyMJFDt7Rk6z8bMqltVpIY8WC-aaLyvJnXMaz&fref=tag","address":"\u57fa\u9686\u5e02\u4e2d\u5c71\u5340\u4e2d\u548c\u8def168\u5df712\u5f0420\u865f1F","latitude":"25.15054360","longitude":"121.71511100","limited_time":"no","socket":"maybe","standing_desk":"no","mrt":"","open_time":""},{"id":"97c3536c-36f5-47b1-8647-c09a20f56b9f","name":"\u4e38\u89d2@\u81ea\u8f49\u751f\u6d3b.\u5496\u5561 ","city":"keelung","wifi":4,"seat":4,"quiet":4,"tasty":5,"cheap":4,"music":5,"url":"https:\/\/www.facebook.com\/Cafe.de.MaruCorner\/","address":"\u57fa\u9686\u5e02\u5b5d\u4e8c\u8def28\u865f","latitude":"25.12854790","longitude":"121.73962830","limited_time":"","socket":"maybe","standing_desk":"no","mrt":"","open_time":"12:00-22:00"},{"id":"a41a4ada-861e-4452-a515-739bde4fa54b","name":"\u8c93\u753a\u5496\u5561","city":"keelung","wifi":0,"seat":4,"quiet":5,"tasty":4,"cheap":5,"music":3,"url":"https:\/\/www.facebook.com\/cattowncoffee\/","address":"200\u57fa\u9686\u5e02\u4ec1\u611b\u5340\u611b\u4e8c\u8def54\u5df712\u865f","latitude":"25.12789870","longitude":"121.74165120","limited_time":"no","socket":"no","standing_desk":"no","mrt":"","open_time":""},{"id":"b754bbd8-4a67-4681-b410-8848a791a576","name":"S&D\u5496\u5561\u57fa\u9686\u5fe0\u4e09\u9580\u5e02","city":"keelung","wifi":0,"seat":0,"quiet":0,"tasty":0,"cheap":0,"music":0,"url":"https:\/\/www.facebook.com\/pg\/SD0224253301\/about\/?ref=page_internal","address":"\u57fa\u9686\u5e02\u4ec1\u611b\u5340\u5fe0\u4e09\u8def50\u865f","latitude":"25.12958420","longitude":"121.73908430","limited_time":"no","socket":"no","standing_desk":"yes","mrt":"","open_time":"24\u5c0f\u6642"},{"id":"bb04b1a8-6a8d-4edc-a930-cf5d2e72d7ef","name":"\u5e78\u798f\u6eff\u5496\u5561\u9928","city":"keelung","wifi":5,"seat":4,"quiet":4,"tasty":5,"cheap":5,"music":4,"url":"https:\/\/www.facebook.com\/pg\/HappinessCafeCafe\/about\/?ref=page_internal","address":"\u57fa\u9686\u5e02\u6696\u6696\u5340\u6e90\u9060\u8def251-1\u865f","latitude":"25.09886530","longitude":"121.75485140","limited_time":"no","socket":"yes","standing_desk":"yes","mrt":"","open_time":"\u7121\u56fa\u5b9a\u4f11\u606f\u65e5\uff0c\u6703\u5728\u7c89\u7d72\u5c08\u9801\u767c\u5e03"},{"id":"cf758030-48f6-42cf-8bfa-f95fc4ec33b5","name":"\u590f\u9686\u5496\u5561 Shalom Cafe","city":"keelung","wifi":0,"seat":0,"quiet":0,"tasty":0,"cheap":0,"music":0,"url":"","address":"\u57fa\u9686\u5e02\u4fe1\u7fa9\u5340\u7fa9\u516d\u8def38\u865f","latitude":"25.13165550","longitude":"121.75157340","limited_time":"","socket":"","standing_desk":"","mrt":"","open_time":""},{"id":"d85a413f-74e5-450f-902e-3f77e9c94210","name":"Eddie's cafe Et Tiramisu","city":"keelung","wifi":5,"seat":4.5,"quiet":4.5,"tasty":5,"cheap":4.5,"music":4.5,"url":"https:\/\/www.facebook.com\/Eddiescafetiramisu\/?fref=ts","address":"\u57fa\u9686\u5e02\u4ec1\u611b\u5340\u83ef\u56db\u885725\u865f","latitude":"25.12604670","longitude":"121.73606180","limited_time":"no","socket":"maybe","standing_desk":"no","mrt":"","open_time":""},{"id":"eed11edd-6d6a-4339-8b23-e81bff75bada","name":"\u884c\u8005\u5496\u5561\u9928","city":"keelung","wifi":0,"seat":0,"quiet":0,"tasty":0,"cheap":0,"music":0,"url":"","address":"\u57fa\u9686\u5e02\u4ec1\u611b\u5340\u611b\u4e8c\u8def45\u865f3\u6a13","latitude":"25.12922730","longitude":"121.74214960","limited_time":"","socket":"","standing_desk":"","mrt":"","open_time":""}]}