{"data":[{"id":"0676e926-6da7-4ff3-9f81-52132b75e8ef","name":"Coffee Cellar\u7a96\u5496\u5561","city":"miaoli","wifi":0,"seat":0,"quiet":0,"tasty":0,"cheap":0,"music":0,"url":"https:\/\/www.facebook.com\/Coffee-Cellar%E7%AA%96%E5%92%96%E5%95%A1-1062697057094888\/","address":"\u82d7\u6817\u7e23\u82d7\u6817\u5e02\u9577\u6625\u88572\u865f","latitude":"24.56258920","longitude":"120.82062160","limited_time":"","socket":"","standing_desk":"","mrt":"","open_time":""},{"id":"11ca7fac-cfa5-4923-9044-fff488b8dd26","name":"\u91cd\u6210\u5546\u865f","city":"miaoli","wifi":0,"seat":0,"quiet":0,"tasty":0,"cheap":0,"music":0,"url":"","address":"356\u82d7\u6817\u7e23\u5f8c\u9f8d\u93ae5\u913056-1\u865f","latitude":"24.61903740","longitude":"120.79245800","limited_time":"","socket":"","standing_desk":"","mrt":"","open_time":""},{"id":"19205c4b-93ca-4798-bbef-759a1821f965","name":"The Spot Coffee Company","city":"miaoli","wifi":5,"seat":5,"quiet":4,"tasty":5,"cheap":4,"music":5,"url":"http:\/\/hsinhsinhotel.com","address":"\u82d7\u6817\u5e02\u5efa\u570b\u88573\u865f","latitude":"24.56971090","longitude":"120.82399990","limited_time":"maybe","socket":"yes","standing_desk":"yes","mrt":"","open_time":"\u9031\u4e00\u81f3\u9031\u65e5 AM10:00 - PM6:00 (\u516c\u4f11\u65e5\u516c\u5e03\u65bcFB\u7c89\u7d72\u5718)"},{"id":"193f0fa3-b515-4676-bb89-040519058da5","name":"12\u5496\u5561\u9928","city":"miaoli","wifi":0,"seat":0,"quiet":0,"tasty":0,"cheap":0,"music":0,"url":"","address":"\u82d7\u6817\u7e23\u7af9\u5357\u93ae\u7acb\u9054\u8857125\u865f","latitude":"24.69120620","longitude":"120.87769550","limited_time":"no","socket":"maybe","standing_desk":"yes","mrt":"","open_time":""},{"id":"55ee878d-f982-4c79-8920-fefb27aca5df","name":"\u751c\u5b85 cafe'","city":"miaoli","wifi":4,"seat":4,"quiet":4,"tasty":5,"cheap":4,"music":4,"url":"https:\/\/www.facebook.com\/momo.sweet.house.cafe\/","address":"\u82d7\u6817\u7e23\u82d7\u6817\u5e02\u5fe0\u5b5d\u8def142\u865f","latitude":"24.56210120","longitude":"120.81790200","limited_time":"no","socket":"no","standing_desk":"yes","mrt":"","open_time":""},{"id":"578481e0-14f5-47ab-b29a-682203117fcd","name":"ritrovare coffee \/ \u5c0b\u54c1\u00b7\u65ec\u54c1 \u5496\u5561","city":"miaoli","wifi":0,"seat":0,"quiet":0,"tasty":0,"cheap":0,"music":0,"url":"","address":"360 \u82d7\u6817\u5e02\u82d7\u6817\u5e02\u5927\u540c\u8def118\u865f","latitude":"24.55206070","longitude":"120.81512340","limited_time":"","socket":"","standing_desk":"","mrt":"","open_time":""},{"id":"641e60f2-7c85-4ff6-9339-da22310c9de9","name":"OLULU Cafe & \u5091\u6069\u5496\u5561\u5de5\u5ee0(\u82d1\u88e1\u5e97)","city":"miaoli","wifi":0,"seat":4,"quiet":4,"tasty":4,"cheap":4,"music":3,"url":"https:\/\/www.facebook.com\/JustGoCoffee\/","address":"\u82d7\u6817\u7e23\u82d1\u88e1\u93ae\u4e0a\u9928\u91cc\u4e5d\u9130\u4e0a\u9928180-1\u865f","latitude":"24.37290090","longitude":"120.69717980","limited_time":"no","socket":"no","standing_desk":"no","mrt":"","open_time":""},{"id":"6d055885-913d-4772-8721-08b3a6771028","name":"\u96f2\u5c71\u521d\u9732","city":"miaoli","wifi":0,"seat":0,"quiet":0,"tasty":0,"cheap":0,"music":0,"url":"","address":"423\u53f0\u4e2d\u5e02\u6771\u52e2\u5340\u6771\u862d\u8def\u77f3\u6392\u5df726-118\u865f","latitude":"24.29215500","longitude":"120.80703100","limited_time":"","socket":"","standing_desk":"","mrt":"","open_time":""},{"id":"75fd0640-a1a6-4bc2-8203-62f1dc3bfe2f","name":"\u690d\u611f\u5496\u5561_Botanical Caf\u00e9","city":"miaoli","wifi":5,"seat":5,"quiet":5,"tasty":5,"cheap":5,"music":5,"url":"https:\/\/www.facebook.com\/BotanicalCafe.888\/","address":"\u82d7\u6817\u7e23\u82d7\u6817\u5e02\u82f1\u624d\u8def55\u865f","latitude":"24.57119320","longitude":"120.82091380","limited_time":"","socket":"no","standing_desk":"yes","mrt":"","open_time":""},{"id":"79f7f394-f27e-4cfd-a707-dba287a72361","name":"\u521d\u53e3\u751c\u9ede","city":"miaoli","wifi":5,"seat":4,"quiet":3,"tasty":3,"cheap":5,"music":4,"url":"https:\/\/www.facebook.com\/firstmemory2016","address":"\u82d7\u6817\u5e02\u7389\u6e05\u8def142-1\u865f","latitude":"24.56234860","longitude":"120.83439860","limited_time":"maybe","socket":"no","standing_desk":"no","mrt":"","open_time":""},{"id":"807a95c7-8e8e-4741-808e-74f64e24de7c","name":"\u85cd\u591a\u8212\u5fc3\u6599\u7406 Randall nouvelle cuisine","city":"miaoli","wifi":5,"seat":3,"quiet":3,"tasty":5,"cheap":4,"music":0,"url":"","address":"\u7af9\u5357\u93ae\u83ef\u6771\u885736\u865f","latitude":"24.68966420","longitude":"120.88026910","limited_time":"no","socket":"maybe","standing_desk":"no","mrt":"","open_time":""},{"id":"9282bebe-1780-45d9-afb2-857b283db072","name":"\u8001\u9673\u7238\u7238\u7684\u9905\u8216","city":"miaoli","wifi":0,"seat":0,"quiet":0,"tasty":0,"cheap":0,"music":0,"url":"https:\/\/www.facebook.com\/%E8%80%81%E9%99%B3%E7%88%B8%E7%88%B8%E7%9A%84%E9%A4%85%E8%88%96-107840250751506\/","address":"\u82d7\u6817\u7e23\u6cf0\u5b89\u9109\u6d17\u6c34\u575118\u865f","latitude":"24.44651000","longitude":"120.90513000","limited_time":"no","socket":"no","standing_desk":"yes","mrt":"","open_time":"\u570b\u5b9a\u5047\u65e5\u6b63\u5e38\u71df\u696d"},{"id":"9ceffc6c-30e6-459b-b311-81b295121561","name":"\u82d1\u88e1\u597d\u5496","city":"miaoli","wifi":5,"seat":0,"quiet":0,"tasty":5,"cheap":0,"music":5,"url":"https:\/\/www.facebook.com\/yourscafe8\/","address":"\u82d1\u88e1\u93ae\u65b0\u8208\u8def62\u865f","latitude":"24.44056370","longitude":"120.65318110","limited_time":"","socket":"no","standing_desk":"","mrt":"","open_time":""},{"id":"a496db99-f8b6-4439-9eed-95a59c754bf8","name":"\u91b2\u5496\u5561","city":"miaoli","wifi":5,"seat":5,"quiet":4,"tasty":4,"cheap":5,"music":4,"url":"https:\/\/www.facebook.com\/Known.Cafe.Bistro\/","address":"\u82d7\u6817\u7e23\u982d\u4efd\u5e02\u4fe1\u7fa9\u8def43\u865f","latitude":"24.68472920","longitude":"120.90868250","limited_time":"no","socket":"no","standing_desk":"yes","mrt":"","open_time":""},{"id":"a51968ac-0ec0-4e74-be0d-4cee8bc8e9c8","name":"\u6ab8\u2027\u5496\u5561","city":"miaoli","wifi":0,"seat":4,"quiet":5,"tasty":5,"cheap":3,"music":3,"url":"https:\/\/www.facebook.com\/Ning-Cafe-%E6%AA%B8-%E5%92%96%E5%95%A1-517697078387341\/","address":"\u82d7\u6817\u7e23\u982d\u4efd\u5e02\u5efa\u570b\u8def\u4e8c\u6bb5178\u865f","latitude":"24.69626070","longitude":"120.90242020","limited_time":"","socket":"maybe","standing_desk":"","mrt":"","open_time":""},{"id":"a57471f1-8646-4ffd-95bb-2cc49047dd77","name":"cafe'32","city":"miaoli","wifi":4,"seat":5,"quiet":5,"tasty":5,"cheap":5,"music":5,"url":"https:\/\/m.facebook.com\/cafe32-966883283442109\/","address":"\u82d7\u6817\u7e23\u982d\u4efd\u5e02\u6771\u6c11\u4e94\u885732\u865f","latitude":"24.68886280","longitude":"120.90183090","limited_time":"","socket":"yes","standing_desk":"","mrt":"","open_time":""},{"id":"aca8d082-0ec8-4079-8476-d2a748e95e16","name":"\u8f49\u8f49 ZONZON","city":"miaoli","wifi":0,"seat":0,"quiet":0,"tasty":0,"cheap":0,"music":0,"url":"","address":"\u82d7\u6817\u7e23\u516c\u9928\u9109\u5c16\u5c71\u6751\u5c16\u5c71245-13\u865f","latitude":"24.54049500","longitude":"120.83794400","limited_time":"","socket":"","standing_desk":"","mrt":"","open_time":""},{"id":"b5a6abf0-d282-4da8-b3cb-e4bf7b80a340","name":"\u9ad8\u6d77\u62d4\u5496\u5561","city":"miaoli","wifi":5,"seat":5,"quiet":5,"tasty":5,"cheap":5,"music":5,"url":"","address":"\u82d7\u6817\u7e23\u82d7\u6817\u5e02\u65b0\u5e84\u885748\u5df71\u865f","latitude":"24.55499710","longitude":"120.82177210","limited_time":"","socket":"","standing_desk":"","mrt":"","open_time":""},{"id":"d7332c6a-2183-4b06-acc9-d58cd75c710d","name":"\u6771\u6d77\u5496\u5561","city":"miaoli","wifi":5,"seat":5,"quiet":5,"tasty":5,"cheap":0,"music":0,"url":"https:\/\/www.facebook.com\/cafeth2016\/","address":"\u82d7\u6817\u7e23\u82d7\u6817\u5e02\u65e5\u65b0\u88571\u865f","latitude":"24.55338130","longitude":"120.81688850","limited_time":"no","socket":"maybe","standing_desk":"yes","mrt":"","open_time":""},{"id":"deca324c-cd04-4b74-9a7f-b476337d4bc9","name":"Me Coffee Shop","city":"miaoli","wifi":5,"seat":4,"quiet":5,"tasty":5,"cheap":4,"music":5,"url":"https:\/\/www.facebook.com\/M.E.CoffeeShop\/","address":"\u82d7\u6817\u7e23\u82d7\u6817\u5e02\u5929\u96f2\u885757\u865f","latitude":"24.55268210","longitude":"120.81555880","limited_time":"no","socket":"maybe","standing_desk":"no","mrt":"","open_time":"11:00~20:00"},{"id":"e0e99d5d-46f5-4bb2-8916-612e805fc230","name":"\u8001\u5bb6","city":"miaoli","wifi":3,"seat":3,"quiet":4,"tasty":5,"cheap":3,"music":5,"url":"https:\/\/www.facebook.com\/soulxfamily\/?fref=ts","address":"\u82d7\u6817\u7e23\u82d7\u6817\u5e02\u5efa\u53f0\u88571\u5df713\u865f","latitude":"24.55774020","longitude":"120.82162090","limited_time":"","socket":"","standing_desk":"","mrt":"","open_time":"\u5468\u4e00\u516c\u4f11"}]}