{"data":[{"id":"0bd1257d-7492-4eb9-a810-e01dfbd81b46","name":"MOST\u6728\u601d\u57d4\u91cc\u5e97","city":"nantou","wifi":5,"seat":5,"quiet":1,"tasty":4,"cheap":5,"music":3,"url":"https:\/\/www.facebook.com\/MOSTPULI\/","address":"\u5357\u6295\u7e23\u57d4\u91cc\u93ae\u6c11\u6709\u4e09\u885711\u865f","latitude":"23.95704560","longitude":"120.97136610","limited_time":"no","socket":"yes","standing_desk":"no","mrt":"","open_time":""},{"id":"16ead8f6-c91c-4d23-b6b4-1d5e342e3479","name":"\u6620\u53e4\u5b50\u5496\u5561","city":"nantou","wifi":5,"seat":4,"quiet":5,"tasty":5,"cheap":5,"music":5,"url":"","address":"542\u5357\u6295\u7e23\u8349\u5c6f\u93ae\u80b2\u624d\u5df754\u865f","latitude":"23.97357420","longitude":"120.68281350","limited_time":"no","socket":"maybe","standing_desk":"","mrt":"","open_time":""},{"id":"1cd29358-ad4e-4886-8230-ff38223bf5e3","name":"\u8001\u6545\u4e8b The Goose","city":"nantou","wifi":5,"seat":5,"quiet":5,"tasty":4,"cheap":4,"music":5,"url":"https:\/\/www.facebook.com\/pulithegoose\/","address":"\u5357\u6295\u7e23\u57d4\u91cc\u93ae\u4e2d\u5c71\u8def\u4e8c\u6bb5436\u865f","latitude":"23.96453400","longitude":"120.96514000","limited_time":"maybe","socket":"maybe","standing_desk":"no","mrt":"","open_time":""},{"id":"30510cf4-c886-48ad-b2ae-f0e8ab84bc43","name":"\u6cb3\u677e\u5496\u5561","city":"nantou","wifi":5,"seat":5,"quiet":5,"tasty":5,"cheap":5,"music":5,"url":"https:\/\/www.facebook.com\/riverpinecoffee\/?fref=ts","address":"\u5357\u6295\u7e23\u5357\u6295\u5e02\u7956\u7960\u8def142\u5df717\u865f","latitude":"23.90911840","longitude":"120.69011520","limited_time":"no","socket":"maybe","standing_desk":"no","mrt":"","open_time":"12:00~19:30"},{"id":"31c7216d-803f-4921-9490-e460a54c103c","name":"\u62fe\u6085\u5496\u5561\u2022Take Fun","city":"nantou","wifi":0,"seat":5,"quiet":5,"tasty":5,"cheap":5,"music":5,"url":"","address":"\u5357\u6295\u5e02\u71df\u5317\u91cc\u71df\u5317\u8def229\u865f","latitude":"23.95022600","longitude":"120.68603600","limited_time":"no","socket":"maybe","standing_desk":"no","mrt":"","open_time":""},{"id":"338b77a0-e5f4-418c-93f9-2bc0ea1e1245","name":"\u5357\u6295\u7a05\u52d9\u51fa\u5f35\u6240","city":"nantou","wifi":0,"seat":5,"quiet":4,"tasty":4,"cheap":3,"music":3,"url":"","address":"\u5357\u6295\u5e02\u5eb7\u58fd\u91cc\u4e2d\u5c71\u8857260\u865f","latitude":"23.91109800","longitude":"120.68461500","limited_time":"","socket":"","standing_desk":"","mrt":"","open_time":""},{"id":"42126cf9-b055-43ed-861a-66c0843bb346","name":"\u5bb6\u7dbb\u5496\u5561&\u7d05\u8336\uff08\u5927\u5c71\u6c34\u6676\uff09","city":"nantou","wifi":0,"seat":0,"quiet":0,"tasty":0,"cheap":0,"music":0,"url":"","address":"555\u5357\u6295\u7e23\u9b5a\u6c60\u9109\u74ca\u6587\u5df739-33\u865f","latitude":"23.90408830","longitude":"120.93521790","limited_time":"","socket":"","standing_desk":"","mrt":"","open_time":""},{"id":"6464bac2-b96a-4d5e-83af-1266a4dbd28a","name":"\u6728\u83ab-caf'e\u4e36\u76ae\u9769\u4e36\u96dc\u8ca8","city":"nantou","wifi":0,"seat":4,"quiet":4,"tasty":5,"cheap":5,"music":5,"url":"https:\/\/www.facebook.com\/mocafeleather\/","address":"\u5357\u6295\u7e23\u5357\u6295\u5e02\u4e09\u548c\u4e00\u8def22\u4e4b2\u865f","latitude":"23.90292390","longitude":"120.68889460","limited_time":"","socket":"no","standing_desk":"no","mrt":"","open_time":""},{"id":"651b29e9-0428-4d3e-910e-0d0773b51813","name":"Starbucks\u661f\u5df4\u514b \u8349\u5c6f\u9580\u5e02","city":"nantou","wifi":0,"seat":5,"quiet":3,"tasty":1,"cheap":2,"music":2,"url":"","address":"\u5357\u6295\u7e23\u8349\u5c6f\u93ae\u4e2d\u6b63\u8def857-1\u865f","latitude":"23.98367050","longitude":"120.68561590","limited_time":"no","socket":"maybe","standing_desk":"","mrt":"","open_time":""},{"id":"69d5274d-3e5b-46ec-b7d6-8158dab4a4af","name":"92\u5411\u967d\u9ad8\u5c71\u5496\u5561","city":"nantou","wifi":0,"seat":0,"quiet":0,"tasty":0,"cheap":0,"music":0,"url":"","address":"544\u5357\u6295\u7e23\u570b\u59d3\u9109\u4e2d\u6b63\u8def\u4e00\u6bb5206\u4e4b5\u865f","latitude":"24.00898570","longitude":"120.81825710","limited_time":"","socket":"","standing_desk":"","mrt":"","open_time":""},{"id":"6dd89433-bac7-4a8f-a9f8-7b356d975e83","name":"\u9435\u68df\u5275\u85dd T-Dung Cafe","city":"nantou","wifi":0,"seat":0,"quiet":0,"tasty":0,"cheap":0,"music":0,"url":"https:\/\/www.facebook.com\/TDungCafe99\/","address":"\u5357\u6295\u5e02 \u8349\u5c6f\u93ae\u5e73\u6797\u91cc\u5065\u884c\u8def150\u5df721\u865f","latitude":"23.99279700","longitude":"120.76658460","limited_time":"","socket":"maybe","standing_desk":"no","mrt":"","open_time":""},{"id":"7c718e34-5c3d-4b78-9c28-db199cd6f6fd","name":"272\u5df7\u5f04\u5496\u5561","city":"nantou","wifi":5,"seat":3,"quiet":3,"tasty":5,"cheap":4,"music":4,"url":"272\u5df7\u5f04\u5496\u5561","address":"\u5357\u6295\u7e23\u57d4\u91cc\u93ae\u4e2d\u5c71\u8def\u4e8c\u6bb5272\u5df79-1\u865f","latitude":"23.96640370","longitude":"120.96840580","limited_time":"maybe","socket":"maybe","standing_desk":"no","mrt":"","open_time":""},{"id":"84f42b67-aaff-4598-882c-7423f02c297b","name":"\u751c\u5ba2\u601d","city":"nantou","wifi":5,"seat":4,"quiet":3,"tasty":4,"cheap":5,"music":4,"url":"https:\/\/www.facebook.com\/%E7%94%9C%E5%AE%A2%E6%80%9D-Thanks-731322017002114\/?fref=ts","address":"\u5357\u6295\u7e23\u8349\u5c6f\u93ae\u864e\u5c71\u8def851\u865f","latitude":"23.97704400","longitude":"120.68563000","limited_time":"no","socket":"yes","standing_desk":"no","mrt":"","open_time":"12:00~21:00 \u6bcf\u5468\u4e00\u516c\u4f11"},{"id":"867da681-362b-4abb-9359-43abe047fda6","name":"e92 \u4f9d\u820a\u611b\u5496\u5561","city":"nantou","wifi":0,"seat":4,"quiet":4.5,"tasty":5,"cheap":5,"music":4.5,"url":"https:\/\/m.facebook.com\/e92coffee","address":"54260\u5357\u6295\u7e23\u8349\u5c6f\u93ae\u4e2d\u8208\u8def222\u865f","latitude":"23.97383110","longitude":"120.68641370","limited_time":"no","socket":"","standing_desk":"no","mrt":"","open_time":""},{"id":"8eb26039-4cdc-4148-9fe3-49ad1ba9d096","name":"\u9ea5\u5b50\u9109\u6751\u5496\u5561\u5c4b My Coffee","city":"nantou","wifi":0,"seat":5,"quiet":4,"tasty":5,"cheap":4,"music":4,"url":"https:\/\/www.facebook.com\/pages\/category\/Cafe\/%E9%BA%A5%E5%AD%90%E9%84%89%E6%9D%91%E5%92%96%E5%95%A1%E5%B1%8B-My-Coffee-346908279117377\/","address":"\u5357\u6295\u7e23\u8349\u5c6f\u93ae\u4fe1\u7fa9\u885725\u865f","latitude":"23.97904300","longitude":"120.67590650","limited_time":"no","socket":"maybe","standing_desk":"no","mrt":"","open_time":""},{"id":"944319db-013a-43e5-a341-3172e22bbf85","name":"Coffee Reflections OLD \u5de5\u4f5c\u5ba4","city":"nantou","wifi":0,"seat":5,"quiet":5,"tasty":5,"cheap":4.5,"music":4,"url":"","address":"545\u5357\u6295\u7e23\u57d4\u91cc\u93ae\u4e2d\u5c71\u8def\u4e8c\u6bb560\u5df72\u865f","latitude":"23.97054520","longitude":"120.97482630","limited_time":"yes","socket":"no","standing_desk":"yes","mrt":"","open_time":"\u9810\u7d04\u5236"},{"id":"99ed2648-2078-4d50-a8cd-32842fa5febb","name":"\u5c71\u8c6c\u885d\u5427coffee","city":"nantou","wifi":5,"seat":5,"quiet":5,"tasty":5,"cheap":5,"music":5,"url":"www.coffeeshen.com","address":"\u5357\u6295\u7e23\u9b5a\u6c60\u9109\u6c38\u5ddd\u5df712-8\u865f","latitude":"23.88267100","longitude":"120.94364400","limited_time":"no","socket":"yes","standing_desk":"yes","mrt":"","open_time":""},{"id":"ad1c2314-703c-44d0-b1be-47d4117cad38","name":"Desolatecoffee \u883b\u8352\u5496\u5561","city":"nantou","wifi":0,"seat":0,"quiet":0,"tasty":0,"cheap":0,"music":0,"url":"","address":"\u5357\u6295\u7e23\u9b5a\u6c60\u9109\u6587\u5316\u5df741\u865f","latitude":"23.88540510","longitude":"120.92080830","limited_time":"","socket":"","standing_desk":"","mrt":"","open_time":""},{"id":"b55ed43b-9f1d-43e9-aba7-f7f06b43cfd0","name":"JULU Coffee \u9245\u9e7f\u838a\u5712","city":"nantou","wifi":3,"seat":5,"quiet":5,"tasty":5,"cheap":5,"music":5,"url":"https:\/\/www.facebook.com\/julucafe\/","address":"\u5357\u6295\u7e23\u57d4\u91cc\u93ae\u6771\u69ae\u8def155\u865f","latitude":"23.96466900","longitude":"120.96858900","limited_time":"no","socket":"maybe","standing_desk":"no","mrt":"","open_time":"\u81c9\u66f8\u6216\u662f\u793e\u7fa4\u5e73\u53f0\u516c\u544a\u5e97\u4f11\u6642\u9593"},{"id":"b6bcc811-adc3-445e-83dc-87eb6ed172ec","name":"\u651d\u9999\u5496\u5561\u9928","city":"nantou","wifi":5,"seat":5,"quiet":4,"tasty":5,"cheap":5,"music":5,"url":"https:\/\/www.facebook.com\/SheXiangCafe\/","address":"\u5357\u6295\u7e23\u8349\u5c6f\u93ae\u6587\u5316\u885768\u5df711\u865f","latitude":"23.98353900","longitude":"120.68452600","limited_time":"no","socket":"yes","standing_desk":"no","mrt":"","open_time":"10:00-21:30"},{"id":"b745a725-b63e-4daa-a368-aa810da3f560","name":"\u5149\u5f71\u6b63\u597dLStudio","city":"nantou","wifi":0,"seat":0,"quiet":0,"tasty":0,"cheap":0,"music":0,"url":"","address":"\u5357\u6295\u7e23\u8349\u5c6f\u93ae\u5357\u57d4\u91cc\u4e2d\u6b63\u8def247\u865f","latitude":"23.97882100","longitude":"120.71845460","limited_time":"","socket":"","standing_desk":"","mrt":"","open_time":""},{"id":"c32de2d4-764d-49ae-a0eb-ade5258e6bfc","name":"\u7763\u8cc0\u5496\u5561","city":"nantou","wifi":0,"seat":0,"quiet":0,"tasty":0,"cheap":0,"music":0,"url":"https:\/\/www.facebook.com\/DOHOCAFE\/?__tn__=%2Cd%2CP-R&eid=ARAatq2tvEje9h_IPK_9XbhDnjWpAYPuxLwsJmMh9YTTTRu7imTgXMyUwvwGQ9SlLFKrfG9kbE2E0i0c","address":"\u5357\u6295\u7e23\u8349\u5c6f\u93ae\u58a9\u714c\u8def\u4e09\u6bb5168\u865f","latitude":"23.99819740","longitude":"120.66445210","limited_time":"no","socket":"yes","standing_desk":"no","mrt":"","open_time":""},{"id":"db9c392a-c681-4d22-93c4-a2ef7a8f7a65","name":"\u5496\u5561\u3002\u53cd\u601dCoffee Reflections OLD","city":"nantou","wifi":0,"seat":0,"quiet":0,"tasty":0,"cheap":0,"music":0,"url":"","address":"545\u5357\u6295\u7e23\u57d4\u91cc\u93ae\u4e2d\u5c71\u8def\u4e8c\u6bb560\u5df72\u865f","latitude":"23.97055110","longitude":"120.97471460","limited_time":"","socket":"","standing_desk":"","mrt":"","open_time":""},{"id":"dc2f46a9-cbbe-4455-947d-d691c186ff18","name":"Next Door Cafe \u9694\u58c1\u5496\u5561","city":"nantou","wifi":0,"seat":0,"quiet":0,"tasty":0,"cheap":0,"music":0,"url":"","address":"\u5357\u6295\u7e23\u8349\u5c6f\u93ae\u660e\u8ce2\u8857\u4e00\u6bb515\u865f","latitude":"23.97531970","longitude":"120.68657250","limited_time":"maybe","socket":"yes","standing_desk":"no","mrt":"","open_time":""},{"id":"dfbe73bc-9dff-4dbb-b972-398d3f8b02f7","name":"\u4e0d\u9760\u6d77\u5de5\u4f5c\u5ba4","city":"nantou","wifi":5,"seat":5,"quiet":5,"tasty":5,"cheap":5,"music":5,"url":"https:\/\/www.facebook.com\/BSMochi\/","address":"\u5357\u6295\u7e23\u57d4\u91cc\u93ae\u80b2\u6a02\u8def8\u865f","latitude":"23.96625060","longitude":"120.96244870","limited_time":"maybe","socket":"","standing_desk":"no","mrt":"","open_time":""},{"id":"ee409c3c-9b02-4d88-b9f0-964dfe4d7fb7","name":"Butterfly Caf\u00e9\u82b1\u8774\u8776\u5496\u5561\u9928","city":"nantou","wifi":5,"seat":5,"quiet":5,"tasty":5,"cheap":4,"music":4,"url":"https:\/\/www.facebook.com\/butterflycafeco\/","address":"\u57d4\u91cc\u93ae\u6c11\u751f\u8def7\u865f","latitude":"23.96299500","longitude":"120.96472830","limited_time":"maybe","socket":"maybe","standing_desk":"no","mrt":"","open_time":""},{"id":"efb91548-fc1a-46f8-8f37-352632784c38","name":"\u5927\u5229\u5927\u53e4\u7c73","city":"nantou","wifi":0,"seat":5,"quiet":4,"tasty":5,"cheap":4,"music":4,"url":"https:\/\/www.facebook.com\/talitha110\/","address":"\u5357\u6295\u7e23\u5357\u6295\u5e02\u96c6\u8ce2\u8def58\u865f","latitude":"23.90484100","longitude":"120.68387150","limited_time":"","socket":"","standing_desk":"","mrt":"","open_time":""},{"id":"f4553945-3e55-492e-bec3-d8ae5c7e13a9","name":"\u6642\u7fd2\u4e4b\u5546\u884c Readers Station","city":"nantou","wifi":0,"seat":5,"quiet":5,"tasty":5,"cheap":5,"music":5,"url":"https:\/\/www.facebook.com\/readerstation\/?rf=1152258658169441","address":"\u8349\u5c6f\u93ae\u5bcc\u6797\u8def\u4e8c\u6bb588\u865f","latitude":"23.96850770","longitude":"120.68493850","limited_time":"no","socket":"maybe","standing_desk":"no","mrt":"","open_time":""},{"id":"f6b1b6e1-228e-4a94-b31c-daf3bc547761","name":"60#CAFE","city":"nantou","wifi":0,"seat":0,"quiet":0,"tasty":0,"cheap":0,"music":0,"url":"https:\/\/www.facebook.com\/60coffee","address":"\u5357\u6295\u7e23\u8349\u5c6f\u93ae\u6566\u548c\u8def\u81ea\u7acb\u5df760\u865f","latitude":"23.98333410","longitude":"120.67241050","limited_time":"","socket":"","standing_desk":"","mrt":"","open_time":""},{"id":"fb6f4511-bc6c-4ec8-88c5-9eb65bca0992","name":"Feeling18.18\u5ea6C\u5de7\u514b\u529b\u5de5\u623f","city":"nantou","wifi":0,"seat":0,"quiet":0,"tasty":4,"cheap":2,"music":0,"url":"http:\/\/www.feeling18c.com","address":"\u5357\u6295\u7e23\u57d4\u91cc\u93ae\u6148\u6069\u885720\u865f","latitude":"23.95736660","longitude":"120.97485150","limited_time":"","socket":"","standing_desk":"","mrt":"","open_time":"\u5e73\u65e510:00~19:00  \u5047\u65e510:00~20:00"}]}