{"data":[{"id":"0795799e-e6e2-45a7-a472-20cb86c063d3","name":"\u5439\u5439\u98a8\u7cbe\u54c1\u5496\u5561\u9928","city":"penghu","wifi":5,"seat":5,"quiet":5,"tasty":5,"cheap":3,"music":4,"url":"https:\/\/www.facebook.com\/Islandbreezecoffee\/","address":"\u6f8e\u6e56\u7e23\u99ac\u516c\u5e02\u4e2d\u8208\u91cc\u6c11\u751f\u8def52\u865f","latitude":"23.56765050","longitude":"119.56552100","limited_time":"no","socket":"yes","standing_desk":"yes","mrt":"","open_time":"9:00 - 23:00"},{"id":"24ee1f38-f52a-4824-a2c0-c665d6da97c7","name":"\u590f\u81f323.5\u651d\u5f71\u6587\u5275\u5496\u5561","city":"penghu","wifi":5,"seat":4,"quiet":5,"tasty":5,"cheap":4,"music":5,"url":"https:\/\/www.facebook.com\/sia.zhi.235\/","address":"\u6f8e\u6e56\u7e23\u99ac\u516c\u5e02\u60e0\u6c11\u8def71\u865f","latitude":"23.56487530","longitude":"119.56449550","limited_time":"maybe","socket":"maybe","standing_desk":"no","mrt":"","open_time":"11:00\uff0d22:00"},{"id":"39a8dbcc-232b-4398-9341-ca040c9a0ebd","name":"\u53ca\u6797\u6625Gilly primavera","city":"penghu","wifi":4.5,"seat":4,"quiet":4,"tasty":5,"cheap":3,"music":4,"url":"https:\/\/www.facebook.com\/LinTouCoffee","address":"\u6f8e\u6e56\u7e23\u6e56\u897f\u9109\u6797\u6295\u67511-3\u865f","latitude":"23.55929980","longitude":"119.64263170","limited_time":"","socket":"","standing_desk":"","mrt":"","open_time":""},{"id":"5327f8c3-7a03-4487-bc25-58a915dd380e","name":"cama caf\u00e9 \u6f8e\u6e56\u99ac\u516c\u5e97","city":"penghu","wifi":5,"seat":5,"quiet":4,"tasty":4,"cheap":4,"music":5,"url":"https:\/\/www.facebook.com\/people\/Cama%E5%92%96%E5%95%A1%E6%BE%8E%E6%B9%96%E9%A6%AC%E5%85%AC%E5%BA%97\/100063906885844\/","address":"\u6f8e\u6e56\u7e23\u99ac\u516c\u5e02\u81e8\u6d77\u8def29\u865f","latitude":"23.56284250","longitude":"119.56535210","limited_time":"no","socket":"yes","standing_desk":"no","mrt":"","open_time":""},{"id":"58e25f17-7381-4e7b-af54-8615892a03b8","name":"\u8349\u6839\u679c\u5b50","city":"penghu","wifi":5,"seat":4,"quiet":4.5,"tasty":5,"cheap":4.5,"music":5,"url":"https:\/\/www.facebook.com\/chickendaddygoodeat\/?eid=ARBqsKRSpCGxhr0mO7kpN13edB2uGhLVo-fVxiEkGJg1mOMiUd2h5dG5IkvCk9SgfQJ5Yo_JIJTEun4r","address":"\u6f8e\u6e56\u7e23\u99ac\u516c\u5e02\u6a39\u5fb7\u8def1\u865f","latitude":"23.56847800","longitude":"119.56944800","limited_time":"no","socket":"maybe","standing_desk":"no","mrt":"","open_time":"\u4f86\u5e97\u524d\u5efa\u8b70\u5148\u770b\u7c89\u7d72\u5c08\u9801\u662f\u5426\u6709\u767c\u516c\u544a\u5e97\u4f11\u6216\u71df\u696d\u6642\u9593\u66f4\u52d5"},{"id":"6fa04ec6-12be-4ce6-b0b2-e11fa5a87804","name":"\u80af\u5854\u5496\u5561","city":"penghu","wifi":0,"seat":5,"quiet":5,"tasty":5,"cheap":4.5,"music":5,"url":"https:\/\/www.facebook.com\/kaffeekatate\/","address":"880, Penghu County, Magong City, Zhongzheng Road, 7\u865f, 5 \u5df7","latitude":"23.56394350","longitude":"119.56507060","limited_time":"no","socket":"no","standing_desk":"no","mrt":"","open_time":""},{"id":"876353c3-56c6-48b0-a973-8c6b84fb3eb5","name":"880\u5496\u5561\u5916\u5e36\u5427","city":"penghu","wifi":4,"seat":3,"quiet":4,"tasty":5,"cheap":5,"music":5,"url":"https:\/\/www.facebook.com\/880cafe","address":"\u6f8e\u6e56\u7e23\u99ac\u516c\u5e02\u6a39\u5fb7\u8def21\u865f","latitude":"23.56880670","longitude":"119.56801220","limited_time":"no","socket":"no","standing_desk":"","mrt":"","open_time":"8:00 - 18:00"},{"id":"95f97269-e809-40ff-988a-81b41109b480","name":"\u6735\u601d\u5496\u5561DOORS CAFE","city":"penghu","wifi":0,"seat":0,"quiet":0,"tasty":0,"cheap":0,"music":0,"url":"","address":"880\u6f8e\u6e56\u7e23\u99ac\u516c\u5e02\u6c11\u65cf\u8def15\u865f","latitude":"23.56409740","longitude":"119.56377320","limited_time":"","socket":"","standing_desk":"","mrt":"","open_time":""},{"id":"b1ad4b13-3c2e-4f37-9dd3-380971da4025","name":"\u72d0\u7374\u5496\u5561\u9928","city":"penghu","wifi":5,"seat":5,"quiet":5,"tasty":5,"cheap":5,"music":5,"url":"https:\/\/www.facebook.com\/meerkatcaffee\/","address":"880\u6f8e\u6e56\u7e23\u99ac\u516c\u5e02\u4e09\u591a\u8def36-1\u865f","latitude":"23.57436810","longitude":"119.57949240","limited_time":"no","socket":"maybe","standing_desk":"no","mrt":"","open_time":""},{"id":"bc0b5848-5ae3-4964-83c9-2869bea81c0e","name":"\u5439\u5439\u98a8\u7cbe\u54c1\u5496\u5561\u9928-\u78bc\u982d\u5e97","city":"penghu","wifi":5,"seat":5,"quiet":3,"tasty":5,"cheap":3,"music":5,"url":"https:\/\/www.facebook.com\/BartistaXBistro\/?ref=bookmarks","address":"\u6f8e\u6e56\u7e23\u99ac\u516c\u5e02\u555f\u660e\u91cc\u6d77\u5b89\u8857\u4e00\u865f2F","latitude":"23.56229100","longitude":"119.56827790","limited_time":"maybe","socket":"maybe","standing_desk":"yes","mrt":"","open_time":""},{"id":"bd0f16f4-2e11-4d07-9c8f-6bc1e625aa64","name":"\u838e\u838e\u5496\u5561","city":"penghu","wifi":0,"seat":5,"quiet":5,"tasty":5,"cheap":5,"music":5,"url":"\u81c9\u66f8\u641c\u5c0b\u838e\u838e\u5496\u5561","address":"\u6f8e\u6e56\u7e23\u99ac\u516c\u5e02\u6a39\u5fb7\u8def20\u865f","latitude":"23.56890980","longitude":"119.56800070","limited_time":"no","socket":"no","standing_desk":"yes","mrt":"","open_time":""},{"id":"c1c53cce-20cb-4d40-89f1-6186c26c483c","name":"\u5df4\u91cc\u5712","city":"penghu","wifi":0,"seat":5,"quiet":3,"tasty":5,"cheap":0,"music":5,"url":"https:\/\/www.facebook.com\/1957paris","address":"\u6f8e\u6e56\u7e23\u99ac\u516c\u5e02\u6c11\u6b0a\u8def61\u865f","latitude":"23.56539490","longitude":"119.56751310","limited_time":"no","socket":"","standing_desk":"no","mrt":"","open_time":"10:00 - 18:00"},{"id":"d0cb158c-254e-4f2e-b88a-d6c2568b8c94","name":"Alpha Mike\u5496\u5561","city":"penghu","wifi":0,"seat":0,"quiet":0,"tasty":0,"cheap":0,"music":0,"url":"","address":"880\u6f8e\u6e56\u7e23\u99ac\u516c\u5e02\u5149\u5fa9\u8def169\u5df71\u865f","latitude":"23.57299880","longitude":"119.57173040","limited_time":"","socket":"","standing_desk":"","mrt":"","open_time":""},{"id":"d39e7f2f-96dc-4de7-8571-ddce59c21a22","name":"\u8499\u5730\u5361\u7f85\u5496\u5561\u9928","city":"penghu","wifi":0,"seat":0,"quiet":0,"tasty":0,"cheap":0,"music":0,"url":"","address":"88023\u6f8e\u6e56\u7e23\u99ac\u516c\u5e02\u6c11\u751f\u8def17-4\u865f","latitude":"23.56733900","longitude":"119.56683400","limited_time":"","socket":"","standing_desk":"","mrt":"","open_time":""},{"id":"d8f12f84-0248-415e-a89b-845d6114154c","name":"\u8499\u5730\u5361\u7f85","city":"penghu","wifi":5,"seat":5,"quiet":5,"tasty":4,"cheap":3,"music":5,"url":"https:\/\/www.facebook.com\/\u8499\u5730\u5361\u7f85-182411098468160","address":"\u6f8e\u6e56\u7e23\u99ac\u516c\u5e02\u6c11\u751f\u8def17-4\u865f","latitude":"23.56745600","longitude":"119.56771770","limited_time":"no","socket":"","standing_desk":"","mrt":"","open_time":"10:00 - 23:30"},{"id":"ddff5488-1e74-4e94-aea2-421e251e1b63","name":"\u6f8e\u6e56\u4f0a\u7d22\u62c9\u5496\u5561\u9928","city":"penghu","wifi":0,"seat":4,"quiet":4,"tasty":5,"cheap":5,"music":5,"url":"https:\/\/www.facebook.com\/\u6f8e\u6e56\u4f0a\u7d22\u62c9\u5496\u5561\u9928-Isola-Coffee-265441930281375","address":"\u6f8e\u6e56\u7e23\u99ac\u516c\u5e02\u4e2d\u8208\u8def2\u865f","latitude":"23.56646770","longitude":"119.56839580","limited_time":"no","socket":"","standing_desk":"","mrt":"","open_time":"11:00 - 0:00"},{"id":"e5f77973-62ae-4184-8aa6-7546a3c21553","name":"\u5149\u548c\u5496\u5561","city":"penghu","wifi":0,"seat":0,"quiet":0,"tasty":0,"cheap":0,"music":0,"url":"https:\/\/www.instagram.com\/kowacoffee2018\/","address":"\u6f8e\u6e56\u7e23\u99ac\u516c\u5e02\u65b0\u660e\u8def91\u865f","latitude":"23.56482080","longitude":"119.58116720","limited_time":"","socket":"","standing_desk":"no","mrt":"","open_time":""}]}