{"data":[{"id":"009c4e03-2bd9-409c-add0-545ce8e744a4","name":"\u8f49\u89d298","city":"pingtung","wifi":5,"seat":4,"quiet":3,"tasty":3,"cheap":4,"music":5,"url":"https:\/\/www.facebook.com\/Corner98\/","address":"946\u5c4f\u6771\u7e23\u6046\u6625\u93ae\u6046\u5357\u8def98\u865f","latitude":"21.99616350","longitude":"120.74553290","limited_time":"no","socket":"no","standing_desk":"no","mrt":"","open_time":""},{"id":"0540000d-6cdb-4cd9-8d8c-f4b640cd7289","name":"Jazekes Coffee \u8cc8\u8332\u683c\u65af\u7cbe\u54c1\u5496\u5561\u9928","city":"pingtung","wifi":4,"seat":4,"quiet":4,"tasty":5,"cheap":4,"music":4,"url":"https:\/\/www.facebook.com\/JazekesCoffee\/","address":"\u5c4f\u6771\u7e23\u6f6e\u5dde\u93ae\u611b\u570b\u8def100\u5df733\u865f","latitude":"22.55111330","longitude":"120.54702400","limited_time":"no","socket":"no","standing_desk":"no","mrt":"","open_time":"\u5076\u723e\u71df\u696d\u6642\u9593\u66f4\u6539\uff0c\u9808\u6ce8\u610f\u7c89\u5c08\u8a0a\u606f"},{"id":"085451d3-bc9f-4a7a-97c2-d9fc00cb6e45","name":"\u6b50\u5ba2\u4f6c\u7cbe\u54c1\u5496\u5561OKLAO\u5c4f\u6771\u5e97","city":"pingtung","wifi":0,"seat":0,"quiet":0,"tasty":0,"cheap":0,"music":0,"url":"https:\/\/www.facebook.com\/pg\/oklaopt087331190\/posts\/?ref=page_internal","address":"\u5c4f\u6771\u7e23\u5c4f\u6771\u5e02\u6c38\u798f\u8def3\u865f1\u6a13","latitude":"22.67130700","longitude":"120.48689400","limited_time":"no","socket":"yes","standing_desk":"yes","mrt":"","open_time":""},{"id":"0909ff7c-b8b8-4834-8bf2-2ae4a3109a8e","name":"\u5c0f\u7da0\u821f","city":"pingtung","wifi":5,"seat":2,"quiet":3,"tasty":3,"cheap":2,"music":3,"url":"","address":"946\u5c4f\u6771\u7e23\u6046\u6625\u93ae92-1\u865f","latitude":"21.97733730","longitude":"120.74648970","limited_time":"no","socket":"yes","standing_desk":"no","mrt":"","open_time":""},{"id":"0b3abeaa-384d-4c6f-a5c0-f8864afeda51","name":"\u706b\u8eca\u7ad9\u524d - \u91d1\u7926","city":"pingtung","wifi":5,"seat":5,"quiet":3,"tasty":4,"cheap":0,"music":0,"url":"","address":"900\u5c4f\u6771\u7e23\u5c4f\u6771\u5e02\u4e2d\u5c71\u8def11\u865f","latitude":"22.67018600","longitude":"120.48606600","limited_time":"","socket":"","standing_desk":"","mrt":"","open_time":"\u5df2\u7d50\u675f\u71df\u696d"},{"id":"0df9ac13-9457-41d7-b147-723213e8d879","name":"Bonbon Cafe","city":"pingtung","wifi":5,"seat":4.5,"quiet":4,"tasty":4.5,"cheap":4.5,"music":4,"url":"https:\/\/www.facebook.com\/bonboncafebakery\/","address":"\u5c4f\u6771\u7e23\u5c4f\u6771\u5e02\u5efa\u8c50\u8def253\u5df715\u865f","latitude":"22.67599900","longitude":"120.50322300","limited_time":"maybe","socket":"no","standing_desk":"no","mrt":"","open_time":""},{"id":"17ac52c7-b02b-43a3-aeb3-f13829a9520a","name":"\u5091\u5229\u5496\u5561\u70d8\u7119","city":"pingtung","wifi":0,"seat":0,"quiet":0,"tasty":0,"cheap":0,"music":0,"url":"","address":"\u5c4f\u6771\u7e23\u5c4f\u6771\u5e02\u8c50\u69ae\u8857135\u865f","latitude":"22.68020040","longitude":"120.50261950","limited_time":"","socket":"","standing_desk":"","mrt":"","open_time":""},{"id":"18ec2c4d-c57e-4046-b46d-37befd7ec5ef","name":"\u4f55\u7de9","city":"pingtung","wifi":4.5,"seat":5,"quiet":5,"tasty":5,"cheap":4,"music":5,"url":"https:\/\/www.facebook.com\/hcl641019\/","address":"\u5c4f\u6771\u7e23\u5c4f\u6771\u5e02\u516c\u52e4\u8857138\u865f","latitude":"22.68401180","longitude":"120.49535650","limited_time":"no","socket":"no","standing_desk":"no","mrt":"","open_time":""},{"id":"1fd67502-e133-4f0d-97ef-28dbdc7e4538","name":"\u591a\u4e00\u9ede\u5496\u5561","city":"pingtung","wifi":0,"seat":3,"quiet":0,"tasty":0,"cheap":3,"music":0,"url":"https:\/\/www.facebook.com\/more9395\/","address":"\u5c4f\u6771\u7e23\u5c4f\u6771\u5e02\u6c11\u6b0a\u8def93-95\u865f","latitude":"22.67359500","longitude":"120.49223900","limited_time":"maybe","socket":"no","standing_desk":"no","mrt":"","open_time":""},{"id":"2ecf3ab0-3649-474d-9698-7703d3add8ca","name":"\u676f\u6cbf\u6eab\u5ea6\u5496\u5561","city":"pingtung","wifi":0,"seat":0,"quiet":0,"tasty":0,"cheap":0,"music":0,"url":"https:\/\/www.facebook.com\/Hand.temperature.CAFE\/","address":"900\u5c4f\u6771\u7e23\u5c4f\u6771\u5e02\u516c\u5b89\u885779\u865f","latitude":"22.68469140","longitude":"120.49659040","limited_time":"","socket":"","standing_desk":"","mrt":"","open_time":""},{"id":"33fd06ca-be7f-46e3-837c-ccfd9042be72","name":"\u5927\u548c\u9813\u7269\u6240","city":"pingtung","wifi":4,"seat":4,"quiet":3,"tasty":4.5,"cheap":4,"music":5,"url":"https:\/\/www.facebook.com\/coffeebeanstock\/","address":"\u5c4f\u6771\u7e23\u7af9\u7530\u9109\u5c65\u8c50\u67511\u9130\u8c50\u660e\u8def26\u865f","latitude":"22.58647750","longitude":"120.54076710","limited_time":"","socket":"yes","standing_desk":"no","mrt":"","open_time":""},{"id":"38f72ad1-b9e1-462d-88b1-a0463e03e8c0","name":"\u963f\u5091\u5496\u5561\u8207\u8336","city":"pingtung","wifi":1,"seat":5,"quiet":3,"tasty":5,"cheap":5,"music":5,"url":"https:\/\/www.facebook.com\/Acorn-cofe-%E6%A9%A1%E8%8F%93%E5%92%96%E5%95%A1-213675075696769\/","address":"\u5c4f\u6771\u7e23\u9577\u6cbb\u9109\u7e41\u83ef\u6751\u6c34\u6e90\u8def111-1","latitude":"22.70201890","longitude":"120.57275140","limited_time":"no","socket":"no","standing_desk":"no","mrt":"","open_time":"\u4e0b\u53482\u9ede\u81f3\u665a\u4e0a6\u9ede"},{"id":"397b9b21-67b0-409d-bce6-906d1ed9b7a1","name":"\u8b80\u8005\u57ce\u5e02","city":"pingtung","wifi":5,"seat":5,"quiet":5,"tasty":3,"cheap":5,"music":4,"url":"http:\/\/www.city-reader.com.tw\/","address":"900\u5c4f\u6771\u7e23\u5c4f\u6771\u5e02\u6c11\u751f\u8def4-17\u865f","latitude":"22.66376070","longitude":"120.50583010","limited_time":"no","socket":"maybe","standing_desk":"yes","mrt":"","open_time":""},{"id":"39ec33a9-2fc1-4c53-9a7c-7840b77e480c","name":"\u539a\u539a\u4e00\u7247-\u6771\u6e2f\u65d7\u8266\u5e97","city":"pingtung","wifi":0,"seat":5,"quiet":4,"tasty":4,"cheap":5,"music":4,"url":"","address":"928\u5c4f\u6771\u7e23\u6771\u6e2f\u93ae\u660e\u5fb7\u8def90\u865f","latitude":"22.47102750","longitude":"120.45674780","limited_time":"no","socket":"maybe","standing_desk":"no","mrt":"","open_time":""},{"id":"3ebcc382-c8e7-4662-917d-3efa90d33e9e","name":"\u5361\u5f7f\u9b6f\u5cb8\u5496\u5561\u745e\u6c11\u5e97","city":"pingtung","wifi":5,"seat":5,"quiet":3,"tasty":4.5,"cheap":2.5,"music":3.5,"url":"https:\/\/www.kavulungan.com.tw\/","address":"\u5c4f\u6771\u5e02\u745e\u6c11\u8def8\u865f","latitude":"22.66344800","longitude":"120.50667000","limited_time":"no","socket":"maybe","standing_desk":"yes","mrt":"","open_time":""},{"id":"421cf23b-0b21-4c30-b5ed-92178f21a097","name":"\u5077\u5496\u5561","city":"pingtung","wifi":5,"seat":5,"quiet":3,"tasty":4,"cheap":5,"music":3,"url":"","address":"\u5c4f\u6771\u7e23\u5c4f\u6771\u5e02\u798f\u5efa\u8def124\u865f","latitude":"22.67288750","longitude":"120.48957390","limited_time":"no","socket":"maybe","standing_desk":"yes","mrt":"","open_time":""},{"id":"424e489b-77d4-49f4-b20e-6aa4a45c5ec9","name":"\u5b85\u8c93\u5496\u5561","city":"pingtung","wifi":5,"seat":5,"quiet":5,"tasty":5,"cheap":5,"music":5,"url":"https:\/\/www.facebook.com\/Coffee.house.cat\/","address":"\u5c4f\u6771\u7e23\u5c4f\u6771\u5e02\u6c11\u4eab\u8def56\u865f","latitude":"22.67282250","longitude":"120.49879290","limited_time":"maybe","socket":"maybe","standing_desk":"no","mrt":"","open_time":""},{"id":"49e55c60-3beb-4b36-a6ea-886f0905b220","name":"Eske Place Coffee House","city":"pingtung","wifi":5,"seat":3,"quiet":3,"tasty":5,"cheap":3,"music":4,"url":"https:\/\/www.facebook.com\/eskeplace","address":"\u5c4f\u6771\u7e23\u5c4f\u6771\u5e02\u6c11\u4eab\u8def142\u865f","latitude":"22.67506610","longitude":"120.49943850","limited_time":"no","socket":"no","standing_desk":"no","mrt":"","open_time":""},{"id":"4fe0da0f-fd90-4c17-83ae-2806d6daff28","name":"\u6021\u7136\u5982\u98a8\u9a5b\u7ad9","city":"pingtung","wifi":5,"seat":5,"quiet":4,"tasty":4,"cheap":5,"music":3,"url":"https:\/\/www.facebook.com\/ezanbikestation\/","address":"\u5c4f\u6771\u5e02\u745e\u5149\u8def\u4e00\u6bb578\u865f","latitude":"22.66054200","longitude":"120.51543900","limited_time":"no","socket":"no","standing_desk":"","mrt":"","open_time":"\u4f11\u9031\u4e00"},{"id":"52f216b7-85c3-43ff-b1ff-74addb85c93d","name":"\u5947\u8302\u5712-\u6728\u92e4\u9020\u6a38\u5496\u5561\u9910\u5ef3","city":"pingtung","wifi":0,"seat":2,"quiet":2,"tasty":5,"cheap":4,"music":5,"url":"","address":"\u5c4f\u6771\u7e23\u678b\u5bee\u9109\u4e2d\u6b63\u5927\u8def791\u865f","latitude":"22.37732320","longitude":"120.59842090","limited_time":"","socket":"","standing_desk":"","mrt":"","open_time":""},{"id":"544f2e43-01cd-42f6-bf4b-217284dde37d","name":"Antigua \u5b89\u5824\u74dc\u5496\u5561","city":"pingtung","wifi":5,"seat":5,"quiet":4,"tasty":5,"cheap":4,"music":4,"url":"https:\/\/www.facebook.com\/2000AntiguaCafe\/","address":"\u5c4f\u6771\u5e02\u6c11\u4eab\u4e00\u8def174\u865f","latitude":"22.67546900","longitude":"120.49848300","limited_time":"no","socket":"no","standing_desk":"no","mrt":"","open_time":"\u6bcf\u6708\u6700\u5f8c\u4e00\u500b\u9031\u65e5\u4f11"},{"id":"571906d0-174b-4a54-bcd9-66f40c4afcee","name":"Akau Coffee \u733b\u7269\u5496\u5561","city":"pingtung","wifi":4,"seat":5,"quiet":4,"tasty":5,"cheap":5,"music":5,"url":"https:\/\/www.facebook.com\/akaucoffee\/","address":"\u5c4f\u6771\u5e02\u4ec1\u5fb7\u8def43\u5df76\u865f \u8077\u4eba\u753a\uff22\u68df","latitude":"22.67265500","longitude":"120.49456700","limited_time":"no","socket":"yes","standing_desk":"yes","mrt":"","open_time":""},{"id":"5cf47b9f-f88d-478d-80e9-92a546bf96e3","name":"\u5006\u73c8\u7432\u5de5\u4f5c\u5ba4","city":"pingtung","wifi":0,"seat":3,"quiet":3,"tasty":5,"cheap":5,"music":4,"url":"https:\/\/www.facebook.com\/YuNMeCoffeeRoom\/","address":"\u5c4f\u6771\u7e23\u5c4f\u6771\u5e02\u4e2d\u592e\u5e02\u5834\u7b2c\u4e09\u5546\u583420\u865f","latitude":"99.99999999","longitude":"22.00000000","limited_time":"no","socket":"no","standing_desk":"no","mrt":"","open_time":"22\u00b040'20.5\"N 120\u00b029'24.9\"E"},{"id":"71808b06-1e7f-4e03-98f9-25af853738e0","name":"\u6625\u82e5\u5496\u5561","city":"pingtung","wifi":5,"seat":4,"quiet":4,"tasty":5,"cheap":4,"music":4,"url":"https:\/\/www.facebook.com\/chunjocoffee\/","address":"\u5c4f\u6771\u5e02\u5929\u6d25\u8857\u516d\u865f","latitude":"22.67689400","longitude":"120.48951180","limited_time":"no","socket":"maybe","standing_desk":"no","mrt":"","open_time":"0930~2130"},{"id":"7264414f-a7e2-417b-ac7f-455e980e2972","name":"\u597d\u5466\u98df\u8da3","city":"pingtung","wifi":5,"seat":5,"quiet":0,"tasty":0,"cheap":0,"music":0,"url":"","address":"900\u5c4f\u6771\u7e23\u5c4f\u6771\u5e02\u9752\u5cf6\u885733-6\u865f","latitude":"22.67806900","longitude":"120.49006500","limited_time":"no","socket":"maybe","standing_desk":"yes","mrt":"","open_time":""},{"id":"75c23fe7-8ce1-408e-b190-6dbae3ffaa35","name":"\u9054\u7c73\u5b89\u5496\u5561","city":"pingtung","wifi":5,"seat":5,"quiet":5,"tasty":5,"cheap":5,"music":4,"url":"https:\/\/www.facebook.com\/%E9%81%94%E7%B1%B3%E5%AE%89%E5%92%96%E5%95%A1-183021468411339\/","address":"\u5c4f\u6771\u7e23\u6f6e\u5dde\u93ae\u4e2d\u5c71\u8def\u6771\u6bb533\u865f","latitude":"22.55003900","longitude":"120.54816700","limited_time":"no","socket":"","standing_desk":"","mrt":"","open_time":"09:00~21:00"},{"id":"77060a29-49d6-475e-a7a7-ddd1796e9b3e","name":"\u96c1\u884c\u5496\u5561 Nomads Cafe","city":"pingtung","wifi":5,"seat":4,"quiet":5,"tasty":5,"cheap":5,"music":5,"url":"https:\/\/www.facebook.com\/nomadsbearhome\/","address":"\u5c4f\u6771\u7e23\u5c4f\u6771\u5e02\u4ec1\u611b\u8def77\u4e4b17\u865f","latitude":"22.67869870","longitude":"120.49483490","limited_time":"no","socket":"yes","standing_desk":"no","mrt":"","open_time":"\u4e0d\u5b9a\u671f\u516c\u4f11"},{"id":"7b2f0e7a-e138-47f7-b10f-9a04d4bd343a","name":"\u6e6f\u5319\u653e\u53e3\u888b Spoon in Pocket","city":"pingtung","wifi":0,"seat":4,"quiet":3,"tasty":3,"cheap":3,"music":4,"url":"https:\/\/www.facebook.com\/spooninpocket\/","address":"\u5c4f\u6771\u7e23\u6046\u6625\u93ae\u4e2d\u5c71\u8def192\u865f","latitude":"22.00505500","longitude":"120.74336830","limited_time":"","socket":"","standing_desk":"","mrt":"","open_time":""},{"id":"7f3e4ed1-b44f-40bd-967b-7cc14fb331c0","name":"\u80a5\u6625\u865f Fatchun cafe","city":"pingtung","wifi":5,"seat":5,"quiet":4,"tasty":5,"cheap":5,"music":5,"url":"https:\/\/m.facebook.com\/FatchunCafe\/","address":"\u5c4f\u6771\u7e23\u6046\u6625\u93ae\u7ce0\u6797\u5357\u8def15\u865f","latitude":"21.98649080","longitude":"120.73261150","limited_time":"no","socket":"maybe","standing_desk":"yes","mrt":"","open_time":""},{"id":"81348d86-844b-47a2-b349-d492e56eee34","name":"\u653e\u7a7a-Arts\u2027Coffee\u2027Deli","city":"pingtung","wifi":4,"seat":4,"quiet":2,"tasty":4,"cheap":4,"music":4,"url":"https:\/\/www.facebook.com\/FangKung\/","address":"\u5c4f\u6771\u7e23\u5c4f\u6771\u5e02\u4ec1\u5fb7\u8def12\u865f","latitude":"22.67000800","longitude":"120.49401900","limited_time":"no","socket":"yes","standing_desk":"no","mrt":"","open_time":"\u4ee5FB\u7c89\u7d72\u5c08\u696d\u70ba\u4e3b"},{"id":"82391aeb-70f3-4ce2-8436-b97a29c4fef7","name":"\u91d1\u6d3e\u5496\u5561 Coffee","city":"pingtung","wifi":0,"seat":0,"quiet":0,"tasty":0,"cheap":0,"music":0,"url":"","address":"900\u5c4f\u6771\u7e23\u5c4f\u6771\u5e02\u5fe0\u5b5d\u8def146-1\u865f","latitude":"22.68275060","longitude":"120.48956790","limited_time":"","socket":"","standing_desk":"","mrt":"","open_time":""},{"id":"833cddcb-c503-4c21-a87f-2c3be6902bb8","name":"\u534a\u5cf6\u5496\u5561 Fangliao Caf\u00e9","city":"pingtung","wifi":0,"seat":0,"quiet":0,"tasty":0,"cheap":0,"music":0,"url":"https:\/\/www.facebook.com\/FANGLIAOCAFE\/","address":"\u5c4f\u6771\u7e23\u678b\u5bee\u9109\u5132\u904b\u8def7\u865f","latitude":"22.36619710","longitude":"120.59620600","limited_time":"","socket":"","standing_desk":"","mrt":"","open_time":""},{"id":"94ad8456-3e18-4dfd-8e0e-59dc1d9c31a3","name":"\u7e6b\u672c\u5c4b","city":"pingtung","wifi":0,"seat":5,"quiet":4,"tasty":4,"cheap":5,"music":4,"url":"https:\/\/www.facebook.com\/akauwbooks\/","address":"900\u5c4f\u6771\u7e23\u5c4f\u6771\u5e02\u9752\u5cf6\u8857112\u865f","latitude":"22.67859230","longitude":"120.48380710","limited_time":"no","socket":"no","standing_desk":"yes","mrt":"","open_time":""},{"id":"a61e2394-0955-4db0-bfb3-84614cd22f96","name":"Nearly Cafe","city":"pingtung","wifi":5,"seat":4,"quiet":4.5,"tasty":5,"cheap":5,"music":3,"url":"https:\/\/www.facebook.com\/Nearly.cafe\/","address":"\u5c4f\u6771\u5e02\u81ea\u7531\u8def391\u865f","latitude":"22.68113850","longitude":"120.49453740","limited_time":"yes","socket":"no","standing_desk":"yes","mrt":"","open_time":"11:00-18:00"},{"id":"afde690d-8fdb-4b0c-b967-8e24c75e38d0","name":"\u66fe\u5e78\u798f\u5496\u5561","city":"pingtung","wifi":0,"seat":0,"quiet":0,"tasty":0,"cheap":0,"music":0,"url":"","address":"\u5c4f\u6771\u7e23\u9577\u6cbb\u9109\u9577\u8208\u8def519\u865f","latitude":"22.68199940","longitude":"120.51114510","limited_time":"","socket":"","standing_desk":"","mrt":"","open_time":""},{"id":"b91de885-ddee-4e98-9b67-c16da918a7df","name":"\u5c0f\u767d\u5496\u5561\u5e97","city":"pingtung","wifi":0,"seat":0,"quiet":0,"tasty":0,"cheap":0,"music":0,"url":"","address":"\u5c4f\u6771\u7e23\u5c4f\u6771\u5e02\u8c50\u69ae\u8857209\u865f\u65c1\u908a\u7a7a\u5730","latitude":"22.68106700","longitude":"120.50430500","limited_time":"","socket":"","standing_desk":"","mrt":"","open_time":""},{"id":"be9d423f-ba23-4eaa-9f6e-0c9bd7c9bf54","name":"\u597d\u65e5\u5b50 Good Day \u6e21\u5047\u5c0f\u9910\u9928","city":"pingtung","wifi":0,"seat":0,"quiet":0,"tasty":0,"cheap":0,"music":0,"url":"https:\/\/www.facebook.com\/haveagooddaykt\/","address":"\u5c4f\u6771\u7e23\u6046\u6625\u93ae\u897f\u9580\u8def 13 \u865f","latitude":"22.00607030","longitude":"120.74308720","limited_time":"","socket":"","standing_desk":"","mrt":"","open_time":""},{"id":"c265745d-5d26-40da-96f9-0334cd189f59","name":"149\u5496\u5561\u70d8\u7119\u574a","city":"pingtung","wifi":0,"seat":4,"quiet":3,"tasty":5,"cheap":4,"music":3,"url":"","address":"900\u5c4f\u6771\u7e23\u5c4f\u6771\u5e02\u5c4f\u6771\u7e23\u5c4f\u6771\u5e02\u5fe0\u5b5d\u8def149\u865f","latitude":"22.67502680","longitude":"120.48697100","limited_time":"","socket":"","standing_desk":"","mrt":"","open_time":""},{"id":"c396c73b-e2cd-49ae-a10d-eaf0bab66678","name":"Lili \u624b\u4f5c\u70d8\u7119","city":"pingtung","wifi":5,"seat":5,"quiet":5,"tasty":5,"cheap":5,"music":4,"url":"https:\/\/www.facebook.com\/lilicakehouse","address":"\u5c4f\u6771\u7e23\u5c4f\u6771\u5e02\u7a7a\u7fd4\u91cc\u6c38\u57ce16\u865f","latitude":"22.68010000","longitude":"120.47970500","limited_time":"","socket":"","standing_desk":"","mrt":"","open_time":""},{"id":"ca4c15d8-8496-4771-ad76-96ed0fd5d006","name":"\u5320.kaffa\u7cbe\u54c1\u5496\u5561\u5de5\u574a","city":"pingtung","wifi":4,"seat":3.5,"quiet":4,"tasty":3.5,"cheap":5,"music":3,"url":"https:\/\/m.facebook.com\/Tk.kaffa\/?locale2=zh_TW","address":"\u5c4f\u6771\u5e02\u6b66\u6797\u885742-1\u865f","latitude":"22.66085400","longitude":"120.48064430","limited_time":"no","socket":"","standing_desk":"","mrt":"","open_time":""},{"id":"cb39b2a1-734a-49ea-b83d-303a61c7e12e","name":"\u5728\u7e41\u83ef\u963f\u5b24\u5bb6\u3002 \u85dd\u6587 x \u62ab\u85a9 x \u8336 x \u5496\u5561","city":"pingtung","wifi":5,"seat":5,"quiet":5,"tasty":5,"cheap":5,"music":5,"url":"","address":"\u5c4f\u6771\u7e23\u9577\u6cbb\u9109\u7e41\u83ef\u6751\u5fa9\u83ef\u8857600\u5df716\u865f","latitude":"22.69958400","longitude":"120.57286130","limited_time":"no","socket":"yes","standing_desk":"yes","mrt":"","open_time":""},{"id":"ce648140-dba1-4204-bfb4-8dff7a8de50f","name":"\u9a5b\u524d\u5927\u548c\u65c5\u793e","city":"pingtung","wifi":0,"seat":4,"quiet":2,"tasty":3,"cheap":3,"music":3,"url":"","address":"\u5c4f\u6771\u5e02\u6c11\u65cf\u8def163-1\u865f","latitude":"22.67013290","longitude":"120.48666400","limited_time":"","socket":"","standing_desk":"","mrt":"","open_time":""},{"id":"d1174c94-b519-4b1c-947f-dac0138c266f","name":"Paw Caf\u00e9","city":"pingtung","wifi":5,"seat":5,"quiet":5,"tasty":5,"cheap":5,"music":5,"url":"https:\/\/www.facebook.com\/pawcafe.com.tw\/","address":"\u5c4f\u6771\u7e23\u5c4f\u6771\u5e02\u6c11\u751f\u8def61\u5df76\u865f","latitude":"22.66368390","longitude":"120.50690770","limited_time":"maybe","socket":"yes","standing_desk":"no","mrt":"","open_time":""},{"id":"d7ebffe8-2899-4660-930a-8d36c644710c","name":"ego coffee","city":"pingtung","wifi":0,"seat":5,"quiet":5,"tasty":5,"cheap":5,"music":5,"url":"https:\/\/www.facebook.com\/egocoffee.tw","address":"\u5c4f\u6771\u7e23\u842c\u4e39\u9109\u842c\u4e39\u8def\u4e00\u6bb5343\u865f","latitude":"22.59133940","longitude":"120.48892060","limited_time":"no","socket":"yes","standing_desk":"no","mrt":"","open_time":""},{"id":"da5580d6-6ae0-4281-b993-f279fd386e97","name":"\u9806\u9806\u5802","city":"pingtung","wifi":5,"seat":4.5,"quiet":4,"tasty":4,"cheap":4,"music":5,"url":"https:\/\/www.facebook.com\/%E9%A0%86%E9%A0%86%E5%A0%82-1557638557839663\/","address":"\u5c4f\u6771\u7e23\u5c4f\u6771\u5e02\u798f\u5efa\u8def53\u865f","latitude":"22.67239190","longitude":"120.49081310","limited_time":"","socket":"","standing_desk":"","mrt":"","open_time":""},{"id":"e439f7b7-d2f2-43bf-8d0d-7e46fddfd92f","name":"\u5354\u751f\u5496\u5561 Recipe Coffee","city":"pingtung","wifi":0,"seat":0,"quiet":0,"tasty":0,"cheap":0,"music":0,"url":"https:\/\/www.facebook.com\/recipecoffee\/","address":"\u5c4f\u6771\u5e02\u535a\u611b\u8def30\u865f","latitude":"22.67200720","longitude":"120.48208680","limited_time":"maybe","socket":"no","standing_desk":"no","mrt":"","open_time":""},{"id":"e8a60dbe-8c39-4bfb-8a0b-3a0daa753bfc","name":"\u53ef\u53ef\u5171\u548c\u570b","city":"pingtung","wifi":0,"seat":0,"quiet":0,"tasty":0,"cheap":0,"music":0,"url":"https:\/\/www.facebook.com\/cocorepubliccafe","address":"\u5c4f\u6771\u5e02\u5ee3\u6771\u8def1028\u865f","latitude":"22.68756100","longitude":"120.48496930","limited_time":"","socket":"","standing_desk":"","mrt":"","open_time":"13:30 -22:00 \u661f\u671f\u56db\u516c\u4f11"},{"id":"eaf23f87-3fa0-486d-a145-4e0b1da75677","name":"\u766e\u7a7a\u9593","city":"pingtung","wifi":5,"seat":5,"quiet":5,"tasty":5,"cheap":5,"music":5,"url":"https:\/\/www.facebook.com\/freeness1219\/","address":"\u5c4f\u6771\u7e23\u6046\u6625\u93ae\u7701\u5317\u8def40\u5df7121\u865f","latitude":"22.00899900","longitude":"120.74792790","limited_time":"no","socket":"","standing_desk":"","mrt":"","open_time":""},{"id":"f349764b-6f74-4923-aff4-cc18f313462e","name":"\u6c5f\u679c\u5496\u5561 Jungle cafe","city":"pingtung","wifi":5,"seat":5,"quiet":5,"tasty":4,"cheap":5,"music":3,"url":"https:\/\/www.facebook.com\/%E6%B1%9F%E6%9E%9C%E5%92%96%E5%95%A1-jungle-cafe-113357660217058","address":"900\u5c4f\u6771\u7e23\u5c4f\u6771\u5e02\u6210\u90fd\u885736\u865f","latitude":"22.67492840","longitude":"120.48412510","limited_time":"no","socket":"no","standing_desk":"no","mrt":"","open_time":""},{"id":"fc4bbaec-1d82-4c46-9a5f-659de60b5edb","name":"\u65e5\u98df\u7cd6224 sugarbistro224","city":"pingtung","wifi":0,"seat":0,"quiet":0,"tasty":0,"cheap":0,"music":0,"url":"https:\/\/www.facebook.com\/sugar.bistro.22.24\/","address":"\u5c4f\u6771\u7e23\u5c4f\u6771\u5e02\u5eb7\u5b9a\u8def22\u865f","latitude":"22.67763590","longitude":"120.48341400","limited_time":"","socket":"","standing_desk":"","mrt":"","open_time":""},{"id":"fce3ddfc-f941-4c65-ab58-03fcb3d9d795","name":"EK\u70d8\u7119\u5de5\u4f5c\u5ba4","city":"pingtung","wifi":0,"seat":0,"quiet":0,"tasty":0,"cheap":0,"music":0,"url":"","address":"\u5c4f\u6771\u7e23\u6f6e\u5dde\u93ae\u7389\u6625\u885737\u865f","latitude":"22.55285760","longitude":"120.54735510","limited_time":"","socket":"","standing_desk":"","mrt":"","open_time":""},{"id":"fd54686a-563a-46fa-8029-2296040055a4","name":"\u98db\u5922\u6797\u9752\u5e74\u5496\u5561\u9928","city":"pingtung","wifi":5,"seat":5,"quiet":4.5,"tasty":4.5,"cheap":4.5,"music":4,"url":"https:\/\/www.facebook.com\/family087380518\/","address":"\u5c4f\u6771\u7e23\u5c4f\u6771\u5e02\u4e2d\u83ef\u8def80-2\u865f","latitude":"22.67667820","longitude":"120.49170090","limited_time":"no","socket":"yes","standing_desk":"yes","mrt":"","open_time":""}]}