{"data":[{"id":"013fea91-2d05-4e67-b961-ac9e0659ec08","name":"\u6027\u683c\u5496\u5561","city":"tainan","wifi":0,"seat":0,"quiet":0,"tasty":0,"cheap":0,"music":0,"url":"https:\/\/www.facebook.com\/Singletoast\/","address":"\u53f0\u5357\u5e02\u5317\u5340\u6210\u529f\u8def68\u5df74-5\u865f","latitude":"22.99860820","longitude":"120.20679550","limited_time":"no","socket":"no","standing_desk":"no","mrt":"","open_time":""},{"id":"0226048a-f553-4689-a131-4f9caff1e34f","name":"192\u624b\u5de5\u5496\u5561","city":"tainan","wifi":0,"seat":5,"quiet":5,"tasty":5,"cheap":5,"music":4,"url":"https:\/\/www.facebook.com\/192coffee\/","address":"\u53f0\u5357\u5e02\u6771\u5340\u80b2\u6a02\u8857117\u5df713\u865f","latitude":"22.99527100","longitude":"120.21504000","limited_time":"no","socket":"no","standing_desk":"","mrt":"","open_time":"\u4e0d\u5b9a\u6642\u4f11(\u56de\u8a3a\u3001\u9032\u4fee)\u6703\u5728 FB\u7c89 \u516c\u4f48"},{"id":"0299f482-86b6-47f9-a718-ef82cdb8434c","name":"\u7de9\u7de9\u5496\u5561","city":"tainan","wifi":5,"seat":5,"quiet":5,"tasty":5,"cheap":5,"music":5,"url":"https:\/\/www.facebook.com\/easecoffee0205","address":"\u53f0\u5357\u5e02\u6771\u5340\u6771\u5149\u8def\u4e8c\u6bb586\u865f","latitude":"22.99732300","longitude":"120.23176000","limited_time":"no","socket":"yes","standing_desk":"no","mrt":"","open_time":""},{"id":"0393ba9b-553f-445f-aa9f-6cd197ee8ff1","name":"Panorama Caffe","city":"tainan","wifi":5,"seat":5,"quiet":5,"tasty":5,"cheap":5,"music":5,"url":"https:\/\/www.facebook.com\/Panorama-Caffe-1800994453522595\/","address":"704 \u53f0\u5357\u5e02\u5317\u5340\u5357\u5712\u88572\u865f","latitude":"23.00931100","longitude":"120.22350700","limited_time":"maybe","socket":"maybe","standing_desk":"no","mrt":"","open_time":""},{"id":"06867ea9-b509-43e9-8a51-defbef877721","name":"findcoffee \u627e\u5496\u5561","city":"tainan","wifi":0,"seat":0,"quiet":0,"tasty":0,"cheap":0,"music":0,"url":"https:\/\/www.facebook.com\/findcoffee183\/","address":"\u53f0\u5357\u5e02\u4f73\u91cc\u5340\u5e73\u7b49\u8857183\u865f","latitude":"23.15668700","longitude":"120.17646500","limited_time":"no","socket":"maybe","standing_desk":"yes","mrt":"","open_time":"\u516c\u4f11\u516c\u544a\u65bcFB\u7c89\u5c08"},{"id":"073354ca-6914-4245-ae3c-d1231d62cfd1","name":"\u897f\u9580\u6d0b\u884c","city":"tainan","wifi":5,"seat":5,"quiet":4,"tasty":4.5,"cheap":4,"music":5,"url":"https:\/\/www.facebook.com\/simen.cafe\/","address":"\u53f0\u5357\u5e02\u897f\u9580\u8def\u4e00\u6bb5607\u865f3F","latitude":"22.98525390","longitude":"120.19738330","limited_time":"no","socket":"yes","standing_desk":"no","mrt":"","open_time":"\u4e8c\u516c\u4f11\uff0c\u4e09~\u4e9410:30\u201320:00\uff0c\u516d\u65e510:30\u201320:00"},{"id":"0769bba0-7c81-48ca-bf37-da4daf056e1a","name":"\u6e60\u5496\u5561","city":"tainan","wifi":5,"seat":5,"quiet":5,"tasty":4,"cheap":5,"music":5,"url":"https:\/\/www.facebook.com\/thuanncoffee\/","address":"\u53f0\u5357\u5e02\u5b78\u7532\u5340\u4e2d\u6b63\u8def225\u865f","latitude":"23.23320170","longitude":"120.17998810","limited_time":"no","socket":"no","standing_desk":"","mrt":"","open_time":""},{"id":"086e90bb-5f6d-449d-9fa8-31726f60eb32","name":"\u9811\u7ae5\u4e3b\u7fa9\u5496\u5561Stand-Up Shop","city":"tainan","wifi":0,"seat":0,"quiet":0,"tasty":0,"cheap":0,"music":0,"url":"","address":"70245\u53f0\u5357\u5e02\u5357\u5340\u897f\u9580\u8def\u4e00\u6bb5269\u865f","latitude":"22.97643520","longitude":"120.19742690","limited_time":"","socket":"","standing_desk":"","mrt":"","open_time":""},{"id":"0ace13d8-bb5a-485d-af29-d1d21a5918b4","name":"\u6a4b\u4e0a\u770b\u66f8(bRidge+)","city":"tainan","wifi":5,"seat":4.5,"quiet":4.5,"tasty":4.5,"cheap":4,"music":4.5,"url":"https:\/\/www.facebook.com\/bridgeplus2012\/","address":"\u53f0\u5357\u5e02\u6771\u5340\u52dd\u5229\u8def52\u5df713\u865f","latitude":"22.99210110","longitude":"120.21848800","limited_time":"no","socket":"maybe","standing_desk":"no","mrt":"","open_time":"\u4e8c-\u4e94 09:00 - 18:00 \u516d\u65e508:30 - 18:00 \u5468\u4e00\u4f11"},{"id":"0acf29bc-46ff-4671-a370-710286b0101f","name":"\u9ed1\u7f8a\u5496\u5561","city":"tainan","wifi":4,"seat":4,"quiet":3,"tasty":4,"cheap":5,"music":3,"url":"https:\/\/www.facebook.com\/%E9%BB%91%E7%BE%8A%E5%92%96%E5%95%A1-537527469747930\/?fref=ts","address":"\u53f0\u5357\u5e02\u6c38\u798f\u8def\u4e00\u6bb5\u4e94\u865f","latitude":"22.98177610","longitude":"120.19991140","limited_time":"","socket":"yes","standing_desk":"","mrt":"","open_time":"9:00-20:00"},{"id":"0b048887-f048-4fd6-a4f3-c0813aa71eb1","name":"FOR YOU espresso \u70ba\u4f60\u00b7\u716e\u5496\u5561","city":"tainan","wifi":0,"seat":5,"quiet":5,"tasty":5,"cheap":5,"music":5,"url":"https:\/\/www.facebook.com\/foryouespresso\/","address":"701\u53f0\u5357\u5e02\u6771\u5340\u9577\u69ae\u8def\u4e09\u6bb566\u5df762-1\u865f","latitude":"22.99351410","longitude":"120.22317210","limited_time":"no","socket":"yes","standing_desk":"yes","mrt":"","open_time":""},{"id":"0b317028-3a83-4aed-b70f-744e3ad42f1e","name":" 1982 de glac\u00e9e \u6cd5\u5f0f\u51b0\u6dc7\u6dcb","city":"tainan","wifi":5,"seat":3,"quiet":4,"tasty":5,"cheap":4,"music":5,"url":"https:\/\/www.facebook.com\/pg\/1982eco\/about\/?ref=page_internal","address":"700\u53f0\u7063\u53f0\u5357\u5e02\u4e2d\u897f\u5340\u6c38\u798f\u8def\u4e00\u6bb568\u5df79\u865f","latitude":"22.98702780","longitude":"120.20059510","limited_time":"no","socket":"maybe","standing_desk":"yes","mrt":"","open_time":""},{"id":"0c44ed70-2904-48ce-84ef-881c261e9d35","name":"\u8c93\u9580Cafe Moment","city":"tainan","wifi":5,"seat":4,"quiet":4,"tasty":5,"cheap":4,"music":5,"url":"https:\/\/www.facebook.com\/MaoMenCafeMoment\/","address":"\u53f0\u5357\u5e02\u5317\u5340\u5357\u5712\u885787\u865f1\u6a13","latitude":"23.00823960","longitude":"120.22523070","limited_time":"no","socket":"maybe","standing_desk":"no","mrt":"","open_time":"\u661f\u671f\u4e00-\u4e09 0900-1800 \u661f\u671f\u4e94-\u65e50900-2200[\u661f\u671f\u56db\u56fa\u5b9a\u5e97\u4f11 \u4f46\u6709\u6642\u5019\u8001\u95c6\u6703\u5099\u6599\u9806\u4fbf\u958b\u5e97\u71df\u696d \u8a73\u7d30\u8acb\u770b\u7c89\u7d72\u9801]"},{"id":"0e3f6083-bd9b-4800-840d-670a90f4bec1","name":"\u8c50\u5496\u5561 \u5b89\u5e73\u5e97","city":"tainan","wifi":5,"seat":5,"quiet":5,"tasty":5,"cheap":5,"music":4,"url":"","address":"70846\u53f0\u5357\u5e02\u5b89\u5e73\u5340\u5065\u5eb7\u4e8c\u8857508\u865f","latitude":"22.99104810","longitude":"120.19612660","limited_time":"no","socket":"yes","standing_desk":"yes","mrt":"","open_time":""},{"id":"0ec8d078-0012-4389-9b5a-d36ca148802b","name":"\u5927\u98a8\u5802","city":"tainan","wifi":5,"seat":5,"quiet":5,"tasty":5,"cheap":4,"music":0,"url":"https:\/\/www.facebook.com\/DAFONGTANG\/","address":"\u53f0\u5357\u5e02\u6771\u548c\u8def159\u5df729\u865f","latitude":"22.99799380","longitude":"120.22691630","limited_time":"","socket":"maybe","standing_desk":"","mrt":"","open_time":"10:00 - 20:00 \u5468\u4e00\u4e8c\u4f11"},{"id":"0ee0fe9c-327f-4fa8-b930-40f526de4ada","name":"\u68e7\u7559\u5496\u5561\u5c0f\u9928","city":"tainan","wifi":4,"seat":5,"quiet":3,"tasty":4,"cheap":4,"music":4,"url":"https:\/\/www.facebook.com\/stayinn.coffee.tw\/?fref=ts","address":"\u53f0\u5357\u5e02\u5b89\u5357\u5340\u672c\u539f\u88572\u6bb532\u865f","latitude":"23.05719800","longitude":"120.18860990","limited_time":"","socket":"maybe","standing_desk":"yes","mrt":"","open_time":""},{"id":"10809e7c-f711-4ba8-a48d-3a66f8f1ee3b","name":"\u8def\u6613\u838e\u5496\u5561\u6c38\u5eb7\u5206\u5e97","city":"tainan","wifi":5,"seat":5,"quiet":5,"tasty":5,"cheap":5,"music":5,"url":"https:\/\/www.facebook.com\/%E8%B7%AF%E6%98%93%E8%8E%8ELouisa-coffee%E4%B9%8B%E5%8F%B0%E5%8D%97%E6%B0%B8%E5%BA%B7%E5%BA%97-117941595272468\/","address":"\u53f0\u5357\u5e02\u6c38\u5eb7\u5340\u4e2d\u83ef\u4e8c\u8def365\u865f","latitude":"23.00790010","longitude":"120.23185000","limited_time":"","socket":"","standing_desk":"","mrt":"","open_time":"07:00 - 21:00 \u516d\u65e5-19:00"},{"id":"12d05d89-b572-4912-8b35-d42f3ebe6407","name":"\u80a5\u8c93\u5496\u5561","city":"tainan","wifi":5,"seat":5,"quiet":5,"tasty":5,"cheap":5,"music":5,"url":"https:\/\/www.facebook.com\/fatcatcoffee135\/","address":"\u53f0\u5357\u5e02\u4e2d\u897f\u5340\u795e\u8fb2\u8857135\u865f","latitude":"22.99791200","longitude":"120.19523100","limited_time":"no","socket":"maybe","standing_desk":"no","mrt":"","open_time":""},{"id":"13a7a35d-f212-482e-a021-5bf3c2347e0c","name":"\u8857\u982d\u5496\u5561Street Cafe \u6c11\u751f\u5e97 ","city":"tainan","wifi":0,"seat":0,"quiet":0,"tasty":0,"cheap":0,"music":0,"url":"","address":"\u53f0\u5357\u5e02\u4e2d\u897f\u5340\u65b0\u7f8e\u88577\u865f","latitude":"22.99450630","longitude":"120.20003500","limited_time":"","socket":"","standing_desk":"","mrt":"","open_time":""},{"id":"1404d099-8a85-41b7-8cec-2ad4f7dbcf3f","name":"THE YUAN \u6771\u8208\u5e97","city":"tainan","wifi":0,"seat":0,"quiet":0,"tasty":0,"cheap":0,"music":0,"url":"","address":"701\u53f0\u5357\u5e02\u6771\u5340\u6771\u8208\u8def13\u865f","latitude":"22.99040860","longitude":"120.22848750","limited_time":"maybe","socket":"no","standing_desk":"no","mrt":"","open_time":""},{"id":"142ba05b-8c7e-45f0-8002-0a1e82969283","name":"Lefty's Cafe \u5de6\u6487\u5b50\u5496\u5561\u5427","city":"tainan","wifi":4,"seat":4,"quiet":4,"tasty":4,"cheap":4,"music":4,"url":"https:\/\/www.facebook.com\/leftyscoffeetogo\/","address":"\u53f0\u5357\u5e02\u6c11\u65cf\u8def\u4e09\u6bb5289\u865f","latitude":"23.00006310","longitude":"120.19226640","limited_time":"no","socket":"yes","standing_desk":"yes","mrt":"","open_time":"\u81e8\u6642\u8b8a\u52d5\u53e6\u898bFB\u7c89\u7d72\u5c08\u9801"},{"id":"15bab905-9502-415c-a3ec-bc6e25222465","name":"\u96f7\u5df4\u5496\u5561\u70d8\u7119\u9053\u5834","city":"tainan","wifi":0,"seat":0,"quiet":0,"tasty":0,"cheap":0,"music":0,"url":"","address":"701\u53f0\u5357\u5e02\u6771\u5340\u9577\u69ae\u8def\u4e00\u6bb5186\u865f1\u6a13","latitude":"22.98459640","longitude":"120.21824370","limited_time":"maybe","socket":"maybe","standing_desk":"no","mrt":"","open_time":""},{"id":"1696a0cc-6538-4c6c-80f4-06bd24dae30f","name":"Bobosa Coffee","city":"tainan","wifi":0,"seat":5,"quiet":5,"tasty":5,"cheap":4,"music":3,"url":"https:\/\/www.facebook.com\/bobosa.coffee.tainan.com.tw\/","address":"\u53f0\u5357\u5e02\u5317\u5340\u5c0f\u6771\u8def321\u865f","latitude":"22.99921720","longitude":"120.23082460","limited_time":"","socket":"","standing_desk":"","mrt":"","open_time":""},{"id":"17471888-4833-4644-b6aa-2de0062f254f","name":"\u866b\u4e8c\u5496\u5561","city":"tainan","wifi":5,"seat":5,"quiet":5,"tasty":2.5,"cheap":1.5,"music":5,"url":"","address":"\u53f0\u5357\u5e02\u6771\u5340\u9577\u69ae\u8def\u4e00\u6bb5101\u865f","latitude":"22.98276380","longitude":"120.21636730","limited_time":"","socket":"","standing_desk":"","mrt":"","open_time":""},{"id":"19e23eed-3301-49ae-9594-3661bceabdfa","name":"\u6b50\u5854\u514bottag caf'e\u624b\u4f5c\u70d8\u7119\u5496\u5561\u9928","city":"tainan","wifi":5,"seat":4,"quiet":4,"tasty":4,"cheap":5,"music":4,"url":"","address":"\u53f0\u5357\u5e02\u5b89\u5e73\u5340\u83ef\u5e73\u8def726\u865f","latitude":"22.99861730","longitude":"120.17617000","limited_time":"","socket":"","standing_desk":"","mrt":"","open_time":""},{"id":"1d704f83-3988-4d21-801a-5640673117f0","name":"ARA  coffee co","city":"tainan","wifi":0,"seat":0,"quiet":0,"tasty":0,"cheap":0,"music":0,"url":"","address":"\u53f0\u5357\u5e02\u5b89\u5e73\u5340 \u5065\u5eb7\u4e09\u8857107\u5df77\u865f\u65c1\u8ca8\u6ac3\u5c4b","latitude":"22.98750500","longitude":"120.16820700","limited_time":"","socket":"","standing_desk":"","mrt":"","open_time":""},{"id":"1f824006-d6e2-45d1-9ae5-df920eaef452","name":"\u9244\u5de5\u5496\u5561\u9928\/\u5343\u5c64\u86cb\u7cd5","city":"tainan","wifi":0,"seat":0,"quiet":0,"tasty":0,"cheap":0,"music":0,"url":"https:\/\/www.facebook.com\/strongironcoffee","address":"701\u53f0\u5357\u5e02\u6771\u5340\u88d5\u8c50\u8857105\u865f","latitude":"22.98655090","longitude":"120.22685410","limited_time":"maybe","socket":"maybe","standing_desk":"yes","mrt":"","open_time":""},{"id":"226c23dd-fe32-4f1f-90b8-6ec5d0ef04ea","name":"\u8fb2\u6797\u5496\u5561","city":"tainan","wifi":0,"seat":0,"quiet":0,"tasty":5,"cheap":5,"music":5,"url":"https:\/\/www.facebook.com\/nonglincafe\/","address":"\u53f0\u5357\u5e02\u9ebb\u8c46\u5340\u9ebb\u53e3\u91cc10\u4e4b13\u865f","latitude":"23.17809230","longitude":"120.22445210","limited_time":"","socket":"","standing_desk":"yes","mrt":"","open_time":""},{"id":"27de2f1b-dfc4-4b0c-a67f-1e8d56dc419d","name":"\u91d1\u945b\u5496\u5561\u53f0\u5357\u6c38\u83ef\u5e97","city":"tainan","wifi":5,"seat":4.2,"quiet":3,"tasty":4.8,"cheap":4.5,"music":4.2,"url":"","address":"\u53f0\u5357\u5e02\u6c38\u83ef\u8def\u4e00\u6bb5301\u865f","latitude":"22.98850800","longitude":"120.18848900","limited_time":"no","socket":"maybe","standing_desk":"no","mrt":"","open_time":""},{"id":"29529b23-e8af-4d69-8746-3417dab8968d","name":"\u76f4\u5f0f\u5496\u5561","city":"tainan","wifi":0,"seat":0,"quiet":0,"tasty":0,"cheap":0,"music":0,"url":"","address":"\u53f0\u5357\u5e02\u897f\u9580\u8def\u4e8c\u6bb5412-1\u865f","latitude":"22.99924520","longitude":"120.20113440","limited_time":"","socket":"","standing_desk":"","mrt":"","open_time":""},{"id":"2a4974e9-5a59-4a55-a1d4-e80cdbc7c9a7","name":"\u5b89\u5f92\u751f\u5496\u5561\u9928","city":"tainan","wifi":0,"seat":4,"quiet":4,"tasty":3,"cheap":4,"music":3,"url":"","address":"\u53f0\u5357\u5e02\u5317\u5340\u6771\u8c50\u8def249\u865f","latitude":"23.00321430","longitude":"120.22166560","limited_time":"no","socket":"no","standing_desk":"no","mrt":"","open_time":""},{"id":"2ad64a26-9790-4be3-a096-9928ae081488","name":"\u5361\u52a0\u7c73\u4e9ecasamia cafe","city":"tainan","wifi":5,"seat":4,"quiet":4,"tasty":4,"cheap":4,"music":4.5,"url":"https:\/\/www.facebook.com\/casamiacafe","address":"\u53f0\u5357\u5e02\u4e2d\u897f\u5340\u897f\u9580\u8def\u4e8c\u6bb5426\u865f","latitude":"22.99945500","longitude":"120.20124590","limited_time":"","socket":"","standing_desk":"","mrt":"","open_time":"09\uff1a00-17\uff1a00 \u5468\u4e00\u4f11"},{"id":"2b28b2db-f915-4b92-9daf-68d9a8480c25","name":"\u6708\u5149\u5496\u5561\u5ef3","city":"tainan","wifi":3,"seat":4,"quiet":4,"tasty":5,"cheap":4,"music":5,"url":"","address":"\u53f0\u5357\u5dff\u6771\u5340\u5d07\u660e\u8def405\u865f2\u6a13","latitude":"22.97373650","longitude":"120.22395900","limited_time":"no","socket":"maybe","standing_desk":"no","mrt":"","open_time":""},{"id":"2b8aabc9-49aa-4bb7-9483-8606de48f5c5","name":"A WEEK","city":"tainan","wifi":0,"seat":0,"quiet":0,"tasty":0,"cheap":0,"music":0,"url":"https:\/\/www.facebook.com\/AWEEKcoffeepancake\/","address":"\u53f0\u5357\u5e02\u4e2d\u897f\u5340\u6b66\u5fb7\u885722-1\u865f","latitude":"22.99254380","longitude":"120.20974000","limited_time":"","socket":"","standing_desk":"","mrt":"","open_time":"\u4e8c~\u4e9410:00 - 18:00 \u516d\u65e509:00 - 18:00 \u5468\u4e00\u4f11"},{"id":"2c1833e5-aff3-4489-81c2-369ae4509dde","name":"Caf'e Duet","city":"tainan","wifi":5,"seat":5,"quiet":5,"tasty":5,"cheap":1,"music":5,"url":"https:\/\/www.facebook.com\/cafeduet\/","address":"\u53f0\u5357\u5e02\u5065\u5eb7\u8def\u4e00\u6bb5113\u5df766\u865f","latitude":"22.98140700","longitude":"120.21004500","limited_time":"no","socket":"no","standing_desk":"no","mrt":"","open_time":"10\uff1a00\uff5e18\uff1a00"},{"id":"2c252b48-0e1c-4dce-914d-6e1cbacdf722","name":"\u5169\u5006","city":"tainan","wifi":4,"seat":4,"quiet":5,"tasty":4,"cheap":4,"music":4,"url":"https:\/\/www.facebook.com\/2liang\/","address":"\u53f0\u5357\u5e02\u4e2d\u897f\u5340\u4fe1\u7fa9\u8857100\u865f","latitude":"23.00058100","longitude":"120.19504300","limited_time":"","socket":"maybe","standing_desk":"yes","mrt":"","open_time":""},{"id":"2d43783e-f5b0-45f8-868e-feff37129460","name":"More Cafe, \u6469\u723e\u5496\u5561. \u6469\u723e\u5148\u751f\u5496\u5561\u9928","city":"tainan","wifi":0,"seat":0,"quiet":0,"tasty":0,"cheap":0,"music":0,"url":"https:\/\/www.facebook.com\/HelloMoreCafe\/","address":"\u53f0\u5357\u5e02\u4e2d\u897f\u5340\u8d64\u5d4c\u885747\u865f","latitude":"22.99857100","longitude":"120.20240700","limited_time":"maybe","socket":"no","standing_desk":"no","mrt":"","open_time":""},{"id":"2d8ab165-5299-4116-9ea9-28e9a6a654ce","name":"PEKOPEKO","city":"tainan","wifi":0,"seat":5,"quiet":4,"tasty":0,"cheap":0,"music":5,"url":"","address":"700\u53f0\u5357\u5e02\u4e2d\u897f\u5340\u6c11\u751f\u8def\u4e00\u6bb5132\u5df75\u865f","latitude":"22.99444370","longitude":"120.20075970","limited_time":"no","socket":"no","standing_desk":"no","mrt":"","open_time":""},{"id":"2f91200e-4c1f-4168-8982-6d89d032b132","name":"\u6df1\u4f5c\u5496\u5561","city":"tainan","wifi":4,"seat":5,"quiet":4.5,"tasty":4,"cheap":4.5,"music":4.5,"url":"https:\/\/www.facebook.com\/%E6%B7%B1%E4%BD%9Ccafe-139303346276286\/","address":"\u53f0\u5357\u5e02\u4e2d\u897f\u5340\u6c11\u6b0a\u8def\u4e8c\u6bb5231\u865f","latitude":"22.99535480","longitude":"120.20142130","limited_time":"no","socket":"yes","standing_desk":"yes","mrt":"","open_time":"0800~1800 \u9031\u4e8c\u4f11 \u6708\u5e95\u6700\u5f8c\u4e00\u9031\u7684\u79ae\u62dc\u4e00\u4f11"},{"id":"2feadb1c-9cb4-4bfd-ae62-4f2d9ad91e65","name":"bib pancake","city":"tainan","wifi":0,"seat":0,"quiet":0,"tasty":0,"cheap":0,"music":0,"url":"","address":"\u53f0\u5357\u5e02\u958b\u5c71\u8def106\u865f","latitude":"22.98967550","longitude":"120.20693300","limited_time":"","socket":"","standing_desk":"","mrt":"","open_time":""},{"id":"300e5387-883a-41a1-9476-0ffe939bb758","name":"\u6a58\u820d","city":"tainan","wifi":3,"seat":4,"quiet":5,"tasty":5,"cheap":5,"music":4,"url":"","address":"\u4e2d\u897f\u5340\u4e2d\u6b63\u8def108\u5df71\u865f","latitude":"22.99282400","longitude":"120.20019100","limited_time":"no","socket":"no","standing_desk":"no","mrt":"","open_time":"08\uff1a00\uff5e18\uff1a00"},{"id":"3100ca44-d52a-4186-abd3-77ea4ecac858","name":"\u852c\u98df\u6a02 \u521d\u59cb\u5e97","city":"tainan","wifi":4,"seat":4,"quiet":4,"tasty":5,"cheap":4,"music":4,"url":"https:\/\/www.facebook.com\/SoothRoadoriginal\/","address":"\u53f0\u5357\u5e02\u6771\u5340\u6771\u5e73\u8def61\u865f","latitude":"22.99498630","longitude":"120.23199200","limited_time":"maybe","socket":"no","standing_desk":"no","mrt":"","open_time":""},{"id":"32060f39-d4a1-4f62-8c54-59af9ebdf4f0","name":"\u54c8\u672c\u5496\u5561Happen Coffee","city":"tainan","wifi":5,"seat":5,"quiet":5,"tasty":5,"cheap":4,"music":5,"url":"https:\/\/www.facebook.com\/Happencoffee\/","address":"\u53f0\u5357\u5e02\u6771\u5340\u9577\u69ae\u8def\u4e09\u6bb53\u865f2F","latitude":"22.99288340","longitude":"120.22145020","limited_time":"","socket":"no","standing_desk":"","mrt":"","open_time":"09:30 - 20:30 \u5468\u4e00\u4f11"},{"id":"32c59c93-3150-438d-b0ba-f53ffe91475b","name":"M2 coffee shop \u5d07\u5fb7\u5e97","city":"tainan","wifi":5,"seat":5,"quiet":4,"tasty":4,"cheap":5,"music":4,"url":"","address":"701\u53f0\u5357\u5e02\u6771\u5340\u5d07\u5fb7\u8def616\u865f","latitude":"22.97077350","longitude":"120.22736760","limited_time":"no","socket":"no","standing_desk":"no","mrt":"","open_time":"\u5df2\u505c\u696d"},{"id":"33c277d3-09fd-41f6-9083-b04e6e22d12e","name":"\u83ef\u838e\u5496\u5561","city":"tainan","wifi":5,"seat":5,"quiet":5,"tasty":5,"cheap":5,"music":5,"url":"https:\/\/www.facebook.com\/warszawa.cafe\/","address":"\u53f0\u5357\u5e02\u6771\u5340\u5bcc\u8fb2\u8857\u4e00\u6bb5131\u5df724-1\u865f1\u6a13","latitude":"22.98217500","longitude":"120.23400200","limited_time":"no","socket":"yes","standing_desk":"no","mrt":"","open_time":""},{"id":"33e698ab-8cde-4ec2-8114-56469a4215b5","name":"\u731b\u7537\u5496\u5561","city":"tainan","wifi":5,"seat":3,"quiet":3,"tasty":5,"cheap":2,"music":5,"url":"","address":"\u53f0\u5357\u5e02\u5357\u5340\u5927\u6210\u8def\u4e00\u6bb532\u865f","latitude":"22.97517200","longitude":"120.20254000","limited_time":"","socket":"","standing_desk":"","mrt":"","open_time":""},{"id":"34a25d36-ade6-4c72-a62e-56605af7ff96","name":"James Cofa","city":"tainan","wifi":0,"seat":0,"quiet":0,"tasty":0,"cheap":0,"music":0,"url":"","address":"\u53f0\u5357\u5e02\u6c11\u65cf\u8def\u4e8c\u6bb547\u865f","latitude":"22.99428710","longitude":"120.21044260","limited_time":"","socket":"","standing_desk":"","mrt":"","open_time":""},{"id":"35a2dbbb-ade9-48e1-a17d-82187947c16c","name":"\u7216\u5496\u5561","city":"tainan","wifi":0,"seat":0,"quiet":0,"tasty":0,"cheap":0,"music":0,"url":"","address":"70463\u53f0\u5357\u5e02\u5317\u5340\u958b\u5143\u8def342\u5df78\u5f041\u865f","latitude":"23.00926650","longitude":"120.22415980","limited_time":"","socket":"","standing_desk":"","mrt":"","open_time":""},{"id":"35d335ac-783c-4868-9b4c-30704e28fd83","name":"CHEFFRESH cafe (\u5357\u9580)","city":"tainan","wifi":5,"seat":3,"quiet":4,"tasty":5,"cheap":3,"music":5,"url":"https:\/\/www.facebook.com\/CHEFFRESH-cafe-133198263358168\/","address":"\u570b\u7acb\u53f0\u7063\u6587\u5b78\u9928\u2014\u53f0\u5357\u4e2d\u6b63\u8def1\u865f\uff08\u5357\u9580\u8def\u51fa\u5165\u53e3\uff09","latitude":"22.99197710","longitude":"120.20449150","limited_time":"no","socket":"","standing_desk":"","mrt":"","open_time":""},{"id":"35d3a55e-5be1-433d-bc11-da73e43250db","name":"\u90a3\u5496\u5561","city":"tainan","wifi":0,"seat":5,"quiet":4,"tasty":5,"cheap":5,"music":4,"url":"https:\/\/www.facebook.com\/nacofe","address":"744\u53f0\u5357\u5e02\u65b0\u5e02\u5340\u4fe1\u7fa9\u88575-13","latitude":"23.07250260","longitude":"120.29004800","limited_time":"no","socket":"maybe","standing_desk":"no","mrt":"","open_time":"\u9700\u8981\u5230\u7c89\u7d72\u5c08\u696d\u8a62\u554f\u958b\u5e97\u4e88\u5426"},{"id":"380137bf-41d5-46a1-b716-f1e80a2197b5","name":"\u6751\u6709\u718a","city":"tainan","wifi":0,"seat":0,"quiet":0,"tasty":0,"cheap":0,"music":0,"url":"","address":"\u53f0\u5357\u5e02\u6c38\u5eb7\u5340\u4e2d\u5c71\u6771\u8def239\u865f","latitude":"23.01103150","longitude":"120.23711590","limited_time":"","socket":"","standing_desk":"","mrt":"","open_time":""},{"id":"38c0c26e-d120-4368-a3cc-90abdb762c0d","name":"\u66f2\u5c4b\u5496\u5561","city":"tainan","wifi":4.5,"seat":3.5,"quiet":4,"tasty":5,"cheap":4,"music":3,"url":"https:\/\/www.facebook.com\/musichousecoffee\/","address":"\u53f0\u5357\u5e02\u4e2d\u897f\u5340\u5e9c\u7def\u885782\u865f","latitude":"22.98397280","longitude":"120.19701460","limited_time":"no","socket":"maybe","standing_desk":"yes","mrt":"","open_time":"0930-1900"},{"id":"38ca249c-df2c-4b71-946b-75924e66ab5c","name":"Coffee Concept \u96b1\u521d","city":"tainan","wifi":5,"seat":5,"quiet":5,"tasty":5,"cheap":0,"music":0,"url":"https:\/\/m.facebook.com\/coffeeconcept01\/","address":"\u53f0\u5357\u5e02\u4e2d\u897f\u5340\u897f\u9580\u8def\u4e8c\u6bb5365\u5df75\u865f","latitude":"22.99809950","longitude":"120.20013590","limited_time":"no","socket":"maybe","standing_desk":"no","mrt":"","open_time":""},{"id":"38f5b7d0-3244-42ad-bd44-817c4657c402","name":"\u6771\u6953\u5496\u5561","city":"tainan","wifi":4,"seat":4,"quiet":3,"tasty":4,"cheap":5,"music":3,"url":"https:\/\/www.facebook.com\/dongfongcoffee\/","address":"\u53f0\u5357\u5e02\u5317\u5340\u6771\u8c50\u8def161\u865f","latitude":"23.00366240","longitude":"120.21849300","limited_time":"","socket":"","standing_desk":"","mrt":"","open_time":"07:00 - 21:00 \u516d\u65e508:00 - 18:00"},{"id":"3a410430-abf0-4041-9159-dadac8a0ce99","name":"\u6b78\u65c5\u5496\u5561\uff20\u53f0\u5357\u5b89\u5e73\uff20\u65e9\u5348\u9910\uff20\u6c11\u5bbf\uff20Guei Cafe","city":"tainan","wifi":5,"seat":5,"quiet":5,"tasty":5,"cheap":5,"music":5,"url":"https:\/\/www.facebook.com\/gueicafe\/","address":"\u53f0\u5357\u5e02\u5b89\u5e73\u5340\u5efa\u5e73\u4e03\u8857752\u865f","latitude":"22.99026510","longitude":"120.16795180","limited_time":"maybe","socket":"yes","standing_desk":"yes","mrt":"","open_time":"9:00-16:00"},{"id":"3acf17b5-d5eb-4f21-bf93-2adf661e405a","name":"\u6046\u8403\u5496\u5561Coffee Forever","city":"tainan","wifi":5,"seat":5,"quiet":5,"tasty":5,"cheap":4,"music":5,"url":"https:\/\/www.facebook.com\/licoffeefoever\/","address":"741\u53f0\u5357\u5e02\u5584\u5316\u5340\u6c11\u6b0a\u8def37-1\u865f","latitude":"23.13203350","longitude":"120.30385610","limited_time":"no","socket":"maybe","standing_desk":"no","mrt":"","open_time":""},{"id":"3adc15e4-b824-4a21-a4b4-0726a8aac6f6","name":"am's food and goods","city":"tainan","wifi":0,"seat":0,"quiet":0,"tasty":0,"cheap":0,"music":0,"url":"","address":"\u53f0\u5357\u5e02\u5317\u5340\u524d\u92d2\u8def173\u865f","latitude":"23.00193580","longitude":"120.21452740","limited_time":"","socket":"","standing_desk":"","mrt":"","open_time":""},{"id":"3b653515-6d68-497c-bda0-235140f432a0","name":"URN Cafe","city":"tainan","wifi":5,"seat":5,"quiet":4.5,"tasty":5,"cheap":3.5,"music":5,"url":"https:\/\/www.facebook.com\/URNCAFE","address":"\u53f0\u5357\u5e02\u4e2d\u897f\u5340\u81e8\u5b89\u8def\u4e00\u6bb597\u865f","latitude":"22.99946710","longitude":"120.19087340","limited_time":"no","socket":"maybe","standing_desk":"yes","mrt":"","open_time":"\u570b\u5b9a\u5047\u65e5\u7686\u4f11"},{"id":"3d531140-60e1-4194-96c5-c186c0bf0cc6","name":"\u9806\u98a8\u865f","city":"tainan","wifi":4,"seat":4,"quiet":5,"tasty":4,"cheap":4,"music":5,"url":"https:\/\/www.facebook.com\/%E9%A0%86%E9%A2%A8%E8%99%9F-337562839689320\/?fref=ts","address":"\u53f0\u5357\u5e02\u4e2d\u897f\u5340\u958b\u5c71\u8def35\u5df739\u5f0432\u865f","latitude":"22.99011840","longitude":"120.20775680","limited_time":"","socket":"","standing_desk":"no","mrt":"","open_time":"\u5403\u7684\u4e8c-\u4e94\u4f9b\u61c9\u81f320:00\u3001\u516d\u65e5\u4f9b\u61c9\u81f320:30"},{"id":"3dba2825-5fbb-4832-a918-f1d8837c2988","name":"\u54c1\u84ec\u5496\u5561Pinpong Coffee","city":"tainan","wifi":3,"seat":4,"quiet":4,"tasty":4,"cheap":4,"music":5,"url":"https:\/\/www.facebook.com\/pinpongcoffee\/","address":"\u53f0\u5357\u5e02\u4e2d\u897f\u5340\u5e9c\u524d\u8def\u4e00\u6bb5196\u5df717\u865f","latitude":"22.98968900","longitude":"120.20508800","limited_time":"no","socket":"maybe","standing_desk":"no","mrt":"","open_time":""},{"id":"3dea5309-ef45-41b0-80be-abb1c147696b","name":"\u6b63\u8208\u5496\u5561\u9928","city":"tainan","wifi":5,"seat":4,"quiet":3,"tasty":5,"cheap":5,"music":5,"url":"https:\/\/www.facebook.com\/zx.cafe","address":"\u53f0\u5357\u5e02\u4e2d\u897f\u5340\u570b\u83ef\u8857\u4e09\u6bb543\u865f","latitude":"22.99422970","longitude":"120.19736230","limited_time":"","socket":"","standing_desk":"","mrt":"","open_time":"\u9031\u4e00\uff5e\u56db\uff1a09:00 - 19:00 \u9031\u4e94\uff5e\u65e5\uff1a09:00 - 21:00"},{"id":"3f90aba5-2a6b-4fa8-b102-7a5fd1294031","name":"Coffee Cafe' \u5496\u5561\u73c8\u7432","city":"tainan","wifi":4,"seat":3,"quiet":4.5,"tasty":4,"cheap":4.5,"music":4.5,"url":"https:\/\/www.facebook.com\/abelCoffeeCafe\/","address":"\u53f0\u5357\u5e02\u4e2d\u897f\u5340\u6a39\u6797\u8857\u4e8c\u6bb5290\u865f","latitude":"22.98650210","longitude":"120.20140570","limited_time":"no","socket":"","standing_desk":"","mrt":"","open_time":"10:00 - 21:00 \u9031\u4e09\u4f11"},{"id":"3facb8a4-f116-47e9-bc29-f2edbfc1fc75","name":"Smile Elephant \u5fae\u7b11\u65e5\u4f5c\u83d3\u5b50","city":"tainan","wifi":0,"seat":0,"quiet":0,"tasty":0,"cheap":0,"music":0,"url":"https:\/\/www.facebook.com\/Smile-Elephant-%E5%BE%AE%E7%AC%91%E6%97%A5%E4%BD%9C%E8%8F%93%E5%AD%90-196798317171327\/","address":"\u53f0\u5357\u5e02\u4e2d\u897f\u5340\u795e\u8fb2\u8857109\u865f","latitude":"22.99781860","longitude":"120.19587290","limited_time":"","socket":"","standing_desk":"","mrt":"","open_time":"11:00 - 19:00 \u5468\u4e00\u4e8c\u4f11 (ps.\u751c\u9ede\u8ce3\u5b8c\u5c31\u6703\u63d0\u65e9\u7d50\u675f\u71df\u696d)"},{"id":"4024b04f-5748-41d5-be34-6ac665e439ea","name":"\u5e2d\u746a\u6735\u73c8\u7432\u70d8\u7119\u68e7(\u7acb\u8ce2\u5e97)","city":"tainan","wifi":4,"seat":3,"quiet":4,"tasty":4,"cheap":3,"music":4,"url":"https:\/\/www.facebook.com\/cermado.spirit\/","address":"\u53f0\u5357\u5e02\u5317\u5340\u7acb\u8ce2\u8def\u4e00\u6bb5569\u865f","latitude":"23.00953480","longitude":"120.20121220","limited_time":"","socket":"no","standing_desk":"no","mrt":"","open_time":""},{"id":"409300b4-9125-4de7-b090-efe4c44bf3a6","name":"\u5c0f\u5df7\u88e1\u7684\u62fe\u58f9\u865f","city":"tainan","wifi":5,"seat":3,"quiet":4,"tasty":5,"cheap":5,"music":5,"url":"https:\/\/www.facebook.com\/thealleyno11","address":"\u53f0\u5357\u5e02\u4e2d\u897f\u5340\u885b\u6c11\u8857143\u5df711\u865f","latitude":"22.99311880","longitude":"120.20761420","limited_time":"maybe","socket":"yes","standing_desk":"no","mrt":"","open_time":""},{"id":"416e74a2-9c40-4b77-b3ea-6a52b36f538d","name":"\u7a4e\u53ef\u9054Incosda Coffee","city":"tainan","wifi":5,"seat":5,"quiet":3,"tasty":4,"cheap":2,"music":3,"url":"https:\/\/www.facebook.com\/incosda\/","address":"\u53f0\u5357\u5e02\u6771\u5340\u4ec1\u548c\u8def37\u865f","latitude":"22.97010720","longitude":"120.23511350","limited_time":"no","socket":"maybe","standing_desk":"no","mrt":"","open_time":""},{"id":"431c4a4f-febf-4c9b-93ba-c99f7b6571e7","name":"\u79c1\u4eba\u85cf\u8c46 COFFELLECTION - \u6c38\u5eb7\u5e97","city":"tainan","wifi":0,"seat":0,"quiet":0,"tasty":0,"cheap":0,"music":0,"url":"https:\/\/www.facebook.com\/coffellection\/","address":"\u53f0\u5357\u5e02\u6c38\u5eb7\u5340\u6c38\u5e73\u8857No. 161\u865f","latitude":"23.02226670","longitude":"120.25866090","limited_time":"maybe","socket":"yes","standing_desk":"no","mrt":"","open_time":""},{"id":"43a25b9a-a14c-4047-827b-ba23b63133cc","name":"\u5496\u5561\u57fa\u56e0 Espresso Bar & Specialty Coffee","city":"tainan","wifi":2.5,"seat":3,"quiet":3,"tasty":5,"cheap":5,"music":4,"url":"https:\/\/www.facebook.com\/coffeegenes\/","address":"\u53f0\u5357\u5e02\u4e2d\u897f\u5340\u5e9c\u9023\u8def132\u865f","latitude":"22.98421580","longitude":"120.21093770","limited_time":"no","socket":"","standing_desk":"","mrt":"","open_time":"07:00\u201317:00 \u9031\u56db\u4f11"},{"id":"43b2ea21-5cc3-4572-8749-337a7bcd9284","name":"FuYu cafe'\u8ce6\u4e8e\u5496\u5561","city":"tainan","wifi":0,"seat":0,"quiet":0,"tasty":0,"cheap":0,"music":0,"url":"","address":"\u53f0\u5357\u5e02\u6771\u5340\u9577\u69ae\u8def\u4e09\u6bb576\u865f","latitude":"22.99399900","longitude":"120.22187670","limited_time":"","socket":"no","standing_desk":"yes","mrt":"","open_time":""},{"id":"452784e9-31df-460b-9a8e-e91442902db7","name":"\u827e\u767b\u5496\u5561\u9928","city":"tainan","wifi":5,"seat":4,"quiet":3,"tasty":5,"cheap":5,"music":4,"url":"https:\/\/www.facebook.com\/cafeidentw\/","address":"\u53f0\u5357\u5e02\u4e2d\u897f\u5340\u6210\u529f\u8def437\u865f","latitude":"23.00080700","longitude":"120.19693100","limited_time":"no","socket":"no","standing_desk":"yes","mrt":"","open_time":"\u4e0d\u5b9a\u671f\u5e97\u4f11\uff0c\u516c\u544aFB\u53ca\u73fe\u5834"},{"id":"452c1b88-9658-4b38-8751-588fb27d43b7","name":"\u8fb0\u661f\u5496\u5561 EstrellaCoffee","city":"tainan","wifi":5,"seat":4.5,"quiet":4,"tasty":4.5,"cheap":4,"music":4,"url":"https:\/\/www.facebook.com\/EstrellaCoffeeShop\/","address":"\u53f0\u5357\u5e02\u6771\u5340\u5e9c\u9023\u6771\u8def47\u865f","latitude":"22.98423550","longitude":"120.21823570","limited_time":"","socket":"maybe","standing_desk":"","mrt":"","open_time":"\u6bcf\u6708\u6700\u5f8c\u4e00\u5468\u4e8c\u4e09\u4f11\u5171\u4f112\u5929(\u516c\u4f11\u524d\u7684\u661f\u671f\u4e00\u6703\u5728 5:00 pm \u63d0\u65e9\u6253\u70ca)"},{"id":"469220ff-8419-4d7e-9f16-f78d93f28952","name":"\u9e7f\u8033","city":"tainan","wifi":3,"seat":3,"quiet":3,"tasty":3,"cheap":4,"music":4.5,"url":"https:\/\/www.facebook.com\/lurelatelatebreakfast\/","address":"\u53f0\u5357\u5e02\u6797\u68ee\u8def\u4e00\u6bb5153\u5df719\u865f","latitude":"22.98493730","longitude":"120.22175710","limited_time":"","socket":"yes","standing_desk":"yes","mrt":"","open_time":""},{"id":"49e50b1f-510e-40e6-a3f5-29081e15ef66","name":"KOS CAFE","city":"tainan","wifi":0,"seat":0,"quiet":0,"tasty":0,"cheap":0,"music":0,"url":"","address":"702\u53f0\u5357\u5e02\u5357\u5340\u5065\u5eb7\u8def\u4e00\u6bb5113\u5df76\u865f","latitude":"22.97825690","longitude":"120.20953000","limited_time":"","socket":"","standing_desk":"","mrt":"","open_time":""},{"id":"4a9e0aae-917a-4cb1-8823-4a77323c7caa","name":"\u958b\u666e\u4e09\u865f\u5e97","city":"tainan","wifi":5,"seat":4,"quiet":3,"tasty":4,"cheap":3,"music":4,"url":"https:\/\/www.facebook.com\/%E9%96%8B%E6%99%AE%E4%B8%89%E8%99%9F%E5%BA%97-CAPE-CAFE-3-439555272844579\/","address":"\u53f0\u5357\u5e02\u6771\u5340\u9577\u69ae\u8def\u4e09\u6bb566\u5df770\u865f","latitude":"22.99357720","longitude":"120.22319030","limited_time":"maybe","socket":"maybe","standing_desk":"","mrt":"","open_time":"11:00-21:00"},{"id":"4cd2354f-13f4-43eb-85b3-d9bb9d93bdaf","name":"Season Cafe","city":"tainan","wifi":5,"seat":5,"quiet":3,"tasty":5,"cheap":5,"music":4,"url":"https:\/\/www.facebook.com\/Season.Cafe.257\/","address":"\u53f0\u5357\u5e02\u4e2d\u897f\u5340\u958b\u5c71\u8def257\u865f","latitude":"22.98600080","longitude":"120.21028170","limited_time":"","socket":"","standing_desk":"","mrt":"","open_time":"09:00 - 18:00"},{"id":"4cea08c3-a3ed-4434-bcac-37dd53a8a473","name":"\u798f\u7c73cafe","city":"tainan","wifi":5,"seat":4,"quiet":4,"tasty":4,"cheap":3,"music":3,"url":"","address":"\u53f0\u5357\u5e02\u4e2d\u897f\u5340\u897f\u9580\u8def\u4e00\u6bb5536\u865f","latitude":"22.98542910","longitude":"120.19793700","limited_time":"","socket":"","standing_desk":"no","mrt":"","open_time":""},{"id":"4d339dc5-2086-4a2b-b37d-1c6ab5a206cf","name":"\u85cf\u98a8\u85dd\u6587\u5496\u5561","city":"tainan","wifi":4,"seat":5,"quiet":4,"tasty":3,"cheap":3,"music":3,"url":"https:\/\/www.facebook.com\/TsangFongCoffee\/","address":"\u53f0\u5357\u5e02\u4e2d\u897f\u5340\u885b\u6c11\u885767\u865f-1","latitude":"22.99264700","longitude":"120.21033900","limited_time":"no","socket":"maybe","standing_desk":"yes","mrt":"","open_time":"\u4e8c-\u56db 12:00 - 20:00\n\u4e94\u516d 12:00 - 21:00\n\u65e5    12:00 - 18:00"},{"id":"4d520730-ebe5-4509-a39d-7a9dc1dda7a5","name":"ICI Cafe","city":"tainan","wifi":4.5,"seat":4.5,"quiet":4,"tasty":4.5,"cheap":4,"music":4.5,"url":"https:\/\/www.facebook.com\/ici-cafe-831634633530313\/","address":"\u53f0\u5357\u5e02\u4e2d\u897f\u5340\u5fe0\u5b5d\u885793\u5df7108\u865f","latitude":"23.00114500","longitude":"120.19575400","limited_time":"","socket":"yes","standing_desk":"no","mrt":"","open_time":""},{"id":"4e6a9eab-618c-40da-827c-92250e2d8ab3","name":"\u8df3\u821e\u7684\u7f8a\u5496\u5561\u8c46\u5c08\u8ce3\u5e97","city":"tainan","wifi":3.5,"seat":2.5,"quiet":3,"tasty":4,"cheap":3.5,"music":3.5,"url":"","address":"\u53f0\u5357\u5e02\u4e2d\u897f\u5340\u885b\u6c11\u885759\u865f","latitude":"22.99275930","longitude":"120.21066980","limited_time":"maybe","socket":"maybe","standing_desk":"no","mrt":"","open_time":""},{"id":"4e8ee6e5-5e97-4447-91bc-4274c15b5eed","name":"\u65e5\u6f97\u5496\u5561 Day Stream Caf'e","city":"tainan","wifi":0,"seat":0,"quiet":0,"tasty":0,"cheap":0,"music":0,"url":"","address":"\u53f0\u5357\u5e02\u4e2d\u897f\u5340\u5927\u57d4\u885757\u865f","latitude":"22.98708730","longitude":"120.20844200","limited_time":"","socket":"","standing_desk":"","mrt":"","open_time":""},{"id":"4ecf7c0b-e626-483a-8110-b207bfe53c25","name":"\u5fae\u679c\u5496\u5561  wego cafe","city":"tainan","wifi":4,"seat":5,"quiet":4,"tasty":5,"cheap":5,"music":4,"url":"https:\/\/www.facebook.com\/%E5%BE%AE%E6%9E%9C%E5%92%96%E5%95%A1-WeGo-Cafe-1083408225050754\/","address":"\u53f0\u5357\u5e02\u6771\u5340\u5d07\u558411\u88572\u865f","latitude":"22.96998920","longitude":"120.23102180","limited_time":"no","socket":"maybe","standing_desk":"yes","mrt":"","open_time":"\u661f\u671f\u4e00\u5230\u661f\u671f\u516d\u65e9\u4e0a\u5341\u9ede\u5230\u665a\u4e0a\u4e03\u9ede"},{"id":"4f5aa79b-4d28-425e-aff2-7ba317a0a2e7","name":"K30 COFFEE","city":"tainan","wifi":0,"seat":0,"quiet":0,"tasty":0,"cheap":0,"music":0,"url":"https:\/\/m.facebook.com\/K30COFFEE\/","address":"\u53f0\u5357\u5e02\u4e2d\u897f\u5340\u4e2d\u6b63\u8def217\u5df77\u865f","latitude":"22.99279210","longitude":"120.19767400","limited_time":"no","socket":"no","standing_desk":"yes","mrt":"","open_time":"\u4f11\u5047\u6642\u9593\u6703\u7528FB\u516c\u544a"},{"id":"50223d86-cd69-4ea6-bcbd-8a33584824bf","name":"\u5bee\u570b\u5496\u5561","city":"tainan","wifi":1,"seat":3,"quiet":3,"tasty":4,"cheap":4,"music":3,"url":"https:\/\/www.facebook.com\/%E5%AF%AE%E5%9C%8B%E5%92%96%E5%95%A1%E5%AF%AE%E6%9E%9C%E5%92%96%E5%95%A1%E5%B7%A5%E5%9D%8A-212644352411035\/?fref=ts","address":"\u53f0\u5357\u5e02\u4e2d\u897f\u5340\u4e2d\u5c71\u8def79\u5df760\u865f","latitude":"22.99433080","longitude":"120.20663070","limited_time":"maybe","socket":"no","standing_desk":"no","mrt":"","open_time":"09:30 - 17:00\uff0c\u9031\u65e5\u516c\u4f11 "},{"id":"52c77ab2-dceb-4e1e-b778-5e03add4e08f","name":"EAGER CAF'E","city":"tainan","wifi":0,"seat":5,"quiet":0,"tasty":5,"cheap":0,"music":5,"url":"https:\/\/www.facebook.com\/EAGER-CAFE-%E4%B8%80%E5%80%8B-%E5%92%96%E5%95%A1%E8%87%AA%E5%AE%B6%E7%83%98%E7%84%99-231885243936347\/","address":"\u53f0\u5357\u5e02\u5584\u5316\u5340\u6587\u660c\u8def93-1\u865f","latitude":"23.12845200","longitude":"120.28905800","limited_time":"no","socket":"no","standing_desk":"no","mrt":"","open_time":""},{"id":"534b9cdf-e19b-4168-9563-2d2d459c4545","name":"\u6a02\u4eab\u5b78","city":"tainan","wifi":5,"seat":5,"quiet":5,"tasty":5,"cheap":4,"music":4,"url":"https:\/\/www.facebook.com\/o.fami.tw\/?eid=ARDmkHrmzf4AGsfA2oK-7-4zFa9-bBpNemGNoogxF-I6cMEH8wD_tmesJDX-NcGd9km551FXUneMuTve","address":"\u53f0\u5357\u5e02\u6c38\u5eb7\u5340\u4e2d\u5c71\u8def298\u865f","latitude":"23.03291980","longitude":"120.25543710","limited_time":"no","socket":"yes","standing_desk":"yes","mrt":"","open_time":""},{"id":"54f82ada-0bda-41fd-aa66-10fa6900aa1e","name":"\u9b5a\u7f8a\u9bae\u8c46","city":"tainan","wifi":4,"seat":4,"quiet":3,"tasty":4,"cheap":4,"music":3,"url":"https:\/\/www.facebook.com\/pages\/%E9%AD%9A%E7%BE%8A%E9%AE%AE%E8%B1%86%E5%92%96%E5%95%A1%E9%A4%A8\/141002589293227?fref=ts","address":"\u53f0\u5357\u5e02\u5317\u5340\u6771\u8c50\u8def275\u865f","latitude":"23.00294470","longitude":"120.22325000","limited_time":"","socket":"no","standing_desk":"no","mrt":"","open_time":""},{"id":"56cbb403-3298-46b8-a856-8f29e7641605","name":"lazy day","city":"tainan","wifi":0,"seat":0,"quiet":0,"tasty":0,"cheap":0,"music":0,"url":"","address":"\u53f0\u5357\u5e02\u4e2d\u897f\u5340\u5fe0\u5b5d\u8857116\u5df72\u865f","latitude":"23.00033490","longitude":"120.19762150","limited_time":"","socket":"","standing_desk":"","mrt":"","open_time":""},{"id":"570df433-b2e0-4786-aa5a-9d73b392b87e","name":"A WAY CAFE","city":"tainan","wifi":5,"seat":5,"quiet":4,"tasty":4.5,"cheap":3.5,"music":4.5,"url":"https:\/\/www.facebook.com\/awaycafe\/","address":"\u53f0\u5357\u5e02\u6771\u5340\u5c0f\u6771\u8def368\u865f","latitude":"22.99833080","longitude":"120.23387440","limited_time":"no","socket":"yes","standing_desk":"yes","mrt":"","open_time":"07:00 - 17:00"},{"id":"583ebeb4-c211-4afa-a176-6ee1bf0332de","name":"\u795e\u6995147","city":"tainan","wifi":5,"seat":5,"quiet":5,"tasty":5,"cheap":5,"music":0,"url":"https:\/\/www.facebook.com\/shennong147\/","address":"\u81fa\u5357\u5e02\u795e\u8fb2\u8857147\u865f","latitude":"22.99814410","longitude":"120.19501100","limited_time":"no","socket":"no","standing_desk":"yes","mrt":"","open_time":"\u898b\u7c89\u7d72\u5c08\u9801"},{"id":"583ed0c1-4ef6-46d3-b58d-c46dcdb195bf","name":"\u5c0f\u91ce\u73c8\u7432\u70d8\u7119\u574a","city":"tainan","wifi":5,"seat":5,"quiet":5,"tasty":5,"cheap":5,"music":5,"url":"https:\/\/www.facebook.com\/bestcoffeetime\/","address":"\u53f0\u5357\u5e02\u6771\u5340\u5d07\u5584\u4e8c\u885774\u865f","latitude":"22.97854630","longitude":"120.22939120","limited_time":"no","socket":"no","standing_desk":"no","mrt":"","open_time":""},{"id":"583f2646-05df-431d-9db0-852d791bd258","name":"Django \u6c7a\u54e5\u624b\u70d8\u5496\u5561\u5427-\u52dd\u5229\u5e97","city":"tainan","wifi":4,"seat":4,"quiet":3,"tasty":5,"cheap":4,"music":4,"url":"https:\/\/www.facebook.com\/django6999","address":"\u53f0\u5357\u5e02\u6771\u5340\u52dd\u5229\u8def187\u865f","latitude":"22.99612870","longitude":"120.21804530","limited_time":"no","socket":"yes","standing_desk":"no","mrt":"","open_time":""},{"id":"5c38586b-09ca-4eda-9811-f4c71574736d","name":"\u5967\u8587\u5c0f\u93ae","city":"tainan","wifi":4.5,"seat":4.5,"quiet":3.5,"tasty":3,"cheap":3.5,"music":3.5,"url":"https:\/\/www.facebook.com\/%E5%A5%A7%E8%96%87%E5%B0%8F%E9%8E%AE-354391024651887\/","address":"\u53f0\u5357\u5e02\u6771\u5340\u88d5\u5e73\u8def110\u865f","latitude":"22.98501080","longitude":"120.24098770","limited_time":"","socket":"","standing_desk":"","mrt":"","open_time":"09:30 - 17:30"},{"id":"5cceb4c3-fd20-4a59-89d3-ce801c98de91","name":"\u5357\u5341\u4e09\u5496\u5561","city":"tainan","wifi":0,"seat":0,"quiet":0,"tasty":0,"cheap":0,"music":0,"url":"","address":"\u53f0\u5357\u5e02\u4e2d\u897f\u5340\u6c11\u65cf\u8def\u4e8c\u6bb5317\u5df746\u865f","latitude":"22.99608680","longitude":"120.20277440","limited_time":"","socket":"","standing_desk":"","mrt":"","open_time":""},{"id":"5d191eba-8bdd-4fc3-b112-7c39d5e7263e","name":"a room","city":"tainan","wifi":5,"seat":3,"quiet":4,"tasty":5,"cheap":4,"music":5,"url":"","address":"\u53f0\u5357\u5e02\u9577\u69ae\u8def\u4e00\u6bb5234\u5df717\u865f","latitude":"22.98495400","longitude":"120.21909070","limited_time":"","socket":"maybe","standing_desk":"no","mrt":"","open_time":""},{"id":"5e322b4f-285a-47ed-bf66-e25f86709c2e","name":"For coffee","city":"tainan","wifi":5,"seat":5,"quiet":5,"tasty":5,"cheap":4,"music":4,"url":"https:\/\/www.facebook.com\/forcoffee38\/","address":"\u53f0\u5357\u5e02\u6c38\u5eb7\u5340\u6771\u6a4b\u516b\u885738\u865f","latitude":"23.02074790","longitude":"120.23333300","limited_time":"maybe","socket":"maybe","standing_desk":"no","mrt":"","open_time":""},{"id":"5e723daa-b62f-46e6-b30c-21d3a2951660","name":"\u69ae\u5bd3\u51b0\u5ba4","city":"tainan","wifi":5,"seat":5,"quiet":5,"tasty":5,"cheap":4,"music":5,"url":"https:\/\/www.facebook.com\/%E6%A6%AE%E5%AF%93%E5%86%B0%E5%AE%A4-779315372144403\/","address":"\u53f0\u5357\u5e02\u6771\u5340\u69ae\u8b7d\u885784\u5df755\u865f","latitude":"22.97471100","longitude":"120.21895500","limited_time":"no","socket":"yes","standing_desk":"yes","mrt":"","open_time":"12:30-18:30 (\u516c\u4f11\u65e5\u4e0d\u5b9a)"},{"id":"5e7a44b1-d232-4407-b7a7-558a5c970309","name":"\u549a\u73c8\u7432","city":"tainan","wifi":1,"seat":3,"quiet":3,"tasty":5,"cheap":4,"music":5,"url":"https:\/\/www.facebook.com\/dongkohi\/?fref=ts","address":"\u53f0\u5357\u5e02\u5e9c\u524d\u8def\u4e00\u6bb517\u865f","latitude":"22.98857560","longitude":"120.21096250","limited_time":"no","socket":"maybe","standing_desk":"no","mrt":"","open_time":""},{"id":"5ffdfed1-da22-4726-b790-6d249970fdd3","name":"\u65c5\u4eab\u6240\u5728","city":"tainan","wifi":5,"seat":5,"quiet":5,"tasty":5,"cheap":5,"music":5,"url":"https:\/\/www.facebook.com\/travelifelab","address":"\u53f0\u5357\u5e02\u5357\u5340\u4ec1\u6148\u885721\u865f","latitude":"22.97827210","longitude":"120.19388410","limited_time":"maybe","socket":"yes","standing_desk":"yes","mrt":"","open_time":""},{"id":"60530c95-ce65-4ec3-983a-d2103ea2058e","name":"\u672a\u827e\u516c\u5bd3","city":"tainan","wifi":5,"seat":5,"quiet":4.5,"tasty":4.5,"cheap":4,"music":5,"url":"https:\/\/www.facebook.com\/welove7710\/","address":"\u53f0\u5357\u5e02\u4e2d\u897f\u5340\u6b63\u8208\u885777\u5df710\u865f","latitude":"22.99406800","longitude":"120.19689200","limited_time":"maybe","socket":"maybe","standing_desk":"yes","mrt":"","open_time":"12:00 - 19:30"},{"id":"62a1ada2-c3b3-401b-ae28-72189292e5bb","name":"MASA LOFT","city":"tainan","wifi":4,"seat":4,"quiet":4,"tasty":4,"cheap":4,"music":4,"url":"https:\/\/www.facebook.com\/MASALOFT.TAINAN\/","address":"\u53f0\u5357\u5e02\u6771\u5340\u5927\u5b78\u8def\u897f\u6bb553\u865f","latitude":"22.99635100","longitude":"120.21692800","limited_time":"no","socket":"maybe","standing_desk":"","mrt":"","open_time":"\u4e00-\u4e94  09:30\u201321:30\u516d\u65e5   09:30\u201318:00"},{"id":"636c5035-43e6-4f9c-8522-4e6cae7930d6","name":"\u71a8\u6597\u76ee\u82b1 wudaocafe","city":"tainan","wifi":4,"seat":4,"quiet":4,"tasty":3,"cheap":2,"music":4,"url":"https:\/\/www.facebook.com\/wudaocafe\/","address":"\u53f0\u5357\u5e02\u4e2d\u897f\u5340\u65b0\u7f8e\u885790\u865f","latitude":"22.99563360","longitude":"120.20061170","limited_time":"","socket":"","standing_desk":"","mrt":"","open_time":"0900~2000"},{"id":"63780ddc-16aa-4cb4-be83-a47697e3d67e","name":"\u7518\u8c37\u5496\u5561","city":"tainan","wifi":0,"seat":5,"quiet":3,"tasty":5,"cheap":3,"music":5,"url":"https:\/\/www.facebook.com\/Gongulu.Coffee\/","address":"701\u53f0\u5357\u5e02\u6771\u5340\u88d5\u8c50\u885754\u5df71\u865f","latitude":"22.98441440","longitude":"120.22694080","limited_time":"no","socket":"maybe","standing_desk":"no","mrt":"","open_time":"12:00-20:00\uff0c\u6bcf\u5468\u4e00\u4f11\u696d"},{"id":"63a7d995-dad8-4ea9-aeb6-491864f35e1d","name":"kokoni cafe","city":"tainan","wifi":4.5,"seat":4.5,"quiet":3.5,"tasty":4,"cheap":4,"music":4.5,"url":"https:\/\/www.facebook.com\/kokoni-cafe-355594461267861\/","address":"\u53f0\u5357\u5e02\u4e2d\u897f\u5340\u897f\u9580\u8def\u4e8c\u6bb5372\u5df723-1\u865f","latitude":"22.99118430","longitude":"120.19770980","limited_time":"","socket":"yes","standing_desk":"no","mrt":"","open_time":"\u6700\u5f8c\u9ede\u991019:30"},{"id":"63cb8cf2-d0af-439f-bb67-20dcdc242b8c","name":"\u6c9b\u91cc\u6b50\u65e9\u5348\u9910\u9b06\u9905\u5496\u5561\u9928","city":"tainan","wifi":3,"seat":4,"quiet":3,"tasty":5,"cheap":4,"music":4,"url":"https:\/\/www.facebook.com\/PELLEO.TW\/","address":"700\u53f0\u5357\u5e02\u4e2d\u897f\u5340\u6a39\u6797\u8857\u4e8c\u6bb567\u865f","latitude":"22.98555630","longitude":"120.20538260","limited_time":"","socket":"","standing_desk":"","mrt":"","open_time":"08:00 - 19:00 \u5468\u516d-14:00 \u9031\u4e8c\u4f11"},{"id":"63cfcbf1-0aec-465e-8841-4ada066f3f69","name":"\u82b1\u6a13\u4e8c\u5e97","city":"tainan","wifi":0,"seat":5,"quiet":4,"tasty":5,"cheap":4,"music":5,"url":"https:\/\/www.facebook.com\/%E8%8A%B1%E6%A8%93follow_coffee-1058378214308090\/","address":"\u53f0\u5357\u5e02\u4e2d\u897f\u5340\u6c11\u6b0a\u8def\u4e09\u6bb555\u865f","latitude":"22.99641200","longitude":"120.19816400","limited_time":"","socket":"","standing_desk":"no","mrt":"","open_time":""},{"id":"65ad064b-5bdf-4d76-885a-a40dc748893c","name":"\u6162\u5496\u5561","city":"tainan","wifi":5,"seat":5,"quiet":5,"tasty":5,"cheap":4,"music":3,"url":"https:\/\/www.facebook.com\/slow0529\/","address":"\u53f0\u5357\u5e02\u6771\u5340\u5d07\u5fb7\u8def287\u865f","latitude":"22.97783820","longitude":"120.22205280","limited_time":"no","socket":"yes","standing_desk":"","mrt":"","open_time":""},{"id":"67164a15-138e-421d-bd2a-66f8aef40fc6","name":"\u727d\u5496\u5561 Chen Coffee","city":"tainan","wifi":2,"seat":5,"quiet":2.5,"tasty":5,"cheap":5,"music":3,"url":"https:\/\/www.facebook.com\/chenchencoffee\/","address":"\u53f0\u5357\u5e02\u4e2d\u897f\u5340\u6c11\u6b0a\u8def\u4e00\u6bb5219\u865f","latitude":"22.99234360","longitude":"120.20727210","limited_time":"no","socket":"maybe","standing_desk":"no","mrt":"","open_time":"\u5468\u65e5\u4f11"},{"id":"6759dbca-19ea-4414-8924-19d44e6542f5","name":"\u53f0\u5357\u827e\u5496\u5561 ALFEE Coffee","city":"tainan","wifi":5,"seat":4,"quiet":4,"tasty":5,"cheap":4,"music":4,"url":"https:\/\/www.facebook.com\/ICAFFEFANS","address":"\u53f0\u5357\u5e02\u4e2d\u897f\u5340\u897f\u83ef\u5357\u885715\u865f","latitude":"22.99334270","longitude":"120.20921400","limited_time":"","socket":"","standing_desk":"","mrt":"","open_time":"13:00 - 21:00 \u9031\u4e8c\u4f11"},{"id":"67854661-1f61-44a9-82ea-cb6736a2e760","name":"\u8def\u5496\u5561\/ROAD CAFE","city":"tainan","wifi":0,"seat":0,"quiet":0,"tasty":0,"cheap":0,"music":0,"url":"","address":"704\u53f0\u5357\u5e02\u5317\u5340\u9577\u69ae\u8def\u4e94\u6bb555\u865f","latitude":"23.00953870","longitude":"120.22040000","limited_time":"maybe","socket":"maybe","standing_desk":"no","mrt":"","open_time":""},{"id":"688e93ea-17e6-4b76-9080-1f24edf35523","name":"\u8c46\u8da3\u7559\u8072","city":"tainan","wifi":4.5,"seat":5,"quiet":5,"tasty":4,"cheap":3.5,"music":4,"url":"","address":"\u53f0\u5357\u5e02\u6771\u5340\u5317\u9580\u8def\u4e8c\u6bb516\u865f","latitude":"22.99902470","longitude":"120.21288680","limited_time":"no","socket":"maybe","standing_desk":"","mrt":"","open_time":"09\uff1a00\uff5e21\uff1a00"},{"id":"6a742fc3-a490-4f1c-996c-3c4cb6e8350e","name":"\u91d1\u7926\u5496\u5561-\u53f0\u5357\u4e2d\u83ef\u9580\u5e02","city":"tainan","wifi":5,"seat":4.5,"quiet":2,"tasty":2.5,"cheap":3,"music":3,"url":"https:\/\/www.facebook.com\/pg\/b030783\/about\/?tab=page_info","address":"\u53f0\u5357\u5e02\u6c38\u5eb7\u5340\u4e2d\u83ef\u8def617\u865f","latitude":"23.01458260","longitude":"120.22991450","limited_time":"no","socket":"maybe","standing_desk":"yes","mrt":"","open_time":"07:00 - 24:00"},{"id":"6cba77d6-6719-4575-950d-4ba4c855c57d","name":"\u9053\u5357\u9928 \u81ea\u5bb6\u70d8\u7119\u5496\u5561\u9928","city":"tainan","wifi":5,"seat":5,"quiet":5,"tasty":5,"cheap":4,"music":5,"url":"https:\/\/www.facebook.com\/pg\/daonanguan\/","address":"\u53f0\u5357\u5e02\u4e2d\u897f\u5340\u6c11\u6b0a\u8def\u4e8c\u6bb5248\u865f","latitude":"22.99599270","longitude":"120.20067550","limited_time":"no","socket":"no","standing_desk":"no","mrt":"","open_time":"11:00 - 21:00 \u9031\u65e5-18:00"},{"id":"6cfb28a6-6d29-4695-a3eb-d8754a944a8e","name":"\u591a\u90a3\u4e4b\u53f0\u5357\u897f\u9580\u9580\u5e02\uff08\u5bf6\u7f8e\u6a13\uff09","city":"tainan","wifi":0,"seat":0,"quiet":0,"tasty":0,"cheap":0,"music":0,"url":"","address":"\u53f0\u5357\u5e02\u4e2d\u897f\u5340\u897f\u9580\u8def\u4e8c\u6bb5309\u865f","latitude":"22.99702220","longitude":"120.19982020","limited_time":"no","socket":"yes","standing_desk":"no","mrt":"","open_time":""},{"id":"6d6000c5-ae01-40d6-a503-2ea943402b39","name":"I'M Coffee","city":"tainan","wifi":4,"seat":5,"quiet":4,"tasty":3,"cheap":3,"music":4,"url":"https:\/\/www.facebook.com\/IMCOFFEETW\/","address":"\u53f0\u5357\u5e02\u5317\u5340\u958b\u5143\u8def515\u865f","latitude":"23.01104820","longitude":"120.22507830","limited_time":"no","socket":"yes","standing_desk":"no","mrt":"","open_time":""},{"id":"6e111a89-4976-4183-9cbc-563a0e34f0a7","name":"Lure Late Late Breakfast \u9e7f\u8033\u665a\u665a\u65e9\u9910","city":"tainan","wifi":5,"seat":4,"quiet":2.5,"tasty":3.5,"cheap":5,"music":5,"url":"https:\/\/www.facebook.com\/lurelatelatebreakfast\/","address":"\u53f0\u5357\u5e02\u6771\u5340\u6797\u68ee\u8def\u4e00\u6bb5153\u5df719\u865f","latitude":"22.98426600","longitude":"120.21523600","limited_time":"no","socket":"yes","standing_desk":"yes","mrt":"","open_time":""},{"id":"6eb4b047-5d6c-4629-bef0-be4972a3f287","name":"CaffeBene \u5496\u5561\u4f34_\u6210\u5927\u9580\u5e02","city":"tainan","wifi":0,"seat":0,"quiet":0,"tasty":0,"cheap":0,"music":0,"url":"https:\/\/www.facebook.com\/%E5%92%96%E5%95%A1%E4%BC%B4_%E6%88%90%E5%A4%A7%E9%96%80%E5%B8%82-2475209642705352\/","address":"\u53f0\u5357\u5e02\u6771\u5340\u5927\u5b78\u8def16-1\u865f","latitude":"22.99600720","longitude":"120.22065150","limited_time":"no","socket":"yes","standing_desk":"no","mrt":"","open_time":""},{"id":"6ee0d3d4-6b1a-498b-bf30-1f5c59b45fd6","name":"\u8aa0\u5341\u5496\u5561","city":"tainan","wifi":0,"seat":4,"quiet":5,"tasty":5,"cheap":4,"music":5,"url":"","address":"708\u53f0\u5357\u5e02\u5b89\u5e73\u5340\u5065\u5eb7\u8def\u4e09\u6bb5329\u865f","latitude":"22.98387430","longitude":"120.16964230","limited_time":"","socket":"","standing_desk":"","mrt":"","open_time":""},{"id":"6fe02ef5-d366-405e-acbd-5608a86b8db6","name":"\u900f\u5357\u98a8\u5496\u5561\u805a\u5834","city":"tainan","wifi":0,"seat":5,"quiet":5,"tasty":5,"cheap":4,"music":5,"url":"https:\/\/www.facebook.com\/southwind.2016\/","address":"\u53f0\u5357\u5e02\u4e2d\u897f\u5340\u6c38\u798f\u8def\u4e8c\u6bb535\u5df76\u865f","latitude":"22.99113550","longitude":"120.20026120","limited_time":"no","socket":"maybe","standing_desk":"","mrt":"","open_time":""},{"id":"714e710a-2a4b-418c-b3cd-da5717f90955","name":"\u82b1\u6a13follow_coffee","city":"tainan","wifi":0,"seat":0,"quiet":0,"tasty":5,"cheap":0,"music":0,"url":"https:\/\/www.facebook.com\/%E8%8A%B1%E6%A8%93follow_coffee-1058378214308090\/?ref=br_rs","address":"\u53f0\u5357\u5e02\u4e2d\u897f\u5340\u6c11\u6b0a\u8def\u4e8c\u6bb5118\u865f","latitude":"22.99482410","longitude":"120.20330480","limited_time":"","socket":"","standing_desk":"","mrt":"","open_time":""},{"id":"733f638e-b136-4982-aad9-fe55698d1b37","name":"\u6709\u7de3\u4eba Yuan Coffee","city":"tainan","wifi":0,"seat":4,"quiet":5,"tasty":5,"cheap":5,"music":4,"url":"https:\/\/www.facebook.com\/%E6%9C%89%E7%B7%A3%E4%BA%BAYuan-Coffee-102737151223922\/","address":"701\u53f0\u5357\u5e02\u6771\u5340\u6771\u8208\u8def13\u865f","latitude":"22.99045100","longitude":"120.22854780","limited_time":"no","socket":"no","standing_desk":"no","mrt":"","open_time":""},{"id":"737630b1-571e-490d-a885-96ad83cded01","name":"mumu\u5c0f\u5ba2\u5ef3","city":"tainan","wifi":4,"seat":5,"quiet":4,"tasty":4,"cheap":3,"music":4,"url":"https:\/\/www.facebook.com\/MumuBrunch\/?ref=br_rs","address":"\u53f0\u5357\u5e02\u4e2d\u897f\u5340\u958b\u5c71\u8def35\u5df716\u865f","latitude":"22.99106680","longitude":"120.20648820","limited_time":"","socket":"","standing_desk":"","mrt":"","open_time":"09:00 - 17:30"},{"id":"73a5c0e7-2c5b-4535-9c24-5c8bb74ec677","name":"\u63e1\u5496\u5561\u53f0\u5357\u8d64\u5d01\u5e97","city":"tainan","wifi":0,"seat":0,"quiet":0,"tasty":0,"cheap":0,"music":0,"url":"","address":"700\u53f0\u5357\u5e02\u4e2d\u897f\u5340\u6210\u529f\u8def223\u865f\u5f8c\u68df","latitude":"22.99862310","longitude":"120.20413540","limited_time":"","socket":"","standing_desk":"","mrt":"","open_time":""},{"id":"7634087a-26eb-47cb-b3d8-2d21ab18a8f5","name":"\u52a0\u6bd4\u840a\u745f\u601d License.CAF'E","city":"tainan","wifi":0,"seat":0,"quiet":0,"tasty":5,"cheap":4,"music":0,"url":"https:\/\/www.facebook.com\/cafelicense2016","address":"700\u53f0\u5357\u5e02\u6c11\u6b0a\u8def\u4e00\u6bb5270\u865f","latitude":"22.99343370","longitude":"120.20691040","limited_time":"no","socket":"no","standing_desk":"no","mrt":"","open_time":""},{"id":"76c72f1c-d966-40ba-91bf-7e07afecd16c","name":"\u53cc\u751f Shu\u00e0ns\u00ean Cafe","city":"tainan","wifi":5,"seat":4,"quiet":4.5,"tasty":5,"cheap":5,"music":5,"url":"https:\/\/www.facebook.com\/ShuansenCafe\/","address":"\u53f0\u5357\u5e02\u4e2d\u897f\u5340\u5fe0\u7fa9\u8def\u4e8c\u6bb5147\u5df717\u865f","latitude":"22.99597970","longitude":"120.20305720","limited_time":"yes","socket":"maybe","standing_desk":"","mrt":"","open_time":"09:30~\u8ce3\u5b8c\u70ba\u6b62 \u5468\u4e00\u4f11"},{"id":"77f43040-111b-46e2-816a-7fda1ce6fc30","name":"BORN 2 HER Cafe \u5979\u5979\u5496\u5561","city":"tainan","wifi":5,"seat":5,"quiet":4,"tasty":5,"cheap":5,"music":5,"url":"https:\/\/www.facebook.com\/born2her\/","address":"\u53f0\u5357\u5e02\u897f\u83ef\u5357\u885728\u865f","latitude":"22.99364460","longitude":"120.20936280","limited_time":"no","socket":"maybe","standing_desk":"no","mrt":"","open_time":"12:30 - 21:30"},{"id":"79e0a000-ca7b-4ed6-9e01-116008db3c5a","name":"\u670b\u53cb\u7684\u670b\u53cb\u5496\u5561\u5e97","city":"tainan","wifi":0,"seat":0,"quiet":0,"tasty":0,"cheap":0,"music":0,"url":"","address":"\u53f0\u5357\u5e02\u4e2d\u897f\u5340\u5efa\u5b89\u885751\u5df730\u865f","latitude":"22.98790160","longitude":"120.19543050","limited_time":"","socket":"","standing_desk":"","mrt":"","open_time":""},{"id":"79ea2e99-3e61-49f8-a2cf-df4a264e3d6f","name":"\u751f\u547d\u6a39\u5496\u5561","city":"tainan","wifi":5,"seat":5,"quiet":5,"tasty":5,"cheap":5,"music":5,"url":"https:\/\/www.facebook.com\/lifetreesilkroadcoffee\/","address":"\u53f0\u5357\u5e02\u6771\u5340\u5c0f\u6771\u8def350\u865f","latitude":"22.99837170","longitude":"120.23349520","limited_time":"no","socket":"yes","standing_desk":"yes","mrt":"","open_time":""},{"id":"7b6e2035-8778-4fcf-98ba-37b3c1bd83a3","name":"\u88c1\u7e2b\u5e2b\u6df1\u591c\u5496\u5561\u9928 coffee bar","city":"tainan","wifi":5,"seat":4,"quiet":4,"tasty":5,"cheap":4,"music":5,"url":"https:\/\/www.facebook.com\/tailorcoffeebar","address":"\u81fa\u5357\u5e02\u5b89\u5e73\u5340\u5ef6\u5e73\u8857122\u865f","latitude":"23.00081150","longitude":"120.16220340","limited_time":"maybe","socket":"maybe","standing_desk":"yes","mrt":"","open_time":""},{"id":"7c491c8b-3122-4a45-ad6e-14393f492d63","name":"\u66fc\u9813\u5496\u5561Manton Coffee-\u6210\u5927\u5e9724H","city":"tainan","wifi":3.5,"seat":4,"quiet":3,"tasty":3,"cheap":4,"music":3.5,"url":"https:\/\/www.facebook.com\/MantonNCKU\/?ref=br_rs","address":"\u53f0\u5357\u5e02\u5c0f\u6771\u8def151\u865f","latitude":"23.00037810","longitude":"120.22687350","limited_time":"","socket":"maybe","standing_desk":"yes","mrt":"","open_time":"24HR"},{"id":"7da69f3c-f73b-47b3-a150-275a287bc787","name":"Et\u5496\u5561","city":"tainan","wifi":0,"seat":5,"quiet":5,"tasty":5,"cheap":5,"music":3,"url":"","address":"\u53f0\u5357\u5e02\u81e8\u5b89\u8def\u4e8c\u6bb5253\u865f","latitude":"23.00448930","longitude":"120.20105830","limited_time":"no","socket":"maybe","standing_desk":"no","mrt":"","open_time":""},{"id":"7ed76005-09d8-422d-92ad-0e6df1b3f2c4","name":"David yang cafe","city":"tainan","wifi":1,"seat":5,"quiet":4.5,"tasty":5,"cheap":5,"music":5,"url":"","address":"\u53f0\u5357\u5e02\u5e9c\u524d\u8def\u4e00\u6bb5185\u865f","latitude":"22.98889690","longitude":"120.20483560","limited_time":"no","socket":"maybe","standing_desk":"yes","mrt":"","open_time":"8:00-18:00"},{"id":"7ee1516f-1391-4b19-944e-e5f80d539554","name":"\u79c1\u4eba\u85cf\u8c46 Coffellection","city":"tainan","wifi":0,"seat":5,"quiet":3,"tasty":5,"cheap":5,"music":3,"url":"","address":"\u53f0\u5357\u5e02\u6771\u5340\u5d07\u5fb7\u8def333\u5df71\u865f","latitude":"22.98131790","longitude":"120.21814990","limited_time":"","socket":"","standing_desk":"","mrt":"","open_time":""},{"id":"7f01e748-2241-4864-98e0-1ff0b91d89c6","name":"\u9e7f\u67f4\u5496\u5561","city":"tainan","wifi":5,"seat":0,"quiet":5,"tasty":4,"cheap":0,"music":5,"url":"","address":"708, Taiwan, Tainan City, Anping District, Jiankang 3rd Street, 77\u865f","latitude":"22.98682680","longitude":"120.16816540","limited_time":"no","socket":"maybe","standing_desk":"","mrt":"","open_time":""},{"id":"7f3807fa-23cc-48ac-af5f-2c67b4a7f406","name":"\u573b\u573b\u3002\u56b4\u9078\u5496\u5561","city":"tainan","wifi":5,"seat":5,"quiet":5,"tasty":5,"cheap":5,"music":5,"url":"https:\/\/www.facebook.com\/kickeycoffee\/","address":"\u53f0\u5357\u5e02\u65b0\u5e02\u5340\u5927\u71df\u91cc\u8c50\u69ae17-3\u865f","latitude":"23.08967770","longitude":"120.30643530","limited_time":"maybe","socket":"no","standing_desk":"yes","mrt":"","open_time":"\u958b\u59cb\u71df\u696d\u6642\u9593\u4e0d\u7a69\u5b9a"},{"id":"8083c5a3-4ae6-47d9-b976-55af4fc45647","name":"St.1 Cafe' \/ Work Room \u4e00\u8857\u5496\u5561","city":"tainan","wifi":4.5,"seat":4,"quiet":4,"tasty":4.5,"cheap":3.5,"music":4.5,"url":"https:\/\/www.facebook.com\/st1cafe\/","address":"\u53f0\u5357\u5e02\u6c38\u5eb7\u5340\u5927\u6a4b\u4e00\u8857328\u865f","latitude":"23.01970780","longitude":"120.23237960","limited_time":"maybe","socket":"maybe","standing_desk":"no","mrt":"","open_time":""},{"id":"81a440cf-1050-467c-9c41-ca68583e5852","name":"\u8c93\u8584\u8377\u5496\u5561","city":"tainan","wifi":4,"seat":4,"quiet":5,"tasty":4,"cheap":4,"music":4,"url":"https:\/\/www.facebook.com\/sweets.coffee.cats\/","address":"\u53f0\u5357\u5e02\u5b89\u5e73\u5340\u80b2\u5e73\u4e5d\u8857235\u865f","latitude":"22.99527000","longitude":"120.17009130","limited_time":"no","socket":"maybe","standing_desk":"no","mrt":"","open_time":"10:30 - 18:00 \u5468\u4e00\u4f11"},{"id":"824675cb-abdf-4135-b5e8-259ff0a89911","name":"\u8403\u884c\u5496\u5561\u9928 Atelier Pure","city":"tainan","wifi":5,"seat":5,"quiet":5,"tasty":5,"cheap":4,"music":5,"url":"https:\/\/www.facebook.com\/AtelierPureCafe\/","address":"\u53f0\u5357\u5e02\u5357\u5340\u6a39\u6797\u8857\u4e8c\u6bb5420\u865f","latitude":"22.98652530","longitude":"120.19699270","limited_time":"no","socket":"yes","standing_desk":"yes","mrt":"","open_time":""},{"id":"82e54a92-08a0-4eea-8ef1-a61867e26ae0","name":"\u6728\u862d\u5496\u5561","city":"tainan","wifi":0,"seat":0,"quiet":0,"tasty":0,"cheap":0,"music":0,"url":"https:\/\/instagram.com\/mulan.tw?igshid=YmMyMTA2M2Y=","address":"\u53f0\u5357\u5e02\u4e2d\u897f\u5340\u4fe1\u7fa9\u885746\u5df79\u865f2\u6a13 ","latitude":"23.00016630","longitude":"120.19604170","limited_time":"maybe","socket":"maybe","standing_desk":"","mrt":"","open_time":"\u7c89\u5c08\u516c\u5e03\u70ba\u4e3b"},{"id":"8309a7c7-2a75-49db-b6e9-176c0b781b22","name":"Lu.CY Coffee Roast & Brew","city":"tainan","wifi":5,"seat":5,"quiet":5,"tasty":5,"cheap":5,"music":5,"url":"https:\/\/www.facebook.com\/Lu.CYcoffeestudio\/","address":"\u53f0\u5357\u5e02\u5317\u5340 \u80b2\u5fb7\u4e8c\u8def340\u865f ","latitude":"23.01467960","longitude":"120.20335380","limited_time":"no","socket":"no","standing_desk":"no","mrt":"","open_time":""},{"id":"85ac9359-a6a5-4d12-8577-c69f4d986bc0","name":"L'esprit caf\u00e9","city":"tainan","wifi":4,"seat":4,"quiet":4,"tasty":5,"cheap":3,"music":5,"url":"https:\/\/www.facebook.com\/LespritCafe\/","address":"\u53f0\u5357\u5e02\u4e2d\u897f\u5340\u6c11\u751f\u8def\u4e8c\u6bb5401\u865f","latitude":"22.99752300","longitude":"120.18851560","limited_time":"","socket":"","standing_desk":"","mrt":"","open_time":"09:00 - 19:30 \u9031\u4e8c\u4f11"},{"id":"869b3ba3-7af9-4a74-a186-512e2b2dc61a","name":"\u5357\u5cf6\u5922\u904a","city":"tainan","wifi":4,"seat":4,"quiet":4,"tasty":3,"cheap":3,"music":4,"url":"https:\/\/www.facebook.com\/dreamXdrift\/","address":"\u53f0\u5357\u5e02\u5317\u5340\u516c\u5712\u8def487\u5df718\u865f","latitude":"23.00917260","longitude":"120.20953270","limited_time":"","socket":"","standing_desk":"","mrt":"","open_time":"10:00 - 18:00 \u9031\u4e8c\u4e09\u4f11"},{"id":"894faf32-f2b4-433b-89f2-37d4d2f38866","name":"\u5496\u5561\u68ee\u6d3b","city":"tainan","wifi":5,"seat":5,"quiet":5,"tasty":5,"cheap":4,"music":5,"url":"https:\/\/www.facebook.com\/coffeelife1124\/","address":"\u53f0\u5357\u5e02\u6771\u5340\u6771\u9580\u8def\u4e00\u6bb552\u5df73\u5f045\u865f","latitude":"22.98816640","longitude":"120.21295410","limited_time":"no","socket":"yes","standing_desk":"no","mrt":"","open_time":""},{"id":"89b1f554-ea40-4926-ba94-cf36878c8a13","name":"\u662f\u5409\u5496\u5561","city":"tainan","wifi":4.5,"seat":2,"quiet":3,"tasty":3,"cheap":2,"music":4,"url":"https:\/\/www.facebook.com\/twcafeichi\/","address":"\u53f0\u5357\u5e02\u5317\u5340\u516c\u5712\u8def295\u5df750-2\u865f","latitude":"23.00392170","longitude":"120.20913930","limited_time":"maybe","socket":"no","standing_desk":"no","mrt":"","open_time":""},{"id":"8c3a7271-d805-424f-950e-28ebdbaad804","name":"\u4ee3\u8b1d\u4ff1\u697d\u90e8","city":"tainan","wifi":3.5,"seat":3,"quiet":4.5,"tasty":4,"cheap":5,"music":4.5,"url":"https:\/\/www.facebook.com\/DaixieClub\/","address":"\u53f0\u5357\u5e02\u5317\u5340\u958b\u5143\u8def212\u5df7126\u865f","latitude":"23.00504150","longitude":"120.22414360","limited_time":"","socket":"","standing_desk":"no","mrt":"","open_time":"\u6709\u81e8\u6642\u5e97\u4f11\u6216\u7279\u5225\u4f11\u5047\uff0c\u4ee5\u81c9\u66f8\u5ba3\u5e03\u7684\u71df\u696d\u6642\u9593\u70ba\u4e3b"},{"id":"8c6751e3-656d-4db3-8397-8ecd8d437990","name":"\u5927\u92e4\u82b1\u9593","city":"tainan","wifi":3,"seat":3,"quiet":3,"tasty":3,"cheap":2,"music":3,"url":"https:\/\/www.facebook.com\/pages\/%E5%A4%A7%E9%8B%A4%E8%8A%B1%E9%96%93\/142333645830278","address":"733 \u53f0\u5357\u5e02\u53f0\u5357\u5e02\u6771\u5c71\u5340\u9ad8\u539f\u6751\u9ad8\u539f109\u4e4b17\u865f (\u53f0\u5357\u7e23\u6771\u5c71\u9109175\u7dda\u905311.5\u516c\u91cc)","latitude":"23.28399270","longitude":"120.50135330","limited_time":"no","socket":"no","standing_desk":"no","mrt":"","open_time":""},{"id":"8caa38a3-6ac7-41f4-9ee2-988fd4b84686","name":"PIANO,PIANO","city":"tainan","wifi":0,"seat":0,"quiet":0,"tasty":0,"cheap":0,"music":0,"url":"https:\/\/www.facebook.com\/PIANOPIANO-141154832635987\/","address":"\u53f0\u5357\u5e02\u4e2d\u897f\u5340\u5e9c\u524d\u8def\u4e00\u6bb5342\u5df719\u865f","latitude":"22.99118440","longitude":"120.19845380","limited_time":"","socket":"","standing_desk":"","mrt":"","open_time":""},{"id":"8cd539b0-d406-4be7-9bc4-4af3eb08eadb","name":"\u4e8c\u5b50","city":"tainan","wifi":0,"seat":0,"quiet":0,"tasty":0,"cheap":0,"music":0,"url":"https:\/\/www.instagram.com\/asleepcoffeebar\/","address":"701\u53f0\u5357\u5e02\u6771\u5340\u57ce\u6771\u885766\u865f","latitude":"22.96667150","longitude":"120.23653090","limited_time":"maybe","socket":"yes","standing_desk":"yes","mrt":"","open_time":"\u6bcf\u500b\u6708\u516c\u4f11\u4e0d\u56fa\u5b9a\u8981\u770b\u7c89\u5c08"},{"id":"8d501edf-aebc-4f21-a32a-01a04c4c3b2d","name":"\u8076\u6a13","city":"tainan","wifi":0,"seat":5,"quiet":5,"tasty":4,"cheap":3,"music":5,"url":"https:\/\/www.facebook.com\/niielou\/?fref=ts","address":"700\u53f0\u5357\u5e02\u4e2d\u897f\u5340\u4fe1\u7fa9\u885760\u5df73\u865f","latitude":"0.00000000","longitude":"0.00000000","limited_time":"","socket":"","standing_desk":"","mrt":"","open_time":""},{"id":"8f9ebc09-4537-4643-9049-3288308e6bc5","name":"\u7aa9\u9910\u5ef3--\u5496\u5561\u8a71\u8a9e","city":"tainan","wifi":0,"seat":5,"quiet":5,"tasty":5,"cheap":5,"music":2,"url":"https:\/\/m.facebook.com\/cafewhispering\/?locale2=zh_TW","address":"\u53f0\u5357\u5e02\u4e2d\u897f\u5340\u53cb\u611b\u8857261\u865f","latitude":"22.99198860","longitude":"120.19640160","limited_time":"maybe","socket":"maybe","standing_desk":"yes","mrt":"","open_time":""},{"id":"90aec48b-ff49-4e3c-9fa1-0e340fc433f2","name":"\u6c92\u6709\u5496\u5561","city":"tainan","wifi":0,"seat":0,"quiet":0,"tasty":0,"cheap":0,"music":0,"url":"","address":"701\u53f0\u5357\u5e02\u6771\u5340\u88d5\u8c50\u885784\u5df76\u865f","latitude":"0.00000000","longitude":"0.00000000","limited_time":"","socket":"maybe","standing_desk":"no","mrt":"","open_time":""},{"id":"9144170f-9fea-43dc-899d-18e77c3c1fea","name":"\u96f7\u514b\u65af\u5496\u5561\u5427","city":"tainan","wifi":0,"seat":4,"quiet":4,"tasty":5,"cheap":5,"music":4,"url":"https:\/\/www.facebook.com\/Rexespressobar\/","address":"\u53f0\u5357\u5e02\u5317\u5340\u5357\u5712\u8857153\u5df72\u865f","latitude":"23.00633770","longitude":"120.22568120","limited_time":"","socket":"","standing_desk":"","mrt":"","open_time":""},{"id":"92f21750-89f5-4c63-9048-d7a67ec26df1","name":"\u54c8\u672c\u5496\u5561(\u96a8\u884c\u5427) Happen Coffee","city":"tainan","wifi":0,"seat":0,"quiet":0,"tasty":0,"cheap":0,"music":0,"url":"","address":"700\u53f0\u5357\u5e02\u4e2d\u897f\u5340\u4e2d\u6b63\u8def86\u865f","latitude":"22.99229300","longitude":"120.20085100","limited_time":"","socket":"","standing_desk":"","mrt":"","open_time":""},{"id":"9374a1fb-2db2-4cde-95b2-b080871cd7e8","name":"\u60a0\u8c46\u5496\u5561","city":"tainan","wifi":0,"seat":5,"quiet":2,"tasty":5,"cheap":5,"music":0,"url":"","address":"734\u53f0\u5357\u5e02\u516d\u7532\u5340\u6c11\u751f\u885747\u865f","latitude":"23.22760900","longitude":"120.35176000","limited_time":"no","socket":"no","standing_desk":"no","mrt":"","open_time":"\u8001\u95c6\u5f88\u770b\u5fc3\u60c5"},{"id":"93e0d452-d09b-41c0-a69e-c4d6aa709731","name":"\u5c1a\u54c1\u5496\u5561 (\u5357\u9580\u5e97)","city":"tainan","wifi":5,"seat":5,"quiet":3,"tasty":5,"cheap":4,"music":0,"url":"https:\/\/www.facebook.com\/sanpincoffee1980\/","address":"\u53f0\u5357\u5e02\u4e2d\u897f\u5340\u5357\u9580\u8def233-6\u865f","latitude":"22.98327310","longitude":"120.20423300","limited_time":"no","socket":"","standing_desk":"no","mrt":"","open_time":""},{"id":"95d9878e-1883-47aa-95e8-bc359a2c0a70","name":"\u559d\u8d77\u4f86 Bottoms Up","city":"tainan","wifi":0,"seat":0,"quiet":0,"tasty":0,"cheap":0,"music":0,"url":"","address":"701\u53f0\u5357\u5e02\u6771\u5340\u9577\u69ae\u8def\u4e09\u6bb5131\u865f","latitude":"22.99557270","longitude":"120.22170620","limited_time":"no","socket":"yes","standing_desk":"yes","mrt":"","open_time":""},{"id":"9900de78-4a89-438a-8ec8-3c1e59a2396f","name":"\u7f8e\u9e97\u5c11\u5a66\u7684\u7fbd\u7403\u5496-\u767d\u8272\u5c0f\u8216\u5b50","city":"tainan","wifi":5,"seat":5,"quiet":5,"tasty":5,"cheap":3,"music":5,"url":"","address":"\u53f0\u5357\u5e02\u6771\u5340\u88d5\u4fe1\u8def166\u865f","latitude":"22.98728180","longitude":"120.24500480","limited_time":"no","socket":"maybe","standing_desk":"no","mrt":"","open_time":""},{"id":"999879a0-4fde-425d-8673-9221c34d9ac2","name":"Louisa Coffee \u8def\u6613\uff0e\u838e\u5496\u5561(\u53f0\u5357\u5927\u540c\u9580\u5e02)","city":"tainan","wifi":0,"seat":4,"quiet":2,"tasty":5,"cheap":5,"music":4,"url":"https:\/\/www.louisacoffee.co\/","address":"700\u53f0\u5357\u5e02\u4e2d\u897f\u5340\u5927\u540c\u8def\u4e00\u6bb5214\u865f","latitude":"22.98267850","longitude":"120.21111440","limited_time":"no","socket":"maybe","standing_desk":"yes","mrt":"","open_time":""},{"id":"9a67bf55-0b1d-4421-a45e-ebdb9d1f14ce","name":"\u5496\u5561\uff0e\u5019\u6a5f\u5ba4The Departure Lounge\u53f0\u5357\u5927\u540c\u5e97","city":"tainan","wifi":0,"seat":0,"quiet":0,"tasty":0,"cheap":0,"music":0,"url":"","address":"701\u53f0\u5357\u5e02\u6771\u5340\u5927\u540c\u8def\u4e00\u6bb5231\u865f","latitude":"22.98327560","longitude":"120.21127540","limited_time":"","socket":"","standing_desk":"","mrt":"","open_time":""},{"id":"9bc56aa6-e56c-451b-be3f-37c25b21d980","name":"\u66c9\u5496\u5561","city":"tainan","wifi":4,"seat":5,"quiet":4,"tasty":5,"cheap":4,"music":4,"url":"https:\/\/www.facebook.com\/akatsukicoffee\/","address":" \u53f0\u5357\u5e02\u4e2d\u897f\u5340\u5fe0\u7fa9\u8def\u4e00\u6bb584\u5df76\u5f042\u865f","latitude":"22.98696710","longitude":"120.20205100","limited_time":"no","socket":"maybe","standing_desk":"no","mrt":"","open_time":""},{"id":"9bf00b32-494d-4fda-9130-e749e160c720","name":"\u5409\u5149\u5496\u5561","city":"tainan","wifi":5,"seat":3,"quiet":4,"tasty":4,"cheap":4,"music":4,"url":"","address":"\u53f0\u5357\u5e02\u6771\u5340\u5149\u83ef\u8857229\u5df728\u5f049\u865f","latitude":"22.98588410","longitude":"120.21399140","limited_time":"","socket":"","standing_desk":"","mrt":"","open_time":""},{"id":"9c34cb14-2844-42d9-8a0a-5a66e6e4ebba","name":"\u6975\u8403\u5496\u5561Kaffuns Brew Coffee","city":"tainan","wifi":0,"seat":4,"quiet":5,"tasty":5,"cheap":5,"music":5,"url":"","address":"700\u53f0\u5357\u5e02\u4e2d\u897f\u5340\u5e9c\u524d\u4e00\u8857109\u5df72\u865f","latitude":"22.99448400","longitude":"120.20004190","limited_time":"no","socket":"yes","standing_desk":"yes","mrt":"","open_time":""},{"id":"9c6f77ed-6b26-49ca-96c0-425ad2ab53be","name":"\u65fa\u5fb7\u5be6\u9a57\u5ba4","city":"tainan","wifi":5,"seat":5,"quiet":5,"tasty":5,"cheap":4,"music":5,"url":"https:\/\/www.facebook.com\/WLAB.10BF\/","address":"\u53f0\u5357\u5e02\u5317\u5340\u516c\u5712\u8def437\u5df710\u865f","latitude":"23.00827480","longitude":"120.20952290","limited_time":"maybe","socket":"maybe","standing_desk":"no","mrt":"","open_time":""},{"id":"9caaa850-a39e-45ea-afbc-e2256267652a","name":"MixCoffee","city":"tainan","wifi":5,"seat":5,"quiet":5,"tasty":5,"cheap":5,"music":4,"url":"","address":"\u53f0\u5357\u5e02\u6c38\u5eb7\u5340\u4e2d\u83ef\u8def23\u5df79\u865f","latitude":"22.99979520","longitude":"120.23403820","limited_time":"no","socket":"yes","standing_desk":"yes","mrt":"","open_time":"\u4e0d\u5b9a\u4f11"},{"id":"9cae70e6-7d8e-4db6-9548-4fbd78f76b9b","name":"\u7518\u55ae\u5496\u5561","city":"tainan","wifi":5,"seat":3,"quiet":4,"tasty":5,"cheap":4,"music":4,"url":"https:\/\/www.facebook.com\/%E9%96%8B%E9%9A%86%E5%AE%AE-%E7%94%98%E5%96%AE%E5%92%96%E5%95%A1-148567851869417\/?fref=ts","address":"\u53f0\u5357\u5e02\u4e2d\u897f\u5340\u6c11\u6b0a\u8def\u4e8c\u6bb54\u5df713\u865f","latitude":"22.99414540","longitude":"120.20677240","limited_time":"no","socket":"no","standing_desk":"yes","mrt":"","open_time":"\u6bcf\u500b\u6708\u6700\u5f8c\u4e00\u9031\u7684 \u661f\u671f\u4e00~\u661f\u671f\u56db\u516c\u4f11"},{"id":"9d92d2d9-322c-44c3-aebc-2bb9fd40f49c","name":"\u9285\u677f\u5496\u5561","city":"tainan","wifi":0,"seat":0,"quiet":0,"tasty":0,"cheap":0,"music":0,"url":"","address":"\u53f0\u5357\u5e02\u4e2d\u897f\u5340\u5fe0\u7fa9\u8def\u4e8c\u6bb5141\u865f","latitude":"22.99561740","longitude":"120.20384430","limited_time":"","socket":"","standing_desk":"","mrt":"","open_time":""},{"id":"9df5ea5a-57bb-4d02-a96e-ea5f28fe315a","name":" \u81fa\u5357\u30fb\u7279\u6709\u7a2e\u5546\u884c","city":"tainan","wifi":5,"seat":4,"quiet":4,"tasty":4,"cheap":4,"music":5,"url":"https:\/\/www.facebook.com\/RealgutsCafe.Tainan\/","address":"\u81fa\u5357\u5e02\u4e2d\u897f\u5340\u6b63\u8208\u885771\u865f","latitude":"22.99411910","longitude":"120.19700200","limited_time":"","socket":"yes","standing_desk":"no","mrt":"","open_time":""},{"id":"a0488209-c163-4349-9963-e58bb346ce88","name":"Dos Caf\u00e9 \u9017\u5ba4","city":"tainan","wifi":5,"seat":5,"quiet":5,"tasty":5,"cheap":5,"music":5,"url":"https:\/\/www.facebook.com\/doscafe8\/","address":"\u53f0\u5357\u5e02\u4e2d\u897f\u5340\u5fe0\u7fa9\u8def\u4e8c\u6bb58\u865f","latitude":"22.99108400","longitude":"120.20274220","limited_time":"maybe","socket":"maybe","standing_desk":"no","mrt":"","open_time":"\u5df2\u505c\u696d"},{"id":"a08dd144-3acd-4b2e-b667-99b8b5788a2d","name":"belonginn","city":"tainan","wifi":5,"seat":5,"quiet":4,"tasty":5,"cheap":4,"music":5,"url":"","address":"\u53f0\u5357\u5e02\u795e\u8fb2\u885780\u865f","latitude":"22.99791100","longitude":"120.19672200","limited_time":"","socket":"","standing_desk":"","mrt":"","open_time":""},{"id":"a2b0369e-8dd1-4ceb-9e7c-52180e1b8ac8","name":"parkview\u7da0\u5e15\u514b","city":"tainan","wifi":5,"seat":5,"quiet":5,"tasty":5,"cheap":5,"music":5,"url":"","address":"\u53f0\u5357\u5e02\u6771\u5340\u80b2\u6a02\u8857250\u865f","latitude":"22.99198700","longitude":"120.21439360","limited_time":"","socket":"","standing_desk":"","mrt":"","open_time":""},{"id":"a5433fb9-13f4-4898-bdba-4d3a6e0b5cd1","name":"\u8001\u68e7","city":"tainan","wifi":0,"seat":0,"quiet":0,"tasty":0,"cheap":0,"music":0,"url":"","address":"\u53f0\u5357\u5e02\u4ec1\u5fb7\u5340\u4e2d\u6b63\u8def\u4e8c\u6bb5669\u865f","latitude":"22.95978190","longitude":"120.25318040","limited_time":"","socket":"","standing_desk":"","mrt":"","open_time":""},{"id":"a5cae1cf-4005-4376-8fb5-dde1365f3296","name":"\u6709\u9091\u5bb6\u5496\u5561","city":"tainan","wifi":5,"seat":5,"quiet":5,"tasty":5,"cheap":5,"music":5,"url":"https:\/\/www.facebook.com\/HomefromHome3147\/","address":"\u53f0\u5357\u5e02\u5317\u5340\u6d77\u5b89\u8def\u4e09\u6bb5147\u865f","latitude":"23.00496220","longitude":"120.19962320","limited_time":"no","socket":"","standing_desk":"","mrt":"","open_time":""},{"id":"a678d905-8540-4350-89b2-50646d429968","name":"\u5357\u627e\u5496\u5561","city":"tainan","wifi":4,"seat":4,"quiet":3,"tasty":3,"cheap":4,"music":4,"url":"","address":"704\u53f0\u5357\u5e02\u5317\u5340\u9577\u69ae\u8def\u4e94\u6bb5406\u5df728\u865f","latitude":"23.01411760","longitude":"120.21471900","limited_time":"maybe","socket":"maybe","standing_desk":"no","mrt":"","open_time":""},{"id":"a83ffcde-53ba-41b5-8097-2b1aa8bbbc36","name":"\u5947\u7f8e\u5496\u5561\u9928","city":"tainan","wifi":5,"seat":5,"quiet":4,"tasty":1,"cheap":4,"music":3,"url":"https:\/\/www.facebook.com\/cafechimei\/","address":"\u53f0\u5357\u5e02\u6771\u5340\u5927\u5b78\u8def1\u865f","latitude":"22.99624360","longitude":"120.22217190","limited_time":"","socket":"","standing_desk":"","mrt":"","open_time":"08:00 - 20:00"},{"id":"a84767d6-c5e4-4da3-945f-db9ca9e75e86","name":"\u53f0\u5357-\u79d8\u6c0f\u5496\u5561","city":"tainan","wifi":4,"seat":4.5,"quiet":4,"tasty":4.5,"cheap":3.5,"music":5,"url":"https:\/\/www.facebook.com\/cafechamber.tainan\/","address":"\u53f0\u5357\u5e02\u4e2d\u897f\u5340\u570b\u83ef\u8857\u4e09\u6bb5123\u4e4b160","latitude":"22.99663220","longitude":"120.19847700","limited_time":"no","socket":"maybe","standing_desk":"no","mrt":"","open_time":""},{"id":"a8502b2b-b4dc-42cb-bc0b-381c10679afd","name":"\u8c46\u8c37\u5496\u5561 Dual Good","city":"tainan","wifi":5,"seat":5,"quiet":5,"tasty":2,"cheap":2,"music":4,"url":"","address":"\u53f0\u5357\u5e02\u6c38\u5eb7\u5340\u5d11\u5c71\u88574\u5df79\u865f","latitude":"23.00073610","longitude":"120.25836210","limited_time":"","socket":"","standing_desk":"","mrt":"","open_time":""},{"id":"a8989be1-2940-4236-b992-a479a8cbc758","name":"\u8c93\u5410\u53f8","city":"tainan","wifi":5,"seat":5,"quiet":4,"tasty":4,"cheap":5,"music":4,"url":"https:\/\/www.facebook.com\/fatcattoast\/","address":"\u53f0\u5357\u5e02\u6771\u5340\u5927\u5b78\u8def22\u5df716-1\u865f","latitude":"22.99501680","longitude":"120.22112030","limited_time":"","socket":"no","standing_desk":"no","mrt":"","open_time":""},{"id":"a960dd99-a1e6-4f53-95a6-0d74889860af","name":"\u745e\u5c39\u5496\u5561\u9928Rui Yin Cafe","city":"tainan","wifi":0,"seat":0,"quiet":0,"tasty":0,"cheap":0,"music":0,"url":"","address":"\u53f0\u5357\u5e02\u6771\u5340\u88d5\u4fe1\u8def201\u865f","latitude":"22.98338530","longitude":"120.24513240","limited_time":"","socket":"","standing_desk":"","mrt":"","open_time":""},{"id":"adf90e86-4fb4-443f-b5c7-b9294c4de066","name":"\u5b89\u5167\u5496\u5561 An1943 Coffee \u65b0\u5e02\u5e97","city":"tainan","wifi":0,"seat":0,"quiet":0,"tasty":0,"cheap":0,"music":0,"url":"https:\/\/an-coffee.com\/","address":"74445\u53f0\u5357\u5e02\u65b0\u5e02\u5340\u5bcc\u4e2d\u885783\u865f","latitude":"23.08333210","longitude":"120.29389410","limited_time":"maybe","socket":"yes","standing_desk":"no","mrt":"","open_time":""},{"id":"ae36c4cf-8e83-4732-9c98-df7f289ec8a7","name":"Ho-Yo Cookies","city":"tainan","wifi":0,"seat":5,"quiet":4,"tasty":4,"cheap":4,"music":4,"url":"","address":"700\u53f0\u5357\u5e02\u4e2d\u897f\u5340\u4e2d\u6b63\u8def138\u5df76\u865f","latitude":"22.99289160","longitude":"120.19955280","limited_time":"no","socket":"maybe","standing_desk":"yes","mrt":"","open_time":""},{"id":"ae39c052-360e-4dc5-a2f5-3783bcbd54f9","name":"\u81ea\u5df1\u7684\u623f\u9593","city":"tainan","wifi":5,"seat":4,"quiet":3,"tasty":5,"cheap":4,"music":5,"url":"https:\/\/www.instagram.com\/aroomofonesown160\/","address":"\u53f0\u5357\u5e02\u4e2d\u897f\u5340\u65b0\u7f8e\u8857160\u865f","latitude":"22.99750500","longitude":"120.20119900","limited_time":"","socket":"","standing_desk":"no","mrt":"","open_time":""},{"id":"afa06993-3720-4634-9553-4b2a66d8bfe1","name":"\u5c0f\u96e8\u5496\u5561 Caf\u00e9 Drizzle","city":"tainan","wifi":4,"seat":3.5,"quiet":4,"tasty":4.5,"cheap":4.5,"music":4.5,"url":"https:\/\/www.facebook.com\/cafe3952\/?fref=ts","address":"\u53f0\u5357\u5e02\u4e2d\u897f\u5340\u6d77\u5b89\u8def\u4e00\u6bb5133\u865f","latitude":"22.99079130","longitude":"120.19539100","limited_time":"no","socket":"maybe","standing_desk":"no","mrt":"","open_time":""},{"id":"b0551959-d912-46fc-bcad-50e72baf1134","name":"\u6bdb\u4f0a\u5496\u5561","city":"tainan","wifi":4.5,"seat":4.5,"quiet":2.5,"tasty":3.5,"cheap":3.5,"music":3.5,"url":"https:\/\/www.facebook.com\/Mauicoffee.Tainan\/","address":"\u53f0\u5357\u5e02\u6771\u5340\u6771\u9580\u8def\u4e8c\u6bb5385\u865f","latitude":"22.98224830","longitude":"120.22840870","limited_time":"maybe","socket":"yes","standing_desk":"","mrt":"","open_time":"09:00 - 21:00"},{"id":"b074654a-ccb2-4e8e-9841-518134ec9f96","name":"\u65e5\u65e5\u5496\u5561","city":"tainan","wifi":5,"seat":4,"quiet":5,"tasty":4,"cheap":4,"music":4,"url":"https:\/\/www.facebook.com\/anicedaycoffee\/","address":"\u53f0\u5357\u5e02\u6c38\u5eb7\u5340\u4e2d\u83ef\u8def23\u5df71-2\u865f","latitude":"22.99869300","longitude":"120.23405800","limited_time":"","socket":"","standing_desk":"","mrt":"","open_time":"09:00 - 17:00 \u516d\u65e5-18:00 \u9031\u4e8c\u4f11"},{"id":"b30bd965-37b8-41dd-84f2-acf78e14b5fe","name":"\u52dd\u66fc\u5496\u5561 \u516c\u5712\u5e97","city":"tainan","wifi":5,"seat":5,"quiet":4,"tasty":5,"cheap":5,"music":4,"url":"","address":"\u53f0\u5357\u5e02\u5317\u5340\u516c\u5712\u8def916\u865f","latitude":"23.01510960","longitude":"120.21349740","limited_time":"no","socket":"maybe","standing_desk":"yes","mrt":"","open_time":""},{"id":"b4092f3b-2fcf-4267-bfa3-e379e212f1b6","name":"\u6f3f\u679c\u5496\u5561","city":"tainan","wifi":5,"seat":3.5,"quiet":3.5,"tasty":4,"cheap":2.5,"music":3.5,"url":"","address":"712\u53f0\u5357\u5e02\u65b0\u5316\u533a\u5fa9\u8208\u8def285-1\u865f","latitude":"23.03514100","longitude":"120.31054240","limited_time":"no","socket":"maybe","standing_desk":"no","mrt":"","open_time":""},{"id":"b4f95596-1e30-4d16-8249-95892fcd5d41","name":"Coffee x Conscience","city":"tainan","wifi":5,"seat":5,"quiet":4,"tasty":5,"cheap":4,"music":5,"url":"https:\/\/www.facebook.com\/ConscienceTaiwan\/","address":"\u53f0\u5357\u5e02\u6771\u5340\u5d07\u5fb721\u8857138\u5df723\u865f","latitude":"22.96702060","longitude":"120.23173780","limited_time":"maybe","socket":"maybe","standing_desk":"yes","mrt":"","open_time":""},{"id":"b6a75208-7361-496e-95d4-08f213e1ffd2","name":"\u624b\u8349\u751f\u6d3b","city":"tainan","wifi":0,"seat":0,"quiet":0,"tasty":0,"cheap":0,"music":0,"url":"","address":"\u53f0\u5357\u5e02\u5317\u5340\u88d5\u6c11\u885772\u5df712\u865f","latitude":"22.99971000","longitude":"120.20505220","limited_time":"","socket":"","standing_desk":"","mrt":"","open_time":""},{"id":"b71f252f-704c-40b1-b73b-33618e02a4e1","name":"\u96c4\u96c4\u98df\u793e","city":"tainan","wifi":4,"seat":4,"quiet":5,"tasty":4,"cheap":4,"music":4,"url":"https:\/\/www.facebook.com\/XiongXiongSnack\/?fref=ts","address":"\u53f0\u5357\u5e02\u6771\u5340\u6771\u5149\u8def\u4e8c\u6bb5152\u865f","latitude":"22.99826640","longitude":"120.23185190","limited_time":"","socket":"maybe","standing_desk":"no","mrt":"","open_time":""},{"id":"b842353f-667d-43ed-80ac-1042158413a5","name":"Wooli cafe\u5c4b\u88e1\u81ea\u5bb6\u70d8\u7119\u5496\u5561\u5e97","city":"tainan","wifi":4,"seat":4.5,"quiet":4,"tasty":4,"cheap":4,"music":4,"url":"https:\/\/www.facebook.com\/muskaemilycoffee\/","address":"\u53f0\u5357\u5e02\u6c38\u5eb7\u5340\u6771\u6a4b\u4e09\u8def476\u865f","latitude":"23.02404450","longitude":"120.23242480","limited_time":"no","socket":"no","standing_desk":"no","mrt":"","open_time":""},{"id":"be206fd9-2ca0-4107-aa8b-bad194625cd9","name":"134\u5df7\u5167\u7684\u5973\u5deb's","city":"tainan","wifi":5,"seat":5,"quiet":5,"tasty":4,"cheap":4,"music":4,"url":"https:\/\/www.facebook.com\/witchesin134\/","address":"\u53f0\u5357\u5e02\u6771\u5340\u6771\u5be7\u8def134\u5df761-2\u865f","latitude":"22.99072680","longitude":"120.22322030","limited_time":"yes","socket":"no","standing_desk":"no","mrt":"","open_time":"09:00 ~ 16:30 \u9031\u4e00\uff5e\u56db\u4f11 (\u65e9\u5348\u9910\u4f9b\u61c9\u81f3\u4e0b\u53482:30)"},{"id":"beb960f8-d0cc-4d42-bbfb-d42c620b6a79","name":"\u5857\u9d09\u7a7a\u9593 \u66f8\u5e97 \u5c0f\u9152\u9928 - Picturesque","city":"tainan","wifi":5,"seat":5,"quiet":4,"tasty":4,"cheap":5,"music":5,"url":"https:\/\/www.facebook.com\/picturesquebookstore\/","address":"\u53f0\u5357\u5e02\u6771\u5340\u5927\u5b78\u8def18\u5df718-1\u865f","latitude":"22.99461010","longitude":"120.22074790","limited_time":"","socket":"","standing_desk":"","mrt":"","open_time":"10:00 - 22:00 \u5468\u4e00\u4f11"},{"id":"bef9904f-0317-41c4-b47f-6f9d2ec5746e","name":"Hour Jungle\u5171\u540c\u5de5\u4f5c\u5ba4\uff08\u53f0\u5357\u5d07\u5b78\u9928\uff09","city":"tainan","wifi":5,"seat":5,"quiet":5,"tasty":4,"cheap":5,"music":5,"url":"https:\/\/www.facebook.com\/HourJungle\/","address":"\u53f0\u5357\u5e02\u6771\u5340\u5d07\u5b78\u8def165\u865f7\u6a13","latitude":"22.98013160","longitude":"120.22329660","limited_time":"no","socket":"yes","standing_desk":"yes","mrt":"","open_time":"\u7368\u7acb\u5305\u5ec224\u5c0f\u6642"},{"id":"c0ec40f6-c17c-43b9-a098-f8796e0348d7","name":" \u6a38\u6f8d \u5496\u5561\u9928","city":"tainan","wifi":5,"seat":5,"quiet":5,"tasty":4,"cheap":4,"music":5,"url":"https:\/\/www.facebook.com\/CafePrimitive\/","address":"\u53f0\u5357\u5e02\u6771\u5340\u69ae\u8b7d\u885723\u865f","latitude":"22.97408090","longitude":"120.21568510","limited_time":"no","socket":"yes","standing_desk":"yes","mrt":"","open_time":""},{"id":"c112f714-d301-4720-a3f2-d9ff3cd41af4","name":"\u5b89\u5167\u5496\u5561","city":"tainan","wifi":5,"seat":5,"quiet":5,"tasty":5,"cheap":4,"music":4,"url":"https:\/\/www.facebook.com\/An1943.coffee","address":"\u53f0\u5357\u5e02\u6c38\u5eb7\u5340\u5927\u6a4b\u4e00\u885773\u5df734\u865f","latitude":"23.01817160","longitude":"120.22809170","limited_time":"no","socket":"maybe","standing_desk":"no","mrt":"","open_time":"13:00 - 21:00 \u5468\u4e00\u4f11"},{"id":"c191a9f9-8fd5-4857-b429-44d89bdf169d","name":"\u53c1\u4e03\u8336\u623f","city":"tainan","wifi":4,"seat":4.5,"quiet":3.5,"tasty":4.5,"cheap":4.5,"music":4.5,"url":"https:\/\/www.facebook.com\/37cafetea","address":"\u53f0\u5357\u5e02\u5317\u5340\u5fe0\u7fa9\u8def\u4e09\u6bb568\u865f1\u6a13","latitude":"22.99730000","longitude":"120.20072100","limited_time":"maybe","socket":"maybe","standing_desk":"yes","mrt":"","open_time":""},{"id":"c2cccc23-7e5e-44c8-9499-be58dd5423ee","name":"MR PIKI \u5916\u5e36\u5427","city":"tainan","wifi":0,"seat":5,"quiet":5,"tasty":5,"cheap":5,"music":5,"url":"MR PIKI Roasters","address":"\u53f0\u5357\u5e02\u4e2d\u897f\u5340\u5fe0\u7fa9\u8def\u4e00\u6bb5102\u865f","latitude":"22.98930820","longitude":"120.20227360","limited_time":"no","socket":"no","standing_desk":"no","mrt":"","open_time":""},{"id":"c34d88e1-296e-48cf-9e30-bb928372a24a","name":"\u5df7\u9685\u5496\u5561Lane Corner Coffee","city":"tainan","wifi":0,"seat":0,"quiet":0,"tasty":0,"cheap":0,"music":0,"url":"","address":"\u53f0\u5357\u5e02\u6771\u5340\u4e2d\u83ef\u6771\u8def\u4e09\u6bb5399\u5df75\u865f","latitude":"22.97316600","longitude":"120.22057000","limited_time":"","socket":"","standing_desk":"","mrt":"","open_time":""},{"id":"c74c7b6e-739f-440a-aaa2-5ca822d4d26b","name":"Meller \u58a8\u6a02\u5496\u5561","city":"tainan","wifi":5,"seat":5,"quiet":5,"tasty":5,"cheap":5,"music":5,"url":"https:\/\/www.facebook.com\/MellerCoffee\/","address":"\u53f0\u5357\u5e02\u5b89\u5e73\u5340\u5b89\u5317\u8def53\u865f","latitude":"23.00077960","longitude":"120.16635500","limited_time":"no","socket":"","standing_desk":"no","mrt":"","open_time":""},{"id":"c9bcd745-78d3-434f-a04d-270d382e4ebb","name":"\u5348\u71df\u5496\u5561 a break cafe","city":"tainan","wifi":5,"seat":5,"quiet":5,"tasty":5,"cheap":4,"music":5,"url":"https:\/\/www.facebook.com\/abreakcafe\/","address":"\u53f0\u5357\u5e02\u5357\u5340\u798f\u5409\u8def64\u865f","latitude":"22.98210150","longitude":"120.19309310","limited_time":"no","socket":"yes","standing_desk":"yes","mrt":"","open_time":"14:00 - 23:00\uff0c\u6bcf\u5468\u4e09\u516c\u4f11"},{"id":"ca26bc59-e486-44dc-b33f-831b5f9ebd7e","name":"\u8993\u62fecoffee","city":"tainan","wifi":5,"seat":5,"quiet":4,"tasty":4,"cheap":4,"music":4,"url":"https:\/\/www.facebook.com\/%E8%A6%93%E6%8B%BEcoffee-1841900586043285\/","address":"\u53f0\u5357\u5e02\u6771\u5340\u7acb\u5fb72\u8def38\u865f","latitude":"22.97776930","longitude":"120.21472170","limited_time":"","socket":"maybe","standing_desk":"","mrt":"","open_time":"09:00-17:00 (\u6700\u5f8c\u9ede\u9910\u6642\u959316:00) \u516c\u4f11\u65e5\u6bcf\u6708FB\u516c\u5e03"},{"id":"caa35b81-98c9-48e0-8297-eb1879e87a62","name":"Cama\u73fe\u70d8\u5496\u5561\u5c08\u9580\u5e97-\u53f0\u5357\u897f\u9580\u5e97","city":"tainan","wifi":5,"seat":4,"quiet":5,"tasty":4,"cheap":3,"music":3,"url":"http:\/\/www.camacafe.com\/","address":"\u53f0\u5357\u5e02\u4e2d\u897f\u5340\u897f\u9580\u8def\u4e00\u6bb5701\u865f","latitude":"22.98796210","longitude":"120.19735830","limited_time":"no","socket":"maybe","standing_desk":"no","mrt":"","open_time":""},{"id":"cb382d7c-4908-4e54-8625-405f0c3e3ccf","name":"mini izzy cafe \u5e9c\u524d\u5e97","city":"tainan","wifi":1,"seat":4,"quiet":1,"tasty":3,"cheap":3,"music":2,"url":"","address":"\u53f0\u5357\u5e02\u4e2d\u897f\u5340\u5e9c\u524d\u8def\u4e00\u6bb5172-1\u865f","latitude":"22.98922270","longitude":"120.20666490","limited_time":"no","socket":"no","standing_desk":"yes","mrt":"","open_time":""},{"id":"cc67a8be-eea0-4c6a-b798-0fbdcb2b4dca","name":"More Cafe,\u6469\u723e\u5496\u5561","city":"tainan","wifi":4,"seat":5,"quiet":4,"tasty":3,"cheap":3,"music":3,"url":"https:\/\/www.facebook.com\/HelloMoreCafe?ref=hl","address":"\u53f0\u5357\u5e02\u4e2d\u897f\u5340\u8d64\u5d01\u885747\u865f","latitude":"22.99778810","longitude":"120.20348090","limited_time":"no","socket":"maybe","standing_desk":"no","mrt":"","open_time":"11\uff5e19"},{"id":"cc8bc6e8-62e5-497c-b96a-b30aee7196d3","name":"Kizuna Caf\u00e9","city":"tainan","wifi":5,"seat":5,"quiet":5,"tasty":5,"cheap":4,"music":5,"url":"","address":" 71248\u53f0\u5357\u5e02\u65b0\u5316\u5340\u6c11\u6cbb\u8def23\u865f","latitude":"23.03230510","longitude":"120.30454960","limited_time":"","socket":"","standing_desk":"","mrt":"","open_time":""},{"id":"cdd60f24-9b0a-4992-b7e3-558a3f791f44","name":"Mini izzy cafe\u4e2d\u83ef\u5e97","city":"tainan","wifi":4,"seat":5,"quiet":4,"tasty":4,"cheap":4,"music":4,"url":"https:\/\/www.facebook.com\/miniizzycafe2\/","address":"\u53f0\u5357\u5e02\u6771\u5340\u4e2d\u83ef\u6771\u8def\u4e09\u6bb572\u865f","latitude":"22.97954070","longitude":"120.22780280","limited_time":"no","socket":"yes","standing_desk":"yes","mrt":"","open_time":"\u5df2\u6b47\u696d"},{"id":"d041eb3f-7cf1-45fe-bdc9-0628c158afc9","name":"\u5496\u5561\u5319","city":"tainan","wifi":0,"seat":0,"quiet":0,"tasty":0,"cheap":0,"music":0,"url":"","address":"704\u53f0\u5357\u5e02\u5317\u5340\u6587\u6210\u4e94\u885766\u865f","latitude":"23.01886460","longitude":"120.20499280","limited_time":"","socket":"","standing_desk":"","mrt":"","open_time":""},{"id":"d140aa0f-3d1c-4964-9280-558ca8c3b774","name":"\u6708\u7259\u5152\u5f4e\u5f4e Le Croissant de Lune","city":"tainan","wifi":0,"seat":0,"quiet":0,"tasty":0,"cheap":0,"music":0,"url":"","address":"701\u53f0\u5357\u5e02\u6771\u5340\u6771\u8208\u8def20\u5df7109\u865f","latitude":"22.99052400","longitude":"120.22994800","limited_time":"","socket":"","standing_desk":"","mrt":"","open_time":""},{"id":"d5586bed-f320-4565-8ed3-64cf753380c8","name":"MR PIKI Cafe'","city":"tainan","wifi":5,"seat":5,"quiet":5,"tasty":5,"cheap":5,"music":5,"url":"MR PIKI Roasters","address":"\u53f0\u5357\u5e02\u5317\u5340\u4e2d\u83ef\u5317\u8def\u4e8c\u6bb590\u5df750\u865f","latitude":"23.01861220","longitude":"120.19775540","limited_time":"no","socket":"yes","standing_desk":"yes","mrt":"","open_time":""},{"id":"d92e0b21-5288-4cd8-b0df-d84eb15b8ca5","name":"Mini Izzy cafe \u5c0f\u6771\u5e97","city":"tainan","wifi":0,"seat":0,"quiet":0,"tasty":0,"cheap":0,"music":0,"url":"","address":"710\u53f0\u5357\u5e02\u6c38\u5eb7\u5340\u5c0f\u6771\u8def553\u865f","latitude":"22.99877020","longitude":"120.23651760","limited_time":"","socket":"","standing_desk":"","mrt":"","open_time":""},{"id":"da273534-985e-4d43-85d8-00b2a2b4e0fa","name":"\u96e8\u9732\u5fae\u4eae everiridescent","city":"tainan","wifi":5,"seat":3.5,"quiet":4,"tasty":4,"cheap":3.5,"music":4,"url":"https:\/\/www.facebook.com\/everiridescent\/","address":"\u53f0\u5357\u5e02\u5317\u5340\u5bcc\u5317\u885764\u865f","latitude":"22.99930480","longitude":"120.21157910","limited_time":"no","socket":"maybe","standing_desk":"yes","mrt":"","open_time":"\u4f9d\u9810\u7d04\u60c5\u6cc1\u6c7a\u5b9a\u71df\u696d\u6642\u9593"},{"id":"db429664-18d8-4ff2-82e5-8886e165f8f9","name":"\u559d\u6211\u5496\u5561 Hold My Cafe\u2018 \u5496\u5561\u8c46\u5c08\u9580\u5e97","city":"tainan","wifi":0,"seat":5,"quiet":5,"tasty":5,"cheap":5,"music":5,"url":"https:\/\/linktr.ee\/holdmycafe","address":"700\u53f0\u5357\u5e02\u4e2d\u897f\u5340\u5eb7\u6a02\u8857282\u5df717\u865f","latitude":"22.99943210","longitude":"120.19721820","limited_time":"maybe","socket":"maybe","standing_desk":"yes","mrt":"","open_time":"\u63d0\u4f9b\u5496\u5561\u98f2\u54c1\u5916\u5e36\u3001\u5496\u5561\u719f\u8c46\u8ca9\u552e"},{"id":"dc6300f3-a755-4d16-9f70-c2afc207472a","name":"ROOM A","city":"tainan","wifi":5,"seat":4,"quiet":5,"tasty":5,"cheap":4,"music":5,"url":"https:\/\/www.facebook.com\/on.RoomA\/","address":"\u53f0\u5357\u5e02\u4e2d\u897f\u5340\u5eb7\u6a02\u885721\u865f","latitude":"22.99075600","longitude":"120.19388500","limited_time":"yes","socket":"yes","standing_desk":"","mrt":"","open_time":"10:00 - 22:30 \u5468\u4e8c\u4f11"},{"id":"dd982a7b-40be-4ed7-b27e-aea2b727f942","name":"Paripari ","city":"tainan","wifi":5,"seat":4,"quiet":4,"tasty":5,"cheap":4,"music":5,"url":"","address":"\u53f0\u5357\u5e02\u5fe0\u7fa9\u8def2\u6bb5158\u5df79\u865f","latitude":"22.99583470","longitude":"120.20452840","limited_time":"","socket":"","standing_desk":"","mrt":"","open_time":""},{"id":"de0d7c49-d2ac-4a60-871f-77eac120a0a5","name":"Miss Bossy Caf\u00e9","city":"tainan","wifi":0,"seat":0,"quiet":0,"tasty":0,"cheap":0,"music":0,"url":"https:\/\/www.facebook.com\/Miss-Bossy-Caf%C3%A9-400688696777876\/","address":"\u53f0\u5357\u5e02\u4e2d\u897f\u5340\u65b0\u7f8e\u8857185\u865f","latitude":"22.99840300","longitude":"120.20156560","limited_time":"","socket":"","standing_desk":"","mrt":"","open_time":"14:00 - 19:00 \u5468\u4e00~\u4e09\u4f11"},{"id":"de1e166d-9064-4600-b22b-698cc5c769c6","name":"\u5bc2\u5bde\u5148\u751f Mr.lonely Cafe & Bar","city":"tainan","wifi":0,"seat":3,"quiet":4,"tasty":4,"cheap":4,"music":5,"url":"https:\/\/www.facebook.com\/mrlonelycafe\/","address":"70261\u53f0\u7063\u53f0\u5357\u5e02\u5357\u5340\u842c\u5e74\u8def160\u5df76-3\u865f","latitude":"22.93447320","longitude":"120.18554400","limited_time":"","socket":"","standing_desk":"","mrt":"","open_time":"11\u6708\u958b\u59cb\u71df\u696d"},{"id":"e0a92d53-802d-46a6-9b00-62d930cbf4f8","name":"\u6728\u9580 \u671d\u5348\u6d0b\u98df MOMENT","city":"tainan","wifi":5,"seat":4,"quiet":4,"tasty":5,"cheap":4,"music":5,"url":"https:\/\/www.facebook.com\/moment192\/","address":"\u53f0\u5357\u5e02\u4e2d\u897f\u5340\u6c11\u6b0a\u8def\u4e00\u6bb5192\u865f","latitude":"22.99180860","longitude":"120.20804950","limited_time":"maybe","socket":"maybe","standing_desk":"no","mrt":"","open_time":""},{"id":"e0c49408-8fb3-4814-9a6c-a58aac529d72","name":"WO TANG XING \u83aa\u5802\u884c","city":"tainan","wifi":0,"seat":0,"quiet":0,"tasty":0,"cheap":0,"music":0,"url":"https:\/\/www.facebook.com\/wotangxing\/","address":"\u53f0\u5357\u5e02\u4e2d\u897f\u5340\u5e9c\u524d\u8def\u4e00\u6bb5359\u5df722\u865f","latitude":"22.98907500","longitude":"120.21038320","limited_time":"","socket":"","standing_desk":"","mrt":"","open_time":"11:30 - 20:30"},{"id":"e0c6d5ab-1599-4ba0-bb98-b6a0e2862aa5","name":"\u963f\u57fa\u91cc\u65af\u8207\u9f9c\u73c8\u7432","city":"tainan","wifi":4,"seat":5,"quiet":5,"tasty":4,"cheap":4,"music":5,"url":"https:\/\/www.facebook.com\/aattcafe\/","address":"\u53f0\u5357\u5e02\u4e2d\u897f\u5340\u6e56\u7f8e\u4e8c\u885720\u5df710\u865f","latitude":"22.99982160","longitude":"120.18229950","limited_time":"no","socket":"maybe","standing_desk":"no","mrt":"","open_time":""},{"id":"e3d23279-5c97-4d3d-a417-e1daba04c4d1","name":"\u8086\u6a13\u5496\u5561","city":"tainan","wifi":0,"seat":5,"quiet":5,"tasty":5,"cheap":4,"music":5,"url":"https:\/\/www.facebook.com\/slowcoffeeshop\/","address":"\u53f0\u5357\u5e02\u5b89\u5e73\u5340\u5ef6\u5e73\u8857104\u5df721\u865f","latitude":"23.00118590","longitude":"120.16260640","limited_time":"maybe","socket":"maybe","standing_desk":"no","mrt":"","open_time":""},{"id":"e56c9b0c-2d71-4bba-ad38-05273ea956f0","name":"M2 coffee shop \u51f1\u65cb\u5e97","city":"tainan","wifi":5,"seat":5,"quiet":4,"tasty":4,"cheap":5,"music":4,"url":"","address":"701\u53f0\u5357\u5e02\u6771\u5340\u51f1\u65cb\u8def15\u865f","latitude":"22.99294400","longitude":"120.23100100","limited_time":"no","socket":"maybe","standing_desk":"yes","mrt":"","open_time":""},{"id":"e5c58d42-bac9-429c-aaad-458e8041a0df","name":"\u751c\u5728\u5fc3\u5496\u5561\u9928","city":"tainan","wifi":5,"seat":4,"quiet":4,"tasty":5,"cheap":4,"music":4,"url":"https:\/\/www.facebook.com\/\u751c\u5728\u5fc3\u5496\u5561\u9928-147910205312553\/?fref=ts","address":"\u53f0\u5357\u5e02\u5317\u5340\u5317\u5fe0\u885758\u5df712\u865f","latitude":"22.99906090","longitude":"120.21140670","limited_time":"no","socket":"maybe","standing_desk":"yes","mrt":"","open_time":"09:00-18:00"},{"id":"e672b74a-67d1-4d3b-b043-ee2eeb4ce49c","name":"\u8ce3 \u98f2\u6599 my beverages","city":"tainan","wifi":4,"seat":4,"quiet":4,"tasty":4,"cheap":4,"music":5,"url":"https:\/\/www.facebook.com\/my.beverage\/","address":"\u53f0\u5357\u5e02\u4e2d\u897f\u5340\u6c38\u798f\u8def\u4e8c\u6bb5142-1\u865f","latitude":"22.99431400","longitude":"120.20150560","limited_time":"","socket":"maybe","standing_desk":"yes","mrt":"","open_time":"\u4f11\u5047\u65e5:\u6bcf\u6708\u6700\u5f8c\u4e00\u500b\u79ae\u62dc\u4e8c~\u79ae\u62dc\u56db(\u5be6\u969b\u4f11\u5047\u65e5\u671f\u4ee5\u81c9\u66f8\u516c\u544a\u70ba\u4e3b)"},{"id":"e6b324dc-dbd5-4be7-ada6-56bc265fb2cc","name":"\u8c50\u5496\u5561\u6771\u6a4b\u5e97","city":"tainan","wifi":0,"seat":0,"quiet":0,"tasty":0,"cheap":0,"music":0,"url":"","address":"710\u53f0\u5357\u5e02\u6c38\u5eb7\u5340\u6771\u6a4b\u5341\u88575\u865f1\u6a13","latitude":"23.02277780","longitude":"120.23348970","limited_time":"no","socket":"yes","standing_desk":"yes","mrt":"","open_time":""},{"id":"e960b4ba-add1-49fe-89e0-4338fc11be5c","name":"\u53ef\u65af\u91cc\u5496\u5561\u70d8\u7119","city":"tainan","wifi":4,"seat":4,"quiet":4,"tasty":5,"cheap":5,"music":4,"url":"","address":"\u53f0\u5357\u5e02\u5317\u5340\u6d77\u5b89\u8def3\u6bb5908\u865f","latitude":"23.01838280","longitude":"120.20013900","limited_time":"no","socket":"maybe","standing_desk":"no","mrt":"","open_time":""},{"id":"e96cbda5-2377-43ab-b61d-5396fbc3c1e1","name":"\u516d\u5408\u5883 \u8336\u5f25","city":"tainan","wifi":5,"seat":5,"quiet":5,"tasty":5,"cheap":4,"music":5,"url":"https:\/\/www.facebook.com\/r.sabiski\/?fref=ts","address":"\u53f0\u5357\u5e02\u4e2d\u897f\u5340\u5efa\u696d\u885718\u865f2\u6a13","latitude":"22.98786810","longitude":"120.20726330","limited_time":"no","socket":"yes","standing_desk":"yes","mrt":"","open_time":"\u4e00\u56db\u65e513:00 - 21:00 \u4e94\u516d13:00 - 23:00 \u9031\u4e8c\u4e09\u4f11"},{"id":"e9e0c171-5251-4b0b-8964-16b7671cce0d","name":"RW Coffee","city":"tainan","wifi":0,"seat":0,"quiet":0,"tasty":0,"cheap":0,"music":0,"url":"","address":"\u53f0\u5357\u5e02\u6771\u5340\u6771\u8208\u8def4\u865f","latitude":"22.99023530","longitude":"120.22859030","limited_time":"","socket":"","standing_desk":"","mrt":"","open_time":""},{"id":"e9e35693-f332-4e20-9298-b5b6cb7f09eb","name":"IZZY CAFE","city":"tainan","wifi":0,"seat":0,"quiet":0,"tasty":0,"cheap":0,"music":0,"url":"","address":"708\u53f0\u5357\u5e02\u5b89\u5e73\u5340\u5b89\u5e73\u8def346\u4e4b1\u865f","latitude":"22.99837100","longitude":"120.17700200","limited_time":"","socket":"","standing_desk":"","mrt":"","open_time":""},{"id":"e9eaaa01-a174-473a-8734-1fcc4aaad7d0","name":"TreesWind \u6a39\u6709\u98a8\u7cbe\u9078\u5496\u5561\u8c46\u5c08\u8ce3\u5e97","city":"tainan","wifi":4,"seat":4,"quiet":4,"tasty":5,"cheap":3,"music":4,"url":"https:\/\/www.facebook.com\/treeswindcafe\/?ref=br_rs","address":"\u53f0\u5357\u5e02\u4e2d\u897f\u5340\u5e9c\u524d\u8def\u4e00\u6bb5333\u865f","latitude":"22.98981610","longitude":"120.19966800","limited_time":"","socket":"maybe","standing_desk":"","mrt":"","open_time":""},{"id":"ea235fed-a2ce-4f15-b50f-51fd51a99f93","name":"\u6696\u6696\u86c7\u5496\u5561\u9928 Caf\u00e9 Fl\u00e2neur","city":"tainan","wifi":4,"seat":4,"quiet":3,"tasty":4,"cheap":4,"music":4.5,"url":"https:\/\/www.facebook.com\/cafeflaneur\/","address":"\u53f0\u5357\u5e02\u4e2d\u897f\u5340\u666e\u6fdf\u885753\u865f","latitude":"22.99844200","longitude":"120.19871800","limited_time":"","socket":"maybe","standing_desk":"no","mrt":"","open_time":""},{"id":"eab91270-ad72-47e4-bbed-6b0cc8e926f2","name":"\u9e7f\u67f4\u5496\u5561","city":"tainan","wifi":5,"seat":5,"quiet":5,"tasty":5,"cheap":4,"music":4,"url":"https:\/\/www.facebook.com\/Luchaicafe\/","address":"708\u53f0\u5357\u5e02\u5b89\u5e73\u5340\u5065\u5eb7\u4e09\u885777\u865f","latitude":"22.98578310","longitude":"120.20531500","limited_time":"","socket":"","standing_desk":"","mrt":"","open_time":"13:00 - 21:00 \u9031\u56db\u4f11"},{"id":"eac50485-9aeb-4128-826f-51ba74b31b33","name":"Mini Izzy cafe \u6c11\u65cf\u5e97","city":"tainan","wifi":0,"seat":0,"quiet":0,"tasty":0,"cheap":0,"music":0,"url":"","address":"700\u53f0\u5357\u5e02\u4e2d\u897f\u5340\u6c11\u65cf\u8def\u4e09\u6bb5150\u865f","latitude":"22.99904100","longitude":"120.19595700","limited_time":"","socket":"","standing_desk":"","mrt":"","open_time":""},{"id":"eb3b2eba-d86f-4f77-9b71-f5cb304873a9","name":"Kadoya\u55ab\u8336\u5e97","city":"tainan","wifi":4.5,"seat":3,"quiet":3,"tasty":3,"cheap":3,"music":5,"url":"https:\/\/www.facebook.com\/Kadoyasweets\/","address":"\u53f0\u5357\u5e02\u6771\u5340\u6a39\u6797\u8857\u4e00\u6bb536\u865f","latitude":"22.98588600","longitude":"120.21611430","limited_time":"","socket":"no","standing_desk":"yes","mrt":"","open_time":""},{"id":"ed69cfca-ec2f-4ebe-9ec3-5e60dfea67a7","name":"zee's coffee jar","city":"tainan","wifi":5,"seat":4,"quiet":4,"tasty":5,"cheap":5,"music":5,"url":"","address":"\u53f0\u5357\u5e02\u5317\u9580\u8def\u4e8c\u6bb5547\u5df7","latitude":"23.00493670","longitude":"120.21399250","limited_time":"","socket":"","standing_desk":"","mrt":"","open_time":""},{"id":"ee42202d-f634-4008-a492-9ba2b27fe2d9","name":"\u53e4\u884c\u81ea\u5bb6\u70d8\u7119\u5496\u5561","city":"tainan","wifi":0,"seat":3,"quiet":5,"tasty":5,"cheap":5,"music":5,"url":"https:\/\/m.facebook.com\/goodthingcoffeetw\/","address":"\u53f0\u5357\u5e02\u4e2d\u897f\u5340\u6c11\u65cf\u8def\u4e8c\u6bb5399\u865f","latitude":"22.99715900","longitude":"120.20117900","limited_time":"no","socket":"no","standing_desk":"no","mrt":"","open_time":"\u81e8\u6642\u4f11\u6703\u53e6\u884c\u516c\u544a"},{"id":"ef3250a0-17b1-476c-9468-0db953f046ea","name":"\u5148\u5403\u2022\u518d\u804a","city":"tainan","wifi":5,"seat":5,"quiet":5,"tasty":4.5,"cheap":5,"music":5,"url":"https:\/\/www.facebook.com\/stomachfriend\/","address":"\u53f0\u5357\u5e02\u4e2d\u897f\u5340\u958b\u5c71\u8def122\u5df736\u5f0412\u865f","latitude":"22.98993150","longitude":"120.20628330","limited_time":"maybe","socket":"yes","standing_desk":"no","mrt":"","open_time":"13:00\uff5e19:30"},{"id":"f1126f00-5ddc-4974-96fd-bc8383e54c17","name":"Coffee Cape station","city":"tainan","wifi":3.5,"seat":4,"quiet":3,"tasty":3,"cheap":3,"music":4,"url":"https:\/\/www.facebook.com\/Coffee-Cape-station-1502589336715645\/","address":"\u53f0\u5357\u5e02\u4e2d\u897f\u5340\u842c\u660c\u8857133-1\u865f","latitude":"22.99430840","longitude":"120.21077850","limited_time":"maybe","socket":"maybe","standing_desk":"no","mrt":"","open_time":"12:00 - 22:00"},{"id":"f1aa3ba4-5069-46c2-b12d-af00325dd0b3","name":"\u798f\u5409161\u5546\u884c","city":"tainan","wifi":5,"seat":4.5,"quiet":4.5,"tasty":5,"cheap":5,"music":4.5,"url":"https:\/\/www.facebook.com\/fuji161cafe\/?fref=ts","address":"\u53f0\u5357\u5e02\u5357\u5340\u798f\u5409\u4e94\u885716\u5df71\u865f","latitude":"22.98248800","longitude":"120.19271410","limited_time":"","socket":"","standing_desk":"","mrt":"","open_time":"12:00 - 20:00"},{"id":"f326dad8-2a8c-4196-a1b9-e4357659f8ed","name":"\u6155\u5750\u6703","city":"tainan","wifi":0,"seat":0,"quiet":0,"tasty":0,"cheap":0,"music":0,"url":"","address":"\u53f0\u5357\u5e02\u5317\u5340\u6210\u529f\u8def68\u5df79\u865f","latitude":"22.99847820","longitude":"120.20659030","limited_time":"","socket":"","standing_desk":"","mrt":"","open_time":""},{"id":"f333f5be-bbaf-4d67-9448-198a66ba239e","name":"( AT ) ~Cats&Tea \u8336\u98f2\u8f15\u98df","city":"tainan","wifi":0,"seat":5,"quiet":5,"tasty":5,"cheap":4,"music":4,"url":"","address":"\u53f0\u5357\u5e02\u4e2d\u897f\u5340\u5efa\u696d\u885772\u865f","latitude":"22.98790620","longitude":"120.20516800","limited_time":"no","socket":"maybe","standing_desk":"no","mrt":"","open_time":""},{"id":"f371e8a6-e3a0-4289-bec7-15b9d61e90b6","name":"T'WIN coffee \u5496\u5561' \u4e91","city":"tainan","wifi":5,"seat":4,"quiet":4,"tasty":4,"cheap":3,"music":4,"url":"http:\/\/www.facebook.com\/526twin\/","address":"\u53f0\u5357\u5e02\u6771\u5340\u5d07\u660e\u8def526\u865f","latitude":"22.97325960","longitude":"120.22415410","limited_time":"","socket":"","standing_desk":"","mrt":"","open_time":""},{"id":"f4250350-db43-4b5d-83ca-0926b681355a","name":"\u6f2b\u6b65\u65e5\u5149","city":"tainan","wifi":0,"seat":5,"quiet":5,"tasty":5,"cheap":5,"music":5,"url":"https:\/\/an-coffee.com","address":"\u53f0\u5357\u5e02\u65b0\u71df\u5340\u4e2d\u5c71\u8def93-2\u865f1\u6a13","latitude":"23.30563500","longitude":"120.32012400","limited_time":"maybe","socket":"maybe","standing_desk":"yes","mrt":"","open_time":"\u6bcf\u500b\u6708\u7684\u6700\u5f8c\u4e00\u500b\u661f\u671f\u4e00\u516c\u4f11"},{"id":"f462f5a6-e8e4-49b2-b7f3-e9b7db1c2042","name":"\u5496\u5561\u8336\u6735CHADOR","city":"tainan","wifi":5,"seat":5,"quiet":4,"tasty":4,"cheap":4,"music":5,"url":"","address":"\u53f0\u5357\u5e02\u6771\u5340\u52dd\u5229\u8def115-1\u865f","latitude":"22.99451240","longitude":"120.21794440","limited_time":"no","socket":"yes","standing_desk":"no","mrt":"","open_time":""},{"id":"f558af1e-9fbb-40ac-bbe9-c2ec5f0a8fd6","name":"\u90a3\u8c46\u9bae\u7119","city":"tainan","wifi":1,"seat":5,"quiet":5,"tasty":4,"cheap":2,"music":5,"url":"","address":"\u53f0\u5357\u5e02\u6771\u5340\u9577\u69ae\u8def\u4e09\u6bb524\u5df720\u865f","latitude":"22.99250600","longitude":"120.22234600","limited_time":"","socket":"","standing_desk":"","mrt":"","open_time":""},{"id":"f5a4c3cb-a3db-4638-ae83-1f8af4a64072","name":"\u778e\u804a\u8c93\u5496\u5561","city":"tainan","wifi":5,"seat":4,"quiet":4.5,"tasty":4.5,"cheap":4.5,"music":5,"url":"https:\/\/www.facebook.com\/catchatcafe\/","address":"\u53f0\u5357\u5e02\u6771\u5340\u5e9c\u6771\u8857214\u865f","latitude":"22.99460220","longitude":"120.22662810","limited_time":"no","socket":"maybe","standing_desk":"no","mrt":"","open_time":""},{"id":"f689d579-ad0d-4fe1-a001-c811986c4d95","name":"Quinny cafe & lounge","city":"tainan","wifi":0,"seat":0,"quiet":0,"tasty":0,"cheap":0,"music":0,"url":"","address":"\u53f0\u5357\u5e02\u6771\u5340\u9577\u69ae\u8def\u4e00\u6bb595\u865f","latitude":"22.98305540","longitude":"120.21693860","limited_time":"","socket":"","standing_desk":"","mrt":"","open_time":""},{"id":"f6a97699-27f0-431d-81b6-1733d12369a4","name":"T3CA\u7cbe\u7dfb\u5496\u5561\u5e97","city":"tainan","wifi":5,"seat":5,"quiet":5,"tasty":5,"cheap":5,"music":5,"url":"https:\/\/www.facebook.com\/t3cabrew\/","address":"\u53f0\u5357\u5e02\u6771\u5340\u4e2d\u83ef\u6771\u8def\u4e8c\u6bb5133\u5df717\u5f0421\u865f1\u6a13","latitude":"22.98634400","longitude":"120.23387800","limited_time":"no","socket":"maybe","standing_desk":"","mrt":"","open_time":"10:00 - 19:00 \u5468\u65e5\u4e00\u4f11"},{"id":"f7e5ff2a-a1fb-46e8-b28d-e2503fd94eb6","name":"\u7c73\u5bd3","city":"tainan","wifi":0,"seat":0,"quiet":0,"tasty":0,"cheap":0,"music":0,"url":"https:\/\/www.facebook.com\/APTM1040103\/","address":"\u53f0\u5357\u5e02\u4e2d\u897f\u5340\u5fe0\u660e\u88573\u865f","latitude":"22.99601610","longitude":"120.19723020","limited_time":"","socket":"","standing_desk":"","mrt":"","open_time":"0900-1700 \u9031\u4e09\u3001\u65e5\u4f11"},{"id":"f8083929-2d82-4082-a6dd-3687a86947a9","name":"Birdeye Espresso \/ \u88ab\u611b\u5496\u5561","city":"tainan","wifi":0,"seat":0,"quiet":0,"tasty":0,"cheap":0,"music":0,"url":"","address":"No, No. 29\u9577\u69ae\u8def\u4e8c\u6bb524\u5df7\u6771\u5340\u53f0\u5357\u5e02701","latitude":"22.98716390","longitude":"120.21995440","limited_time":"maybe","socket":"maybe","standing_desk":"yes","mrt":"","open_time":""},{"id":"f979f252-c19a-4f19-ad6a-9e54749024b0","name":"\u5496\u5561\u5319\u5496\u5561\u5de5\u4f5c\u5ba4","city":"tainan","wifi":0,"seat":3.5,"quiet":4,"tasty":5,"cheap":3.5,"music":4,"url":"https:\/\/www.facebook.com\/cuppingspoon\/","address":"\u53f0\u5357\u5e02\u5317\u5340\u548c\u7def\u8def\u4e8c\u6bb5235\u865f","latitude":"23.01230000","longitude":"120.20492750","limited_time":"","socket":"","standing_desk":"","mrt":"","open_time":""},{"id":"fa4a109c-4b7f-476a-bc93-edcf55b48cb8","name":"\u7a0d\u5f8c\u5496\u5561\u9928Encore Cafe","city":"tainan","wifi":0,"seat":0,"quiet":0,"tasty":0,"cheap":0,"music":0,"url":"","address":"\u53f0\u5357\u5e02\u6771\u5340\u88d5\u8fb2\u4e8c\u8857\u516d\u865f","latitude":"22.98825840","longitude":"120.23888530","limited_time":"","socket":"","standing_desk":"","mrt":"","open_time":""},{"id":"fbcdb965-88e1-4f90-8817-b6f1cb9eeb0f","name":"\u674e\u767d\u5148\u751f\u5496\u5561","city":"tainan","wifi":5,"seat":5,"quiet":5,"tasty":5,"cheap":5,"music":5,"url":"https:\/\/www.facebook.com\/MrLeeWhiteCafe\/","address":"\u53f0\u5357\u5e02\u6c38\u5eb7\u5340\u4e2d\u5c71\u5357\u8def43\u5df740\u5f043\u865f","latitude":"23.01340260","longitude":"120.22650790","limited_time":"no","socket":"maybe","standing_desk":"no","mrt":"","open_time":""},{"id":"fc674aa4-0261-4641-9c48-153cecf1897d","name":"\u86cb\u9ec3\u5496\u5561","city":"tainan","wifi":4,"seat":4,"quiet":4,"tasty":5,"cheap":4,"music":5,"url":"https:\/\/www.facebook.com\/YOLKCOFFEE\/","address":"\u53f0\u5357\u5e02\u6b78\u4ec1\u5340\u4e2d\u6b63\u516d\u885727\u865f","latitude":"22.96571790","longitude":"120.29325450","limited_time":"maybe","socket":"maybe","standing_desk":"yes","mrt":"","open_time":""},{"id":"fcef8dc2-ac0f-4902-a89d-2d28329e2d97","name":"\u5b58\u61b6CafeBar","city":"tainan","wifi":4.5,"seat":3.5,"quiet":2.5,"tasty":5,"cheap":4.5,"music":3.5,"url":"https:\/\/www.facebook.com\/%E5%AD%98%E6%86%B6Cafe-Bar-239830979545229\/","address":"\u53f0\u5357\u5e02\u4e2d\u897f\u5340\u570b\u83ef\u8def\u4e09\u6bb5211\u865f","latitude":"22.99838950","longitude":"120.19916550","limited_time":"no","socket":"maybe","standing_desk":"no","mrt":"","open_time":""},{"id":"fd33590f-47ad-4535-aa1e-633be679ba64","name":"\u9996\u74bd\u5496\u5561 SoSee Coffee","city":"tainan","wifi":0,"seat":0,"quiet":0,"tasty":0,"cheap":0,"music":0,"url":"https:\/\/m.facebook.com\/soseecoffee\/","address":"701\u53f0\u5357\u5e02\u6771\u5340\u88d5\u8fb2\u8def375\u865f","latitude":"22.98762800","longitude":"120.23013600","limited_time":"no","socket":"","standing_desk":"","mrt":"","open_time":""},{"id":"fe112249-a116-4e42-ad65-aa778fbf8ed8","name":"\u7a84\u9580\u5496\u5561","city":"tainan","wifi":2,"seat":3,"quiet":3.5,"tasty":3.5,"cheap":3.5,"music":3,"url":"https:\/\/www.facebook.com\/narrowdoor99\/","address":"\u53f0\u5357\u5e02\u4e2d\u897f\u5340\u5357\u9580\u8def67\u865f2\u6a13","latitude":"22.98970980","longitude":"120.20479640","limited_time":"maybe","socket":"yes","standing_desk":"no","mrt":"","open_time":"\u82e5\u5e73\u65e521:40 \u53ca \u516d\u65e522:10 \u7121\u9867\u5ba2\u6642\u5373\u6703\u63d0\u65e9\u6253\u70ca"},{"id":"fee5529e-f314-4653-a295-571135e1bad6","name":"ours\u6211\u5011\u5de5\u4f5c\u5ba4","city":"tainan","wifi":0,"seat":4,"quiet":4,"tasty":5,"cheap":5,"music":5,"url":"","address":"\u53f0\u5357\u5e02\u5317\u5340\u958b\u5143\u8def394\u5df727\u5f0444\u865f","latitude":"23.00568700","longitude":"120.21596300","limited_time":"","socket":"","standing_desk":"no","mrt":"","open_time":""},{"id":"ff28cacc-e00d-4780-b1c8-426d92b7f148","name":"\u963f\u70cf\u5496\u5561","city":"tainan","wifi":1,"seat":3,"quiet":2.5,"tasty":4,"cheap":4.5,"music":3.5,"url":"","address":"\u53f0\u5357\u5e02\u4e2d\u897f\u5340\u958b\u5c71\u8def201\u865f","latitude":"22.98686100","longitude":"120.20943550","limited_time":"","socket":"","standing_desk":"","mrt":"","open_time":""},{"id":"ff8ec474-b672-4034-870d-9a2a2446011e","name":"\u6d6e\u6e38\u5496\u5561","city":"tainan","wifi":0,"seat":0,"quiet":0,"tasty":0,"cheap":0,"music":0,"url":"","address":"\u53f0\u5357\u5e02\u4e2d\u897f\u5340\u5e9c\u524d\u8def\u4e00\u6bb5122\u5df781\u865f","latitude":"22.99045120","longitude":"120.20777180","limited_time":"no","socket":"maybe","standing_desk":"yes","mrt":"","open_time":""},{"id":"ffc23f54-a2fe-42a6-be2b-1bb8c33b08c5","name":"Stable nice","city":"tainan","wifi":3,"seat":3,"quiet":3,"tasty":4,"cheap":3,"music":5,"url":"","address":"700\u53f0\u5357\u5e02\u4e2d\u897f\u5340\u5357\u5be7\u885783\u5df79\u865f","latitude":"22.98469680","longitude":"120.19844360","limited_time":"","socket":"","standing_desk":"","mrt":"","open_time":""}]}