{"data":[{"id":"082afd44-fe5e-4877-8d24-b82f82945ced","name":"\u76ee\u76ee\u5496\u5561","city":"taitung","wifi":5,"seat":4,"quiet":5,"tasty":4,"cheap":4,"music":5,"url":"https:\/\/www.facebook.com\/mumucoffeeshop\/","address":"\u53f0\u6771\u5e02\u66f4\u751f\u8def404\u5df78\u865f","latitude":"22.76230960","longitude":"121.14347510","limited_time":"no","socket":"maybe","standing_desk":"no","mrt":"","open_time":""},{"id":"08d36447-2cbe-4bc5-9c01-ef8303760f2f","name":"\u9ed1\u5b69\u5b50\u9ed1\u5496\u5561","city":"taitung","wifi":5,"seat":5,"quiet":5,"tasty":5,"cheap":5,"music":5,"url":"https:\/\/www.facebook.com\/black.kid.cafe\/","address":"\u53f0\u6771\u5e02\u77e5\u672c\u8def\u4e00\u6bb5766\u865f","latitude":"22.71812360","longitude":"121.08187750","limited_time":"no","socket":"yes","standing_desk":"no","mrt":"","open_time":"10:00-18:00"},{"id":"091210c1-2090-47f2-8426-adbc8c9c1131","name":"\u5c0f\u66fc\u5496\u5561\u5e97","city":"taitung","wifi":4,"seat":4,"quiet":4.5,"tasty":4,"cheap":4,"music":5,"url":"https:\/\/www.facebook.com\/%E5%B0%8F%E6%9B%BC%E5%92%96%E5%95%A1-195900670429323","address":"\u53f0\u6771\u7e23\u53f0\u6771\u5e02\u4e2d\u83ef\u8def\u4e00\u6bb5376\u5df733\u865f","latitude":"22.75493010","longitude":"121.15258550","limited_time":"","socket":"","standing_desk":"","mrt":"","open_time":""},{"id":"0912f5ae-aa71-43e7-be5a-dde65c046b69","name":"Mese Coffee \u8349\u6708\u5496\u5561\u9928\/\u81ea\u5bb6\u70d8\u7119\u7cbe\u54c1\u5496\u5561","city":"taitung","wifi":5,"seat":4,"quiet":4,"tasty":5,"cheap":4.5,"music":4.5,"url":"https:\/\/www.facebook.com\/mese.coffee\/","address":" \u81fa\u6771\u5e02\u4ec1\u5fb7\u885760\u865f","latitude":"22.75782950","longitude":"121.15465840","limited_time":"no","socket":"maybe","standing_desk":"no","mrt":"","open_time":"1400~2230 \u9031\u56db\u516c\u4f11"},{"id":"1bc51fea-4bee-46a0-88b6-4a9b830392e6","name":"4.5\u516c\u91cc\u5496\u5561","city":"taitung","wifi":0,"seat":4,"quiet":4,"tasty":3,"cheap":3,"music":2,"url":"","address":"\u53f0\u6771\u7e23\u6c60\u4e0a\u91093\u913033\u865f","latitude":"23.08534490","longitude":"121.22190530","limited_time":"no","socket":"","standing_desk":"","mrt":"","open_time":"\u4e0d\u5b9a\u4f11"},{"id":"1f0599af-cfef-49c7-9b42-603810444b63","name":"\u6d1b\u6069\u7c73\u85a9\u514b Roen Misak","city":"taitung","wifi":0,"seat":0,"quiet":0,"tasty":0,"cheap":0,"music":0,"url":"","address":"959\u53f0\u6771\u7e23\u6771\u6cb3\u9109\u865f","latitude":"23.06917220","longitude":"121.28552490","limited_time":"no","socket":"maybe","standing_desk":"yes","mrt":"","open_time":""},{"id":"256ddf53-d1e6-4f53-a031-f649214b7cea","name":"\u5496\u5561\u6df5\u7de3","city":"taitung","wifi":5,"seat":5,"quiet":5,"tasty":5,"cheap":3,"music":5,"url":"https:\/\/www.facebook.com\/coffeeyuanyuan\/","address":"950 \u81fa\u6771\u5e02\u65b0\u751f\u8def608\u5df74\u865f","latitude":"22.76220390","longitude":"121.13803740","limited_time":"no","socket":"yes","standing_desk":"no","mrt":"","open_time":""},{"id":"382bb93b-60b9-4493-a920-7e3080b10521","name":"\u862d\u5dbc\u6d77\u5f88\u85cd\u5496\u5561","city":"taitung","wifi":5,"seat":5,"quiet":3,"tasty":5,"cheap":5,"music":5,"url":"https:\/\/www.facebook.com\/filmbluecafe\/about\/?ref=page_internal&locale=zh_TW","address":"\u53f0\u6771\u862d\u5dbc\u9109\u7d05\u982d\u67514\u865f","latitude":"22.02573600","longitude":"121.55253120","limited_time":"","socket":"","standing_desk":"","mrt":"","open_time":"\u9031\u56db\u81f3\u9031\u4e00 \u4e0b\u534814-19\u4f11\u606f"},{"id":"40ebad36-9d8b-4d73-9dde-d5a8927347bf","name":"\u77f3\u5728\u6709\u4eba\u5496\u5561\u9928","city":"taitung","wifi":0,"seat":5,"quiet":5,"tasty":4,"cheap":3,"music":4,"url":"https:\/\/www.facebook.com\/TheReefsCafe60\/","address":"\u53f0\u6771\u7e23\u7da0\u5cf6\u9109\u516c\u9928\u675160\u865f","latitude":"22.67506410","longitude":"121.49133600","limited_time":"","socket":"","standing_desk":"","mrt":"","open_time":"08-14,11-14,17-20"},{"id":"43a5da84-34a2-430c-8e5c-c8230cfde045","name":"\u58be\u58a8\u5496\u5561\u9928","city":"taitung","wifi":5,"seat":4,"quiet":4,"tasty":5,"cheap":3,"music":5,"url":"https:\/\/www.facebook.com\/communitytaitung\/","address":"\u53f0\u6771\u5e02\u66f4\u751f\u8def1208\u865f","latitude":"22.77543990","longitude":"121.12853100","limited_time":"no","socket":"yes","standing_desk":"yes","mrt":"","open_time":"\u6700\u5f8c\u4e00\u500b\u661f\u671f\u56db\u4e5f\u516c\u4f11"},{"id":"5b940f3f-0769-40bc-a12a-84cc4b00c304","name":"Deep Coffee","city":"taitung","wifi":1,"seat":4.5,"quiet":3,"tasty":4,"cheap":3,"music":3.5,"url":"https:\/\/www.facebook.com\/deepcoffee241\/","address":"\u53f0\u6771\u7e23\u53f0\u6771\u5e02\u8c50\u69ae\u8def24\u5df71\u865f","latitude":"22.74640640","longitude":"121.13954790","limited_time":"no","socket":"maybe","standing_desk":"yes","mrt":"","open_time":""},{"id":"740a665b-83f8-4baa-8033-1dfd91904e49","name":"\u9017\u7559\u8c46\u904a","city":"taitung","wifi":4.5,"seat":5,"quiet":5,"tasty":5,"cheap":5,"music":5,"url":"https:\/\/www.facebook.com\/mjcafe.dulan\/?fref=ts","address":"\u53f0\u6771\u5e02\u6771\u6cb3\u9109\u90fd\u862d\u6751\u90fd\u862d121-1\u865f","latitude":"22.87261500","longitude":"121.22673600","limited_time":"no","socket":"no","standing_desk":"no","mrt":"","open_time":""},{"id":"873bb691-13d2-48d1-87eb-7adcc44d1d2a","name":"\u98df\u518acaf\u00e9\u66f8\u5e97","city":"taitung","wifi":5,"seat":5,"quiet":5,"tasty":5,"cheap":5,"music":5,"url":" https:\/\/www.facebook.com\/diningbooks\/","address":"\u53f0\u6771\u5e02\u6d1b\u967d\u8857265\u865f","latitude":"22.76225340","longitude":"121.14068250","limited_time":"no","socket":"yes","standing_desk":"","mrt":"","open_time":""},{"id":"8d25448c-4762-4873-a810-c81de1f1e0cc","name":"Flight cafe \u798f\u4f86\u6771\u5496\u5561","city":"taitung","wifi":5,"seat":5,"quiet":4,"tasty":5,"cheap":4,"music":5,"url":"https:\/\/www.facebook.com\/flight457\/","address":"\u53f0\u6771\u5e02\u50b3\u5ee3\u8def457-1\u865f","latitude":"22.76676870","longitude":"121.14386170","limited_time":"no","socket":"maybe","standing_desk":"no","mrt":"","open_time":"12:00-20:00  L.O19:15  "},{"id":"8fce43d2-9b7d-4f05-b537-71b38f555c9d","name":"Wow\u2019s\u90a6\u67e5\uff08\u6ce2\u6d6a\u5c4b2\u865f\u5009\u5eab\uff09","city":"taitung","wifi":5,"seat":5,"quiet":5,"tasty":5,"cheap":4,"music":5,"url":"https:\/\/www.facebook.com\/Wowspangcha\/","address":"\u53f0\u6771\u7e23\u65b0\u751f\u8def105\u865f","latitude":"22.75331140","longitude":"121.14730370","limited_time":"","socket":"","standing_desk":"","mrt":"","open_time":""},{"id":"9bbb12a1-0ce5-493d-871e-919bc7dc4283","name":"Wave coffee \u6d6a\u982d\u5496\u5561","city":"taitung","wifi":0,"seat":4,"quiet":4,"tasty":4,"cheap":5,"music":4,"url":"@Laiyu.Wavecoffee","address":"\u53f0\u6771\u7e23\u862d\u5dbc\u9109\u6771\u6e05\u6751","latitude":"22.05829160","longitude":"121.55412640","limited_time":"no","socket":"no","standing_desk":"yes","mrt":"","open_time":"\u65e9\u6668\u82e5\u5929\u6c23\u597d\u6709\u65e5\u51fa\uff0c\u5247\u6703\u66f4\u65e9\u71df\u696d\uff0c\u4e2d\u5348\u90e8\u5206\u662f\u4f11\u606f\uff0e"},{"id":"a31a624e-f517-4d2f-9306-18a0746617ad","name":"\u8d70\u8d70\u6c60\u4e0a","city":"taitung","wifi":5,"seat":4,"quiet":4,"tasty":5,"cheap":5,"music":5,"url":"","address":"\u53f0\u6771\u7e23\u6c60\u4e0a\u9109\u4e2d\u5c71\u8def99\u865f","latitude":"23.12224870","longitude":"121.21508750","limited_time":"no","socket":"yes","standing_desk":"yes","mrt":"","open_time":"\u4e0d\u5b9a\u6642\u516c\u4f11"},{"id":"a346d174-e99d-49c9-b038-064f0266d8db","name":"\u9ed8\u9ed8\u73c8\u7432\u624b\u6c96\u9928","city":"taitung","wifi":0,"seat":5,"quiet":5,"tasty":5,"cheap":4,"music":4,"url":"\u6c92\u6709, \u4f46\u5728GoogleMap\u4e0a\u53ef\u627e\u5230","address":"\u53f0\u6771\u7e23\u6c60\u4e0a\u9109\u4e2d\u83ef\u8def61\u865f","latitude":"23.12575060","longitude":"121.21679620","limited_time":"no","socket":"","standing_desk":"","mrt":"","open_time":"\u7121\u610f\u9593\u4f86\u5230\u9019\u5bb6\u81ea\u5bb6\u70d8\u57f9\u4e14\u53ea\u8ce3\u624b\u6c96\u55ae\u54c1\u7684\u5c0f\u5e97, \u5e97\u5167\u5e38\u5099\u54c1\u9805\u7adf\u8d85\u904e\u5341\u96bb\u4ee5\u4e0a\u55ae\u54c1,, \u7576\u5929\u670918\u96bb, \u53e6\u6709\u624b\u5de5\u751c\u9ede\u4f46\u5f97\u02c7\u78b0\u904b\u6c23, \u4e5f\u6709\u8336\u98f2\u8207\u7d05\u767d\u9152, \u91cd\u9ede\u662f\u6c92\u6709\u62db\u724c\u6c92\u6709\u62db\u724c\u6c92\u6709\u62db\u724c! \u4e0d\u5b9a\u4f11~  \u55ae\u54c1\u771f\u7684\u5f88\u5f37!"},{"id":"a7e8fecb-51ae-424e-bd46-23eb77c9d307","name":"\u592a\u9ebb\u91cc\u6587\u5275\u5496\u5561\u9928","city":"taitung","wifi":0,"seat":0,"quiet":0,"tasty":0,"cheap":0,"music":0,"url":"","address":"950\u53f0\u6771\u7e23\u53f0\u6771\u5e02\u798f\u5efa\u8def307\u865f","latitude":"22.74994470","longitude":"121.15012890","limited_time":"","socket":"","standing_desk":"","mrt":"","open_time":""},{"id":"b1eb66c2-9fd2-4269-9e06-e67db079d79e","name":"Coffeeloft-\u5496\u5561\u5de5\u5bd3","city":"taitung","wifi":0,"seat":4,"quiet":4,"tasty":4,"cheap":5,"music":4,"url":"https:\/\/www.facebook.com\/coffeeloftapartment\/?fref=ts","address":"\u53f0\u6771\u5e02\u6d59\u6c5f\u8def36\u865f","latitude":"22.76007560","longitude":"121.14928200","limited_time":"","socket":"maybe","standing_desk":"no","mrt":"","open_time":""},{"id":"b8fdea1c-b2f7-45cf-b811-2cd8398fb18c","name":"\u53f0\u67712\u865f\u5496\u5561\u9928","city":"taitung","wifi":5,"seat":5,"quiet":5,"tasty":5,"cheap":5,"music":5,"url":"https:\/\/www.facebook.com\/2%E8%99%9F%E5%92%96%E5%95%A1%E9%A4%A8-108716764052781\/?eid=ARAH29fXPuMijVIwcMoi9dzwcSMEVOmm_EmOn_QDUmc_4AW8f-DzLgyhDv7o8fuRJift5fG3TCCVXsAV","address":"\u53f0\u6771\u5e02\u798f\u5efa\u8def178\u865f","latitude":"22.75296210","longitude":"121.15288290","limited_time":"no","socket":"yes","standing_desk":"","mrt":"","open_time":""},{"id":"c8a9c49c-03dd-420d-b673-2c7ade0246ac","name":"\u602a\u8c46\u5496\u5561","city":"taitung","wifi":4.5,"seat":4.5,"quiet":4.5,"tasty":5,"cheap":5,"music":4,"url":"https:\/\/www.facebook.com\/ODDO.COFFEE\/","address":"\u53f0\u6771\u5e02\u66f4\u751f\u8def504\u865f","latitude":"22.76361230","longitude":"121.14072650","limited_time":"","socket":"","standing_desk":"","mrt":"","open_time":"14:00 - 20:00"},{"id":"d26d6524-0a2a-48fc-801c-b533c4b7cd9f","name":"\u4f50\u4f51\u54c1\u6709\u6a5f\u5496\u5561\u838a\u5712","city":"taitung","wifi":0,"seat":0,"quiet":0,"tasty":0,"cheap":0,"music":0,"url":"","address":"963\u53f0\u6771\u7e23\u592a\u9ebb\u91cc\u4e61\u592a\u9ebb\u91cc\u910989\u4e4b1\u865f","latitude":"22.61554800","longitude":"121.00760700","limited_time":"","socket":"","standing_desk":"","mrt":"","open_time":""},{"id":"d7621396-d07e-44e0-9f05-30b0e5c67e9a","name":"\u9752\u8526\u83d3\u5b50\u5496\u5561","city":"taitung","wifi":4.5,"seat":5,"quiet":5,"tasty":4.5,"cheap":4,"music":4,"url":"https:\/\/www.facebook.com\/nicolenicklovelycafe2017\/?locale2=zh_TW","address":"\u53f0\u6771\u7e23\u53f0\u6771\u5e02\u4e2d\u6b63\u8def251\u5df719\u865f","latitude":"22.75508370","longitude":"121.15286040","limited_time":"no","socket":"maybe","standing_desk":"no","mrt":"","open_time":""},{"id":"d86983d2-6e7a-47c7-99f5-51299606a4f3","name":"193\u5496\u5561\u9928","city":"taitung","wifi":4.5,"seat":5,"quiet":3.5,"tasty":5,"cheap":3.5,"music":3,"url":"https:\/\/www.facebook.com\/193cafe\/","address":"95052\u53f0\u6771\u7e23\u53f0\u6771\u5e02\u6d1b\u967d\u8857193\u865f","latitude":"22.76084830","longitude":"121.14230050","limited_time":"no","socket":"yes","standing_desk":"no","mrt":"","open_time":"\u4e0d\u5b9a\u671f\u516c\u4f11\u65e5\uff0c\u9700\u8981\u53c3\u8003FB\u516c\u544a"},{"id":"dbaecc7e-463e-4bc3-98c9-89f22733add3","name":"Cheela\u5c0f\u5c4b","city":"taitung","wifi":5,"seat":5,"quiet":5,"tasty":5,"cheap":4,"music":5,"url":"https:\/\/www.facebook.com\/pages\/Cheela%E5%B0%8F%E5%B1%8B\/196715477024822?fref=ts","address":"\u53f0\u6771\u7e23\u53f0\u6771\u5e02\u65b0\u751f\u8def395-1\u865f","latitude":"22.75887310","longitude":"121.14052470","limited_time":"no","socket":"yes","standing_desk":"no","mrt":"","open_time":""},{"id":"e68f1b6c-a355-40b3-9c5e-3af2297104dd","name":"\u4e5d\u865f\u5496\u5561\u9928 NO.9 Gourmet Coffee","city":"taitung","wifi":3,"seat":4,"quiet":4,"tasty":3,"cheap":2,"music":4,"url":"","address":"\u53f0\u6771\u7e23\u6c60\u4e0a\u9109\u6176\u8c50\u67516\u913056\u865f","latitude":"23.12527300","longitude":"121.22295900","limited_time":"","socket":"","standing_desk":"","mrt":"","open_time":""}]}