{"data":[{"id":"0061c67c-61ea-46e9-ba5d-dda35ac22964","name":"\u71ca\u5496\u5561","city":"taoyuan","wifi":4.5,"seat":4,"quiet":4,"tasty":3.5,"cheap":3,"music":4,"url":"https:\/\/www.facebook.com\/pg\/shencafetaoyuan\/about\/?ref=page_internal","address":"\u6843\u5712\u5e02\u6843\u5712\u5340\u65b0\u57d4\u516d\u8857138\u865f","latitude":"25.01647470","longitude":"121.30168950","limited_time":"no","socket":"yes","standing_desk":"no","mrt":"","open_time":"12~22\uff0c\u552f\u6709\u9031\u4e8c\u662f12~1730\uff0c\u7121\u516c\u4f11"},{"id":"00c1a70f-1138-4cd6-9933-ebf53b92badf","name":"\u752f \u5496\u5561 ","city":"taoyuan","wifi":5,"seat":5,"quiet":5,"tasty":5,"cheap":4,"music":5,"url":"https:\/\/www.facebook.com\/jackscoffee\/","address":"\u6843\u5712\u5e02\u4e2d\u58e2\u5340\u5927\u4ec1\u4e94\u885712\u865f","latitude":"24.95627560","longitude":"121.24054410","limited_time":"no","socket":"yes","standing_desk":"no","mrt":"","open_time":"11:30~20:00\u6bcf\u6708\u55ae\u6578\u9031\u65e5\u53ca\u6bcf\u9031\u4e00\u5e97\u4f11 "},{"id":"00d2ea54-ed84-41c5-a857-4bd38504b28d","name":"BeYou.t\u00e9 Caf\u00e9","city":"taoyuan","wifi":0,"seat":5,"quiet":5,"tasty":0,"cheap":0,"music":0,"url":"https:\/\/www.facebook.com\/BeYouteCafe\/","address":"\u6843\u5712\u5e02\u4e2d\u58e2\u5340\u6587\u5316\u4e8c\u8def267\u865f","latitude":"24.97765160","longitude":"121.25051020","limited_time":"no","socket":"maybe","standing_desk":"yes","mrt":"","open_time":""},{"id":"013c1f18-626d-43e0-b627-f76ee74232f1","name":"R9 Cafe \u6843\u5712\u5e97","city":"taoyuan","wifi":4,"seat":4,"quiet":2,"tasty":2,"cheap":2,"music":4,"url":"","address":"\u6843\u5712\u5e02\u6843\u5712\u5340\u6c11\u751f\u8def55\u5df78\u865f","latitude":"24.99156610","longitude":"121.31415020","limited_time":"","socket":"","standing_desk":"","mrt":"","open_time":""},{"id":"02c18a8f-79c8-43a3-a982-e75192ec21d4","name":"\u73ed\u8fea\u514b\u5496\u5561","city":"taoyuan","wifi":5,"seat":5,"quiet":5,"tasty":5,"cheap":5,"music":5,"url":"https:\/\/www.facebook.com\/%E7%8F%AD%E8%BF%AA%E5%85%8B%E5%92%96%E5%95%A1-1568269403394952\/","address":"\u6843\u5712\u5e02\u516b\u5fb7\u5340\u5efa\u570b\u8def237\u865f","latitude":"24.93642720","longitude":"121.28817740","limited_time":"maybe","socket":"maybe","standing_desk":"no","mrt":"","open_time":""},{"id":"041690b5-78d8-4b2a-aaa0-047cf83d8007","name":"\u7a81\u594c\u5496\u5561\u55b5","city":"taoyuan","wifi":0,"seat":4,"quiet":2.5,"tasty":3,"cheap":3,"music":4.5,"url":"https:\/\/www.facebook.com\/%E7%AA%81%E5%A5%8C%E5%92%96%E5%95%A1%E5%96%B5-220841121329242\/?rf=375023756004853","address":"\u6843\u5712\u5e02\u4e2d\u58e2\u5340\u798f\u5dde\u8def20\u865f","latitude":"24.95362760","longitude":"121.23218940","limited_time":"maybe","socket":"no","standing_desk":"no","mrt":"","open_time":""},{"id":"044fc366-62c7-47aa-8d5a-ba3490d7b122","name":"\u6d41\u77f3\u5496\u5561","city":"taoyuan","wifi":5,"seat":5,"quiet":4.5,"tasty":2,"cheap":2.5,"music":4,"url":"https:\/\/www.facebook.com\/pg\/cafe.sasuga","address":"\u6843\u5712\u5e02\u4e2d\u58e2\u5340\u798f\u5dde\u4e8c\u8857412-1\u865f","latitude":"24.96768530","longitude":"121.23219800","limited_time":"","socket":"","standing_desk":"yes","mrt":"","open_time":""},{"id":"05d6e272-4b95-414c-a4b0-34e483566989","name":"\u9999\u8349\u86cb\u7cd5\u8216 Vanilla Pastry House","city":"taoyuan","wifi":5,"seat":5,"quiet":4,"tasty":5,"cheap":5,"music":4,"url":"https:\/\/www.facebook.com\/vanilla193\/","address":"\u6843\u5712\u5e02\u6843\u5712\u5340\u6c11\u65cf\u8def193\u865f","latitude":"24.99401800","longitude":"121.30778000","limited_time":"no","socket":"maybe","standing_desk":"no","mrt":"","open_time":""},{"id":"070d6564-673c-4125-ada9-90434e89dfc7","name":"George's coffee","city":"taoyuan","wifi":5,"seat":3,"quiet":4,"tasty":5,"cheap":5,"music":5,"url":"https:\/\/www.facebook.com\/ACID7-coffee-109876450746708\/","address":"\u6843\u5712\u5e02\u4e2d\u58e2\u5340\u6c11\u6b0a\u8def150\u865f","latitude":"24.95899400","longitude":"121.21769700","limited_time":"no","socket":"maybe","standing_desk":"yes","mrt":"","open_time":""},{"id":"077727a4-c546-4091-bd76-285271a6334f","name":"\u8001\u58a8\u5496\u5561","city":"taoyuan","wifi":4,"seat":4,"quiet":3.5,"tasty":5,"cheap":5,"music":4.5,"url":"https:\/\/www.facebook.com\/rockmexicocooffee","address":"\u6843\u5712\u5e02\u4e2d\u58e2\u5340\u5ef6\u5e73\u8def324\u865f","latitude":"24.96045590","longitude":"121.22561360","limited_time":"no","socket":"no","standing_desk":"yes","mrt":"","open_time":""},{"id":"080794d6-7146-4260-a13f-73b20c32b500","name":"\u53ea\u662f\u5149\u5f71 \u7368\u7acb\u5496\u5561\u5ef3","city":"taoyuan","wifi":5,"seat":4,"quiet":4,"tasty":4,"cheap":4,"music":5,"url":"https:\/\/www.facebook.com\/riverdays\/","address":"\u6843\u5712\u5e02\u6843\u5712\u5340\u65b0\u6c11\u885743\u5df710\u4e4b1\u865f","latitude":"24.99448800","longitude":"121.31237500","limited_time":"maybe","socket":"maybe","standing_desk":"no","mrt":"","open_time":""},{"id":"0b30a705-7392-4800-998d-08e30ad3d220","name":"\u6211\u5011\u3002\u4ed6\u5011","city":"taoyuan","wifi":5,"seat":3.5,"quiet":4,"tasty":4.5,"cheap":4,"music":5,"url":"https:\/\/www.facebook.com\/usthem0527\/","address":"\u4e2d\u58e2\u5340\u9577\u5b89\u8857 1\u4e4b13\u865f\uff08\u8001\u8857\u6eaa\u6cb3\u6ff1\u6b65\u9053\u4e0a\uff09","latitude":"24.95361700","longitude":"121.21804100","limited_time":"no","socket":"yes","standing_desk":"no","mrt":"","open_time":"\u6709\u6642\u6709\u8b1b\u5ea7\uff0c\u4e0d\u5c0d\u5916\u958b\u653e"},{"id":"0ba1f888-bb31-4f43-a587-97638ac1733c","name":"\u55b5\u65e5\u5b50 Caf\u00e9","city":"taoyuan","wifi":5,"seat":4,"quiet":4,"tasty":3,"cheap":4,"music":4,"url":"https:\/\/www.facebook.com\/MeowDayCafe\/","address":"\u6843\u5712\u5340\u4fdd\u5b9a\u4e09\u885793\u865f","latitude":"24.99833610","longitude":"121.29785070","limited_time":"maybe","socket":"no","standing_desk":"no","mrt":"","open_time":"\u6700\u5f8c\u6536\u5ba2\u6642\u959320:30 \u66ab\u4e0d\u63a5\u5f8512\u6b72\u4ee5\u4e0b\u5c0f\u670b\u53cb"},{"id":"0d5a1c63-4f1c-4879-927b-253118711779","name":"\u5c3c\u723e\u74e6\u7279","city":"taoyuan","wifi":0,"seat":0,"quiet":0,"tasty":0,"cheap":0,"music":0,"url":"https:\/\/www.facebook.com\/%E5%B0%BC%E7%88%BE%E7%93%A6%E7%89%B9-NEAR-WATER-caf%C3%A9-104960030910940\/?view_public_for=104960030910940","address":"\u6843\u5712\u5e02\u9f8d\u6f6d\u5340\u9f8d\u6e90\u8def\u5927\u5e73\u6bb5690\u5df7105\u865f","latitude":"24.82512600","longitude":"121.24702890","limited_time":"maybe","socket":"yes","standing_desk":"no","mrt":"","open_time":""},{"id":"10493a5d-e562-474a-a04a-11e8a44855d4","name":"\u798f\u68ee\u5496\u5561-\u5927\u6eaa\u5e97","city":"taoyuan","wifi":5,"seat":4,"quiet":3,"tasty":4,"cheap":5,"music":5,"url":"https:\/\/www.facebook.com\/fussencafe\/","address":"\u6843\u5712\u5e02\u5927\u6eaa\u5340\u767b\u9f8d\u8def18\u865f","latitude":"24.88337210","longitude":"121.28665740","limited_time":"maybe","socket":"no","standing_desk":"no","mrt":"","open_time":""},{"id":"11f45596-bbef-42e7-9a25-18ea3e76d137","name":"\u5c71\u9321\u5496\u5561","city":"taoyuan","wifi":0,"seat":0,"quiet":0,"tasty":0,"cheap":0,"music":0,"url":"","address":"326\u6843\u5712\u5e02\u694a\u6885\u5340\u842c\u5927\u8def14\u865f","latitude":"24.91260390","longitude":"121.17716090","limited_time":"","socket":"","standing_desk":"","mrt":"","open_time":""},{"id":"121eee9e-808c-4f52-9aca-4c60e8d2dee0","name":"\u9ed1\u8c46\u5561","city":"taoyuan","wifi":5,"seat":5,"quiet":4,"tasty":5,"cheap":0,"music":0,"url":"","address":"\u6843\u5712\u5e02\u540c\u5fb711\u8857156\u865f","latitude":"25.02005150","longitude":"121.29459960","limited_time":"no","socket":"maybe","standing_desk":"","mrt":"","open_time":""},{"id":"124f2130-f819-4d50-bc90-d5a512df8177","name":"\u91d1\u6728\u7280 Kinmokusei","city":"taoyuan","wifi":0,"seat":0,"quiet":0,"tasty":0,"cheap":0,"music":0,"url":"https:\/\/www.facebook.com\/kinmokusei2021","address":"\u6843\u5712\u5e02\u6843\u5712\u5340\u529b\u884c\u8def385\u5df731\u865f","latitude":"24.99792220","longitude":"121.29743870","limited_time":"","socket":"","standing_desk":"","mrt":"","open_time":""},{"id":"138c680c-9d97-49fb-9f29-ed5542f5a240","name":"Flowering \u7dbb\u653e\u5496\u5561","city":"taoyuan","wifi":5,"seat":5,"quiet":5,"tasty":5,"cheap":5,"music":5,"url":"https:\/\/www.floweringty.com\/","address":"\u6843\u5712\u5e02\u842c\u58fd\u8def\u4e8c\u6bb51427\u865f","latitude":"24.99212300","longitude":"121.32381220","limited_time":"no","socket":"yes","standing_desk":"no","mrt":"","open_time":""},{"id":"1449f84d-be7f-4825-85e7-6b9f549b1e2a","name":"Ch\u012bwit Kaffe\u5176\u5473\u5496\u5561","city":"taoyuan","wifi":0,"seat":0,"quiet":0,"tasty":0,"cheap":0,"music":0,"url":"https:\/\/www.facebook.com\/chiwitkaffe\/","address":"\u6843\u5712\u5e02\u6843\u5712\u5340\u4e2d\u83ef\u8def32\u865f2\u6a13","latitude":"24.99122090","longitude":"121.31070800","limited_time":"maybe","socket":"maybe","standing_desk":"no","mrt":"","open_time":""},{"id":"153838fd-dc64-417d-8e9b-f711ac9efafd","name":"\u677e\u9f0e\u7cbe\u54c1\u5496\u5561","city":"taoyuan","wifi":4,"seat":4,"quiet":4,"tasty":5,"cheap":4,"music":3,"url":"","address":"\u6843\u5712\u5e02\u4e2d\u58e2\u5340\u4e2d\u5c71\u8def59\u865f","latitude":"24.95504890","longitude":"121.22693290","limited_time":"no","socket":"","standing_desk":"","mrt":"","open_time":""},{"id":"154a9581-7543-48a1-93d8-ddf9bd26f31f","name":"\u6674\u5929\u5496\u5561 sunny cafe","city":"taoyuan","wifi":0,"seat":0,"quiet":0,"tasty":0,"cheap":0,"music":0,"url":"https:\/\/www.facebook.com\/320sunnycafe\/","address":"\u6843\u5712\u5e02\u4e2d\u58e2\u5340\u4e2d\u5317\u8def165\u5df761\u865f","latitude":"24.95816920","longitude":"121.23953580","limited_time":"no","socket":"maybe","standing_desk":"no","mrt":"","open_time":""},{"id":"19d7425f-8982-436a-86d4-76e0549865b4","name":"Table No.2","city":"taoyuan","wifi":4.5,"seat":3,"quiet":3.5,"tasty":3.5,"cheap":3,"music":5,"url":"","address":"\u53f0\u7063\u6843\u5712\u5e02\u4e2d\u58e2\u5340\u8208\u5e73\u8def163\u865f\u865f","latitude":"24.96595490","longitude":"121.22752200","limited_time":"maybe","socket":"maybe","standing_desk":"no","mrt":"","open_time":"11:00-20:00"},{"id":"19ff6ef1-08a5-4482-bb9e-182d9f6df12d","name":"\u6728\u6728\u79e7\u5496\u5561","city":"taoyuan","wifi":0,"seat":0,"quiet":0,"tasty":0,"cheap":0,"music":0,"url":"","address":"\u6843\u5712\u5e02\u5927\u6eaa\u5340\u6148\u5149\u8857128\u865f","latitude":"24.90390260","longitude":"121.27875340","limited_time":"","socket":"","standing_desk":"","mrt":"","open_time":""},{"id":"1b53da94-31d9-40ea-b585-d77b502d97c4","name":"TINA\u5496\u5561(\u4e2d\u6b63\u5e97)","city":"taoyuan","wifi":1.5,"seat":3.5,"quiet":3,"tasty":3.5,"cheap":3.5,"music":3.5,"url":"","address":"\u6843\u5712\u5e02\u4e2d\u6b63\u8def1029\u865f","latitude":"25.01511680","longitude":"121.29876610","limited_time":"","socket":"","standing_desk":"","mrt":"","open_time":""},{"id":"1d9c9a79-710e-4dfb-a5cd-9b7541e8ee4f","name":"ONE MO cafe","city":"taoyuan","wifi":0,"seat":0,"quiet":0,"tasty":0,"cheap":0,"music":0,"url":"","address":"\u6843\u5712\u5e02\u694a\u6885\u5340\u842c\u5927\u8def152\u5df715\u865f","latitude":"24.90922900","longitude":"121.17820410","limited_time":"","socket":"","standing_desk":"","mrt":"","open_time":""},{"id":"1e2b4f2b-54df-4eb3-a096-8667ed0b37bc","name":"\u54c8\u74e6\u90a3(\u4e2d\u58e2\u6085\u8b80\u9928)","city":"taoyuan","wifi":5,"seat":4,"quiet":4,"tasty":4,"cheap":5,"music":5,"url":"https:\/\/www.facebook.com\/harwanaread\/","address":"\u6843\u5712\u5e02\u4e2d\u58e2\u5340\u6148\u60e0\u4e09\u8857157\u5df76\u865f","latitude":"24.96457480","longitude":"121.22513410","limited_time":"no","socket":"yes","standing_desk":"no","mrt":"","open_time":""},{"id":"1f0092fd-60b2-47ed-b7a0-fee25bf43e42","name":"J caf\u00e9","city":"taoyuan","wifi":5,"seat":4,"quiet":4,"tasty":4,"cheap":5,"music":5,"url":"","address":"\u6843\u5712\u5340\u529b\u884c\u8def255\u5df72\u865f","latitude":"24.99997130","longitude":"121.29928350","limited_time":"maybe","socket":"yes","standing_desk":"no","mrt":"","open_time":""},{"id":"20e0e553-4ac5-45bf-99fd-14ca6b2a5bc5","name":"\u5bd2\u5496\u5561_65\u865f\u6587\u5275\u7a7a\u9593","city":"taoyuan","wifi":5,"seat":5,"quiet":5,"tasty":5,"cheap":5,"music":5,"url":"","address":"\u6843\u5712\u5e02\u4e2d\u58e2\u5340\u8392\u5149\u8def65\u865f","latitude":"24.95220080","longitude":"121.23740290","limited_time":"no","socket":"yes","standing_desk":"no","mrt":"","open_time":""},{"id":"20e600d8-cd23-4f31-ad3a-ee44d7d63d03","name":"Cafeholic coffee & bar","city":"taoyuan","wifi":5,"seat":4.5,"quiet":5,"tasty":5,"cheap":5,"music":5,"url":"https:\/\/www.facebook.com\/Cafeholic.coffee.bar\/","address":"\u6843\u5712\u5e02\u4e2d\u58e2\u5340\u9f8d\u660c\u8def26\u865f\u865f 1 \u6a13","latitude":"24.94131500","longitude":"121.25003150","limited_time":"no","socket":"maybe","standing_desk":"yes","mrt":"","open_time":" \u9031\u4e8c\u516c\u4f11"},{"id":"20e7616f-1282-4b27-ae1d-3bc7a03ff893","name":"Alpha Coffee & Tea","city":"taoyuan","wifi":4,"seat":5,"quiet":4,"tasty":4,"cheap":3,"music":4,"url":"https:\/\/www.facebook.com\/alphacoffeeandtea\/","address":"\u6843\u5712\u5e02\u5e73\u93ae\u5340\u5de5\u696d\u4e94\u8def8\u865f","latitude":"24.90229390","longitude":"121.19816400","limited_time":"no","socket":"maybe","standing_desk":"yes","mrt":"","open_time":""},{"id":"211b0ead-9e05-4b6e-8a84-1a134cc63ccc","name":"\u675c\u5b85\u5496\u5561","city":"taoyuan","wifi":5,"seat":5,"quiet":5,"tasty":5,"cheap":5,"music":5,"url":"https:\/\/www.facebook.com\/dou.zhai.homemade.roasted.cafe\/","address":"\u53f0\u4e2d\u5e02\u5357\u5340\u4e94\u6b0a\u5357\u8def468\u865f","latitude":"0.00000000","longitude":"0.00000000","limited_time":"no","socket":"yes","standing_desk":"","mrt":"","open_time":""},{"id":"226dfc66-cb0e-4b7f-9499-54d521404f4e","name":"JD cafe","city":"taoyuan","wifi":4,"seat":4,"quiet":3,"tasty":3,"cheap":3,"music":3,"url":"https:\/\/www.facebook.com\/JDcafeJDcafe\/","address":"\u6843\u5712\u5e02\u9f9c\u5c71\u5340\u8208\u83ef\u4e09\u88576\u865f","latitude":"25.05433400","longitude":"121.36634640","limited_time":"no","socket":"no","standing_desk":"","mrt":"","open_time":"11:00-21:00"},{"id":"24626b18-93b3-4373-8518-f7256d03ae18","name":"momo cafe","city":"taoyuan","wifi":5,"seat":5,"quiet":2,"tasty":4,"cheap":4,"music":5,"url":"","address":"\u6843\u5712\u5e02\u5927\u5712\u5340\u5927\u52c7\u8def33\u865f","latitude":"25.01985070","longitude":"121.21839500","limited_time":"maybe","socket":"maybe","standing_desk":"yes","mrt":"","open_time":"11:00-19:00"},{"id":"25558306-9283-4702-a398-84c54dfea3d7","name":"\u6c90\u745f\u5496\u5561","city":"taoyuan","wifi":5,"seat":5,"quiet":5,"tasty":5,"cheap":5,"music":5,"url":"https:\/\/www.facebook.com\/CAPO.CAFE.CAPO\/?ref=aymt_homepage_panel","address":"\u6843\u5712\u5e02\u8606\u7af9\u5340\u5357\u5e73\u885731\u865f","latitude":"25.04547780","longitude":"121.29115110","limited_time":"no","socket":"maybe","standing_desk":"no","mrt":"","open_time":"\u5468\u4e00\u516c\u4f11 10:30~18:30"},{"id":"25ed1210-457e-48cd-99a4-1b91d71602f4","name":"\u597d\u5496 Howcup CURRY CAFE'","city":"taoyuan","wifi":5,"seat":4,"quiet":3,"tasty":4,"cheap":4,"music":4,"url":"https:\/\/m.facebook.com\/howcup\/","address":"\u6843\u5712\u5e02\u4e2d\u58e2\u5340\u4e2d\u5317\u8def19\u865f","latitude":"24.95605300","longitude":"121.23602000","limited_time":"maybe","socket":"no","standing_desk":"no","mrt":"","open_time":"11:00-21:00"},{"id":"26fab645-9307-443d-8cf3-a432be39563f","name":"\u91ce freeman cafe","city":"taoyuan","wifi":5,"seat":5,"quiet":4,"tasty":5,"cheap":5,"music":5,"url":"https:\/\/www.facebook.com\/ifreemanGo\/","address":"\u6843\u5712\u5e02\u6843\u5712\u5340\u4e2d\u57d4\u4e8c\u8857198\u865f","latitude":"25.01384360","longitude":"121.29506210","limited_time":"","socket":"","standing_desk":"","mrt":"","open_time":""},{"id":"283989ca-fdc9-4721-8818-11b41a078f8c","name":"\u8def\u6613\u838e\u5496\u5561 louisa coffee -\u6843\u5712\u4e2d\u8def\u5e97-","city":"taoyuan","wifi":4,"seat":5,"quiet":3,"tasty":5,"cheap":4,"music":4,"url":"https:\/\/www.facebook.com\/%E8%B7%AF%E6%98%93%E8%8E%8E%E5%92%96%E5%95%A1-louisa-coffee-%E6%A1%83%E5%9C%92%E4%B8%AD%E8%B7%AF%E5%BA%97--106291971088026\/","address":"\u6843\u5712\u5e02\u6843\u5712\u5340\u6b63\u5149\u8def181\u865f","latitude":"24.99608570","longitude":"121.29505880","limited_time":"maybe","socket":"maybe","standing_desk":"no","mrt":"","open_time":""},{"id":"2c3d2a9a-99c0-4dbf-95fe-d6e72a9b5046","name":"\u5c0f\u6728\u99ac\u5496\u5561","city":"taoyuan","wifi":5,"seat":5,"quiet":5,"tasty":5,"cheap":4,"music":5,"url":"https:\/\/www.facebook.com\/minimuma.com.tw\/?ref=br_rs","address":"\u6843\u5712\u5e02\u6843\u5712\u5340\u6c11\u5bcc\u5341\u4e03\u885712\u865f","latitude":"25.01756150","longitude":"121.31048670","limited_time":"no","socket":"no","standing_desk":"no","mrt":"","open_time":""},{"id":"2c809e9f-627f-459f-98b6-2842d1a6d138","name":"\u5370\u8c61","city":"taoyuan","wifi":0,"seat":4,"quiet":5,"tasty":5,"cheap":4,"music":5,"url":"","address":"\u6843\u5712\u5e02\u9f8d\u6f6d\u5340\u83ef\u5357\u8def\u4e00\u6bb5127\u865f","latitude":"24.86907900","longitude":"121.21769860","limited_time":"no","socket":"no","standing_desk":"yes","mrt":"","open_time":""},{"id":"2ca2a789-fec8-4f2e-b1a0-f177fcd8caf3","name":"\u5561\u8494 Verse Cafe by Minorcode","city":"taoyuan","wifi":5,"seat":4,"quiet":3,"tasty":4,"cheap":3,"music":5,"url":"","address":"\u6843\u5712\u5e02\u6843\u5712\u5340\u540c\u5fb7\u5341\u4e00\u885745\u865f","latitude":"25.02087100","longitude":"121.29713380","limited_time":"maybe","socket":"maybe","standing_desk":"no","mrt":"","open_time":""},{"id":"2e11306e-3188-49a4-a62b-b039b2bf4378","name":"\u65b9\u4ead\u5496\u5561","city":"taoyuan","wifi":4,"seat":4,"quiet":4,"tasty":4,"cheap":4,"music":4,"url":"https:\/\/www.facebook.com\/%E6%96%B9%E4%BA%AD%E5%92%96%E5%95%A1-107003372713291\/","address":"\u6843\u5712\u5e02\u6843\u5712\u5340\u6c11\u751f\u8def103\u865f","latitude":"24.99230340","longitude":"121.31373230","limited_time":"","socket":"","standing_desk":"no","mrt":"","open_time":""},{"id":"2f677450-50ba-4e7a-beb9-6c0b34185c5d","name":"\u4e8c\u54c8\u5496\u5561","city":"taoyuan","wifi":5,"seat":5,"quiet":4,"tasty":5,"cheap":5,"music":3,"url":"https:\/\/www.facebook.com\/tohacoffee\/","address":"\u6843\u5712\u5e02\u6843\u5712\u5340\u5927\u540c\u8def119\u865f","latitude":"24.98829600","longitude":"121.30899200","limited_time":"no","socket":"yes","standing_desk":"yes","mrt":"","open_time":""},{"id":"30a27ea2-f819-477d-8625-6e583f6943b6","name":"\u68ee\u6797\u5496\u5561\u4e8c\u865f","city":"taoyuan","wifi":0,"seat":0,"quiet":0,"tasty":0,"cheap":0,"music":0,"url":"","address":"\u865f, No. 661\u842c\u58fd\u8def\u4e8c\u6bb5\u9f9c\u5c71\u5340\u6843\u5712\u5e02333","latitude":"24.99884150","longitude":"121.34565920","limited_time":"yes","socket":"no","standing_desk":"no","mrt":"","open_time":""},{"id":"30b33c2e-e095-4a26-9b67-da6d871b5a83","name":"\u7d13\u5496","city":"taoyuan","wifi":5,"seat":5,"quiet":5,"tasty":5,"cheap":5,"music":5,"url":"","address":"\u74b0\u4e2d\u6771\u8def357\u865f","latitude":"24.96090150","longitude":"121.25462100","limited_time":"","socket":"","standing_desk":"","mrt":"","open_time":""},{"id":"30cd155d-5ac7-4e14-96ce-f16c4b92e056","name":"Mr.Glasses\u773c\u93e1\u5148\u751f\u5496\u5561\u9928","city":"taoyuan","wifi":5,"seat":4,"quiet":4,"tasty":5,"cheap":4,"music":4,"url":"https:\/\/www.facebook.com\/pg\/mrglassescf\/about\/?ref=page_internal","address":"\u6843\u5712\u5e02\u4e2d\u58e2\u5340\u838a\u656c\u8def811\u5df712\u865f","latitude":"24.96387910","longitude":"121.25509630","limited_time":"yes","socket":"maybe","standing_desk":"yes","mrt":"","open_time":""},{"id":"30edc976-6706-4662-9d2b-a3c1c302c042","name":"\u6728\u684c\u5b50\u5496\u5561","city":"taoyuan","wifi":5,"seat":4.5,"quiet":4,"tasty":4.5,"cheap":3.5,"music":4,"url":"https:\/\/www.facebook.com\/woodtablecoffee","address":"\u6843\u5712\u5e02\u6843\u5712\u5340\u4e2d\u5c71\u8def847\u5df727\u865f","latitude":"24.98848200","longitude":"121.28758500","limited_time":"no","socket":"maybe","standing_desk":"no","mrt":"","open_time":"\u9031\u4e00-\u9031\u4e9411:00~19:30\/\u9031\u516d-\u9031\u65e510:00~19:30"},{"id":"33ed417a-786a-4490-af4e-d049a2dfeadf","name":"The Good One Coffee Roaster","city":"taoyuan","wifi":5,"seat":4.5,"quiet":4.5,"tasty":5,"cheap":5,"music":5,"url":"https:\/\/www.facebook.com\/pg\/TheGoodOne.coffee.roaster\/","address":"\u6843\u5712\u5e02\u6843\u5712\u5340\u6c11\u6709\u4e94\u8857122\u865f","latitude":"25.00850100","longitude":"121.31784890","limited_time":"maybe","socket":"yes","standing_desk":"no","mrt":"","open_time":"\u6bcf\u6708\u5176\u4e2d1-2\u500b\u9031\u65e5\u516c\u4f11\uff08\u7c89\u5c08\u516c\u544a\uff09"},{"id":"35aaff33-3986-4453-ad17-b145ffd814b4","name":"Drip Note Coffee","city":"taoyuan","wifi":0,"seat":0,"quiet":0,"tasty":0,"cheap":0,"music":0,"url":"https:\/\/www.facebook.com\/dripnotecoffee\/","address":"\u6843\u5712\u5e02\u694a\u6885\u5340\u65b0\u8fb2\u8857366\u865f","latitude":"24.91149410","longitude":"121.15670220","limited_time":"","socket":"","standing_desk":"","mrt":"","open_time":"\u4e0d\u5b9a\u6642\u516c\u4f11\uff0c\u8a73\u60c5\u8acbFB\u5b98\u7db2\u3002"},{"id":"3795c329-ddc3-42eb-9de3-9974f530c8fa","name":"\u611b\u745e\u5152","city":"taoyuan","wifi":5,"seat":5,"quiet":5,"tasty":5,"cheap":5,"music":4,"url":"https:\/\/www.facebook.com\/ariel27cafe\/","address":"\u6843\u5712\u5e02\u6843\u5712\u5340\u4fe1\u4e00\u885727\u865f","latitude":"24.99495990","longitude":"121.30149300","limited_time":"no","socket":"maybe","standing_desk":"yes","mrt":"","open_time":"09:00~19:00"},{"id":"3a6421dd-9efc-4925-8855-cae4b34c5a7f","name":"\u5927\u89c0 x \u5c0f\u5f04","city":"taoyuan","wifi":5,"seat":4,"quiet":4,"tasty":5,"cheap":5,"music":5,"url":"https:\/\/www.facebook.com\/DaGuanAlley\/","address":"\u6843\u5712\u5e02\u4e2d\u58e2\u5340\u74b0\u4e2d\u6771\u8def708\u5df7136\u865f","latitude":"24.95496050","longitude":"121.24400300","limited_time":"maybe","socket":"maybe","standing_desk":"no","mrt":"","open_time":""},{"id":"3a761dc3-64c1-4c37-aa97-da8b0ce8584a","name":"\u97a0\u5206\u865f","city":"taoyuan","wifi":0,"seat":0,"quiet":0,"tasty":0,"cheap":0,"music":0,"url":"https:\/\/www.facebook.com\/jusemicolon","address":"\u6843\u5712\u5e02\u6843\u5712\u5340\u6148\u7965\u885732\u865f","latitude":"25.00786080","longitude":"121.30093220","limited_time":"no","socket":"maybe","standing_desk":"yes","mrt":"","open_time":""},{"id":"3a7c8c08-de3f-4db6-acbd-f03614f76db4","name":"The Path Coffeehouse","city":"taoyuan","wifi":5,"seat":5,"quiet":5,"tasty":5,"cheap":4,"music":5,"url":"https:\/\/www.facebook.com\/Coffeefield","address":"\u6843\u5712\u5e02\u4e2d\u58e2\u5340\u4e2d\u592e\u897f\u8def\u4e8c\u6bb5150\u5df74\u865f","latitude":"24.95925700","longitude":"121.21378400","limited_time":"no","socket":"yes","standing_desk":"no","mrt":"","open_time":"11:00 - 21:00"},{"id":"3af2a7fd-d336-470b-a4f5-85715d6af0ae","name":"BY2 COFFEE \u767d\u00b2\u5496\u5561","city":"taoyuan","wifi":0,"seat":0,"quiet":0,"tasty":0,"cheap":0,"music":0,"url":"https:\/\/www.facebook.com\/BY2.COFFEE.SHOP\/","address":"\u6843\u5712\u5e02\u4e2d\u58e2\u5340\u767e\u97dc\u4e8c\u885748\u865f","latitude":"24.94389420","longitude":"121.22767190","limited_time":"no","socket":"","standing_desk":"","mrt":"","open_time":""},{"id":"3bc4d689-1c27-495e-b6ac-fcd7d2af3fdd","name":"KAHVILA CAFE","city":"taoyuan","wifi":4,"seat":5,"quiet":4,"tasty":4,"cheap":4,"music":4,"url":"","address":"\u6843\u5712\u5340 \u5357\u5e73\u8def387\u865f","latitude":"25.01752120","longitude":"121.29718940","limited_time":"no","socket":"no","standing_desk":"no","mrt":"","open_time":""},{"id":"3db608dd-a8b5-4f1d-8120-e9b1d3fd7aab","name":"Dute coffee \uff06 bar","city":"taoyuan","wifi":0,"seat":4,"quiet":3,"tasty":5,"cheap":4,"music":5,"url":"https:\/\/www.facebook.com\/DUTEcoffeebar\/?modal=admin_todo_tour","address":"\u6843\u5712\u5e02\u4e2d\u58e2\u5340\u4e2d\u5149\u8def61\u865f","latitude":"24.95699100","longitude":"121.22705100","limited_time":"no","socket":"maybe","standing_desk":"yes","mrt":"","open_time":""},{"id":"3dc35363-7c1b-4015-9539-4e0fd5eb538c","name":"\u597d\u91ce\u5496\u5561","city":"taoyuan","wifi":0,"seat":0,"quiet":0,"tasty":0,"cheap":0,"music":0,"url":"","address":"\u6843\u5712\u5e02\u4e2d\u58e2\u5340\u7f8e\u6a02\u8def76\u865f","latitude":"24.95251340","longitude":"121.22289230","limited_time":"","socket":"","standing_desk":"","mrt":"","open_time":""},{"id":"3f2d95d4-f98a-45b4-aa17-0ccb2ab5ab20","name":"\u4e11\u5496\u5561 BU-SU cafe'","city":"taoyuan","wifi":5,"seat":4,"quiet":5,"tasty":5,"cheap":4,"music":5,"url":"https:\/\/www.facebook.com\/BUSU.cafe\/","address":"\u6843\u5712\u5e02\u5927\u6eaa\u5340\u4e2d\u5c71\u8def53\u865f","latitude":"24.88196850","longitude":"121.28569640","limited_time":"no","socket":"no","standing_desk":"no","mrt":"","open_time":""},{"id":"4166cda1-c8de-4dee-b235-68feaf9c0ac1","name":"\u89e3\u653e\u5496\u5561\u9928","city":"taoyuan","wifi":0,"seat":5,"quiet":5,"tasty":5,"cheap":4,"music":4,"url":"","address":"\u53f0\u7063\u6843\u5712\u5e02\u5927\u6eaa\u5340\u5fa9\u8208\u8def26\u865f","latitude":"24.88034540","longitude":"121.28935500","limited_time":"maybe","socket":"maybe","standing_desk":"no","mrt":"","open_time":""},{"id":"41f4a0b8-31fd-422f-9b9d-34485c59887d","name":"\u8d70\u8d70\u5496\u5561","city":"taoyuan","wifi":5,"seat":4,"quiet":4,"tasty":5,"cheap":5,"music":5,"url":"https:\/\/www.facebook.com\/goaroundwithus\/","address":"\u6843\u5712\u5e02\u6843\u5712\u5340\u5bf6\u5c71\u8857358\u865f","latitude":"25.01110200","longitude":"121.31209600","limited_time":"maybe","socket":"yes","standing_desk":"yes","mrt":"","open_time":"10~21\uff0c\u516d\u65e5\u70ba0830~2100"},{"id":"427c7916-745f-478b-9d06-7af742aa706d","name":"\u827e\u63d0\u5496\u5561","city":"taoyuan","wifi":5,"seat":5,"quiet":5,"tasty":5,"cheap":5,"music":4,"url":"","address":"\u6843\u5712\u5e02\u6843\u5712\u5340\u6c11\u751f\u8def55\u5df720\u865f","latitude":"24.99152440","longitude":"121.31374050","limited_time":"","socket":"","standing_desk":"","mrt":"","open_time":""},{"id":"4334e4d0-84b4-4ddb-a14f-d8b3e835f047","name":"37cafe","city":"taoyuan","wifi":5,"seat":5,"quiet":5,"tasty":5,"cheap":5,"music":5,"url":"https:\/\/www.facebook.com\/37cafe37cafe","address":"\u6843\u5712\u5e02\u9f9c\u5c71\u5340\u6587\u6771\u4e94\u885737\u5df737\u865f","latitude":"25.05067700","longitude":"121.36157500","limited_time":"no","socket":"maybe","standing_desk":"no","mrt":"","open_time":""},{"id":"440201a9-34f5-498a-a5a2-6459b1449a97","name":"\u627e\u500b\u5730\u65b9cafe","city":"taoyuan","wifi":5,"seat":4,"quiet":5,"tasty":4,"cheap":4,"music":4,"url":"https:\/\/www.facebook.com\/benson1011\/","address":"\u6843\u5712\u5e02\u4e2d\u58e2\u5340\u5927\u4ec1\u4e8c\u885715\u865f2\u6a13\u4e4b13","latitude":"24.95477040","longitude":"121.24250940","limited_time":"","socket":"yes","standing_desk":"yes","mrt":"","open_time":""},{"id":"47286f33-4259-4a61-9d31-a0449e1a09af","name":"\u5361\u8afe\u5496\u5561\u751f\u6d3b\u9928","city":"taoyuan","wifi":0,"seat":0,"quiet":0,"tasty":0,"cheap":0,"music":0,"url":"","address":"330\u6843\u5712\u5e02\u6843\u5712\u5340\u5927\u8208\u8def200\u865f","latitude":"25.01598320","longitude":"121.31248470","limited_time":"","socket":"","standing_desk":"","mrt":"","open_time":""},{"id":"4781498a-58ec-481a-8b24-5720c3a48164","name":"\u80d6\u8336\u58fa","city":"taoyuan","wifi":5,"seat":5,"quiet":4,"tasty":5,"cheap":4,"music":4,"url":"https:\/\/www.facebook.com\/THEFATKETTLECOFFEE\/","address":"\u6843\u5712\u5e02\u8606\u7af9\u5340\u4e2d\u5c71\u8def22\u865f1\u6a13","latitude":"25.05168760","longitude":"121.30119040","limited_time":"no","socket":"maybe","standing_desk":"yes","mrt":"","open_time":""},{"id":"47bb8e68-c645-4b64-ae0e-290d001bf950","name":"\u5496\u5561\u6c81\u871c","city":"taoyuan","wifi":0,"seat":5,"quiet":5,"tasty":5,"cheap":5,"music":4,"url":"https:\/\/www.facebook.com\/QINMICOFFEE\/","address":"\u6843\u5712\u5e02\u516b\u5fb7\u5340\u5ee3\u798f\u8def266\u865f","latitude":"24.95971590","longitude":"121.29285900","limited_time":"no","socket":"maybe","standing_desk":"yes","mrt":"","open_time":""},{"id":"498727ca-be91-44f9-8729-d104b6fb6ebf","name":"\u5348\u9005\u5496\u5561","city":"taoyuan","wifi":5,"seat":5,"quiet":5,"tasty":5,"cheap":5,"music":5,"url":"https:\/\/www.facebook.com\/wuho2121398\/","address":"\u6843\u5712\u5e02\u8606\u7af9\u5340\u5357\u5d01\u8def352\u865f2\u6a13","latitude":"25.05076900","longitude":"121.29124840","limited_time":"no","socket":"yes","standing_desk":"no","mrt":"","open_time":""},{"id":"4a825f39-2759-44b7-9ea1-4a5051c62a23","name":"Z cafe \u81ea\u5bb6\u7119\u714e\u5496\u5561","city":"taoyuan","wifi":5,"seat":3,"quiet":3,"tasty":5,"cheap":5,"music":4,"url":"https:\/\/m.facebook.com\/Ziv.cafe\/?ref=bookmarks","address":"\u6843\u5712\u5e02\u4e2d\u58e2\u5340\u65b0\u751f\u8def\u4e8c\u6bb536\u865f","latitude":"24.97697660","longitude":"121.22281440","limited_time":"maybe","socket":"maybe","standing_desk":"no","mrt":"","open_time":"\u9031\u4e8c\u516c\u4f11"},{"id":"4af81f59-81d6-4eac-8ba8-22a30870fc76","name":"\u5bee\u570b\u5496\u5561","city":"taoyuan","wifi":3,"seat":5,"quiet":5,"tasty":4,"cheap":5,"music":3,"url":"","address":"\u6843\u5712\u5e02\u6843\u5712\u5340\u5ec8\u9580\u885719\u865f","latitude":"24.99454800","longitude":"121.29956500","limited_time":"no","socket":"no","standing_desk":"yes","mrt":"","open_time":"\u9031\u4e00\uff5e\u9031\u516d08:00\uff5e18:00"},{"id":"50cdb3e7-8f2b-4285-9ff0-9ccac77c58c3","name":"Poffee Canteen \u6ce2\u83f2\u5496\u5561\u98df\u5802","city":"taoyuan","wifi":5,"seat":5,"quiet":5,"tasty":5,"cheap":5,"music":5,"url":"https:\/\/www.facebook.com\/poffeecanteen\/","address":"\u4e2d\u58e2\u5340\u5143\u5316\u8def125\u5df732\u865f","latitude":"24.95937200","longitude":"121.22882900","limited_time":"no","socket":"yes","standing_desk":"yes","mrt":"","open_time":"11:00~20:00"},{"id":"5125fe57-2ad1-4b42-af15-f9bde1f08fc6","name":"Want Cafe \u73a9\u5496\u5496\u5561\u9928","city":"taoyuan","wifi":5,"seat":5,"quiet":4,"tasty":4,"cheap":3,"music":4,"url":"https:\/\/www.facebook.com\/WantCafe\/","address":"\u6843\u5712\u5e02\u4e2d\u58e2\u5340\u74b0\u5317\u8def167\u865f","latitude":"24.96667800","longitude":"121.22142500","limited_time":"no","socket":"yes","standing_desk":"no","mrt":"","open_time":"\u4e3b\u8981\u662f\u516d\u65e5\u71df\u696d\uff0c\u5176\u4ed6\u4ee5\u6559\u5b78\u70ba\u4e3b"},{"id":"527bd116-909a-4109-bf5b-a867fc7194ee","name":"\u745e\u6c81\u5496\u5561","city":"taoyuan","wifi":5,"seat":4,"quiet":4,"tasty":5,"cheap":5,"music":4,"url":"https:\/\/www.facebook.com\/RichingCoffee\/","address":"\u6843\u5712\u5e02\u4e2d\u58e2\u5340\u5143\u5316\u8def141\u865f","latitude":"24.95945300","longitude":"121.22814390","limited_time":"no","socket":"yes","standing_desk":"no","mrt":"","open_time":""},{"id":"55b1d18c-d18b-49b1-8349-237aba85de5b","name":"\u8c46\u8216\u5496\u5561","city":"taoyuan","wifi":4,"seat":5,"quiet":4,"tasty":3,"cheap":3,"music":2,"url":"","address":"\u6843\u5712\u5340\u5927\u8208\u897f\u8def\u4e8c\u6bb5322\u865f","latitude":"25.00869990","longitude":"121.29400000","limited_time":"no","socket":"maybe","standing_desk":"no","mrt":"","open_time":"10\uff1a30-20\uff1a30"},{"id":"55d3ec56-26b1-4837-acdc-8573c6127db2","name":" Daisy Cafe","city":"taoyuan","wifi":5,"seat":4.5,"quiet":3.5,"tasty":3.5,"cheap":4,"music":3.5,"url":"https:\/\/www.facebook.com\/Daisy.Cafe.Dessert\/","address":"\u6843\u5712\u5e02\u516b\u5fb7\u5340\u5fe0\u52c7\u4e00\u885737\u865f","latitude":"24.96542680","longitude":"121.30492130","limited_time":"","socket":"","standing_desk":"","mrt":"","open_time":""},{"id":"56704293-be8d-464c-b78c-581cebf7cc03","name":"Re-Title Cafe","city":"taoyuan","wifi":0,"seat":0,"quiet":0,"tasty":0,"cheap":0,"music":0,"url":"https:\/\/www.facebook.com\/ReTitle","address":"\u6843\u5712\u5e02\u4e2d\u58e2\u5340\u611b\u570b\u8def60\u5df739\u865f","latitude":"24.96174210","longitude":"121.22146100","limited_time":"","socket":"","standing_desk":"","mrt":"","open_time":""},{"id":"56efaaf9-def4-40d6-be02-0660ed8a3f8c","name":"\u5927\u6eaa-\u8349\u5e97\u5c3e\u4e8b\u52d9\u6240","city":"taoyuan","wifi":5,"seat":5,"quiet":5,"tasty":5,"cheap":5,"music":5,"url":"https:\/\/www.facebook.com\/bscafe.ltd\/","address":"\u6843\u5712\u5e02\u5927\u6eaa\u5340\u8349\u5e97\u5c3e\u4e00\u5df71\u865f","latitude":"24.88576050","longitude":"121.28675770","limited_time":"no","socket":"yes","standing_desk":"no","mrt":"","open_time":""},{"id":"57293a49-341c-4176-8523-a3b75f223f9e","name":"Webberhood Coffee","city":"taoyuan","wifi":5,"seat":5,"quiet":5,"tasty":5,"cheap":5,"music":5,"url":"https:\/\/www.facebook.com\/webberhood\/","address":"\u6843\u5712\u5e02\u6843\u5712\u5340\u570b\u5f37\u4e00\u8857172\u865f1\u6a13","latitude":"24.99252530","longitude":"121.28374390","limited_time":"no","socket":"yes","standing_desk":"yes","mrt":"","open_time":""},{"id":"576a7e2b-ba69-4d49-b562-27dcfa15f80f","name":"\u7bc9\u5712\u5496\u5561","city":"taoyuan","wifi":5,"seat":4,"quiet":3,"tasty":5,"cheap":5,"music":4,"url":"https:\/\/www.facebook.com\/%E7%AF%89%E7%B7%A3%E5%92%96%E5%95%A1-735650136491024\/","address":"\u6843\u5712\u5e02\u694a\u6885\u5340\u884c\u5584\u8def120\u865f","latitude":"24.90401220","longitude":"121.15358500","limited_time":"no","socket":"maybe","standing_desk":"yes","mrt":"","open_time":""},{"id":"577e6556-a38c-416a-9317-926cdb41b29b","name":"\u5e74\u4ee3\u4eba\u6587\u5496\u5561\u9928","city":"taoyuan","wifi":3.5,"seat":3.5,"quiet":2,"tasty":2.5,"cheap":3,"music":2.5,"url":"","address":"\u6843\u5712\u5e02\u6843\u5712\u5340\u6c11\u65cf\u8def271\u865f","latitude":"24.99586020","longitude":"121.30682970","limited_time":"","socket":"","standing_desk":"","mrt":"","open_time":""},{"id":"57d9fb4f-6c61-4985-ac23-db9efc4ec115","name":"\u91ce\u4eba\u737b\u66dd\u5496\u5561\u9928\u9f8d\u6f6d\u5e97","city":"taoyuan","wifi":5,"seat":4.5,"quiet":4.5,"tasty":5,"cheap":3.5,"music":5,"url":"https:\/\/www.facebook.com\/freemanTime.tw\/","address":"\u6843\u5712\u5e02\u9f8d\u6f6d\u5340\u65b0\u9f8d\u8def114\u865f","latitude":"24.86011320","longitude":"121.21577160","limited_time":"no","socket":"maybe","standing_desk":"no","mrt":"","open_time":"11:00-20:00"},{"id":"58573642-21d8-4e95-89bd-41592c2ddcb7","name":"\u98a8\u96e8\u73c8\u7432","city":"taoyuan","wifi":5,"seat":4,"quiet":4,"tasty":5,"cheap":4,"music":5,"url":"https:\/\/www.facebook.com\/\u98a8\u96e8\u73c8\u7432-1740317382919530\/","address":"\u6843\u5712\u5e02\u6843\u5712\u5340\u6c11\u6b0a\u8def25\u5df712\u865f","latitude":"24.99064690","longitude":"121.31100700","limited_time":"maybe","socket":"","standing_desk":"","mrt":"","open_time":"\u65e5\uff5e\u4e0013:00 - 20:00"},{"id":"5ac41806-de55-4e0c-9bc0-536b20cbaf14","name":"\u5348\u5f8c\u6642\u5149Coffee\u70d8\u7119","city":"taoyuan","wifi":0,"seat":0,"quiet":0,"tasty":0,"cheap":0,"music":0,"url":"https:\/\/www.facebook.com\/AfternoonTimeCoffeeRoast\/","address":"\u6843\u5712\u5e02\u8606\u7af9\u5340\u5357\u5d01\u8def178\u865f2\u6a13","latitude":"25.04779820","longitude":"121.29396930","limited_time":"no","socket":"yes","standing_desk":"yes","mrt":"","open_time":""},{"id":"5ca0ebcd-2ee5-4837-81f8-cdf82b9e481b","name":"\u97f3\u95b1\u5496\u5561","city":"taoyuan","wifi":5,"seat":5,"quiet":4,"tasty":5,"cheap":4,"music":5,"url":"https:\/\/www.facebook.com\/WantmusicCoffee","address":"\u6843\u5712\u5e02\u4e2d\u58e2\u5340\u4e2d\u592e\u6771\u8def88\u865f","latitude":"24.95615680","longitude":"121.22625250","limited_time":"no","socket":"maybe","standing_desk":"no","mrt":"","open_time":""},{"id":"5d68779c-3172-47bd-a269-43e33db0ac4d","name":"\u516b\u865f\u5496\u5561\u9928","city":"taoyuan","wifi":5,"seat":4,"quiet":4,"tasty":5,"cheap":5,"music":5,"url":"https:\/\/www.facebook.com\/No8coffee\/","address":"\u6843\u5712\u5e02\u9f9c\u5c71\u5340\u5927\u8208\u5546\u58348\u865f","latitude":"24.99497340","longitude":"121.33571970","limited_time":"no","socket":"maybe","standing_desk":"no","mrt":"","open_time":"\u6709\u6642\u665a\u4e0a\u7121\u4eba\uff0c\u6703\u63d0\u65e9\u4f11\u606f"},{"id":"5d886c50-6777-45c1-97a4-fdbd04e46812","name":"\u62fe\u5149\u5496\u5561","city":"taoyuan","wifi":5,"seat":5,"quiet":5,"tasty":5,"cheap":5,"music":5,"url":"https:\/\/www.facebook.com\/timelapse2015\/","address":"\u4e2d\u58e2\u5340\u4e2d\u5317\u8def107\u865f","latitude":"24.95693990","longitude":"121.23823600","limited_time":"maybe","socket":"no","standing_desk":"yes","mrt":"","open_time":""},{"id":"5dc84e91-489c-4f7b-8dd5-3626efb0043a","name":" \u4e09\u706b\u6728\u5496\u5561\u4f01\u696d\u793e (\u71ca\u5496\u55613\u5e97)","city":"taoyuan","wifi":5,"seat":5,"quiet":4,"tasty":5,"cheap":4,"music":4,"url":"https:\/\/www.facebook.com\/shencafe87\/","address":"\u6843\u5712\u5e02\u6843\u5712\u5340\u5e78\u798f\u8def87\u865f","latitude":"25.02830470","longitude":"121.30178060","limited_time":"no","socket":"maybe","standing_desk":"yes","mrt":"","open_time":""},{"id":"60f0d9f1-c29a-4250-a28a-f1007514e5b7","name":"\u7518\u7530\u679c\u92ea","city":"taoyuan","wifi":4,"seat":4,"quiet":3.5,"tasty":4.5,"cheap":5,"music":4,"url":"https:\/\/www.facebook.com\/\u7518\u7530\u679c\u8216-883231371768539\/","address":"\u6843\u5712\u5e02\u4e2d\u58e2\u5340\u5143\u5316\u8def213\u865f","latitude":"24.96090970","longitude":"121.22727080","limited_time":"","socket":"maybe","standing_desk":"yes","mrt":"","open_time":""},{"id":"60f5af6e-84b2-43f4-9c1c-ede37cb80a54","name":"\u967d\u53f0terrase \u5496\u5561","city":"taoyuan","wifi":4.5,"seat":4.5,"quiet":4,"tasty":3,"cheap":2,"music":3.5,"url":"https:\/\/www.facebook.com\/terrasecoffee\/?_rdr=p&ref=bookmarks","address":"\u6843\u5712\u5e02\u4e2d\u58e2\u5340\u6148\u60e0\u4e09\u885734\u865f","latitude":"24.96109420","longitude":"121.22445110","limited_time":"","socket":"","standing_desk":"","mrt":"","open_time":""},{"id":"627f9610-d03f-44ea-9061-c4f15c3cf18b","name":"\u5955\u9f0e\u5496\u5561","city":"taoyuan","wifi":0,"seat":0,"quiet":0,"tasty":0,"cheap":0,"music":0,"url":"https:\/\/www.facebook.com\/%E5%A5%95%E9%BC%8E%E5%92%96%E5%95%A1%E8%B1%86-125685887482351\/?fref=ts","address":"\u6843\u5712\u7e23\u516b\u5fb7\u5340\u5fe0\u52c7\u8857317\u865f","latitude":"24.96505210","longitude":"121.30348220","limited_time":"","socket":"","standing_desk":"","mrt":"","open_time":""},{"id":"63f53526-cce9-4e39-a585-f2285fff26b0","name":" Caf\u00e9 4 FUN \u5496\u5561\u8da3","city":"taoyuan","wifi":0,"seat":0,"quiet":0,"tasty":0,"cheap":0,"music":0,"url":"https:\/\/www.facebook.com\/cafe4fun\/","address":"\u6843\u5712\u5e02\u6843\u5712\u5340\u4fe1\u5149\u8def52\u865f","latitude":"25.00605360","longitude":"121.30686850","limited_time":"","socket":"","standing_desk":"","mrt":"","open_time":""},{"id":"6767da05-65d2-400d-8cb6-23223ee0c99e","name":"Bowen Coffee \u4f2f\u5143\u7cbe\u54c1\u5496\u5561\u70d8\u7119","city":"taoyuan","wifi":5,"seat":5,"quiet":5,"tasty":5,"cheap":5,"music":5,"url":"https:\/\/www.facebook.com\/pg\/BowenCoffeeTw\/about\/?ref=page_internal","address":"\u6843\u5712\u5e02\u516b\u5fb7\u5340\u5ee3\u798f\u8def783\u865f","latitude":"24.96063300","longitude":"121.27967300","limited_time":"no","socket":"maybe","standing_desk":"yes","mrt":"","open_time":"9:00~19:00, \u6bcf\u9031\u4e00&\u7b2c\u4e8c.\u56db\u9031\u65e5\u516c\u4f11"},{"id":"6990db2f-f972-4f23-9d21-7f4ecaace0b6","name":"\u65e5\u9752\u65b9\u597dGoodafter","city":"taoyuan","wifi":0,"seat":0,"quiet":0,"tasty":0,"cheap":0,"music":0,"url":"https:\/\/www.facebook.com\/goodafter.tw\/","address":"\u6843\u5712\u5e02\u6843\u5712\u5340\u5927\u8208\u8def118\u865f","latitude":"25.01551500","longitude":"121.31008170","limited_time":"maybe","socket":"maybe","standing_desk":"no","mrt":"","open_time":""},{"id":"6a666a86-f0ad-4c38-993a-7d05c1bff8a6","name":"\u7fd2\u4f5c\u5496\u5561\u90e8","city":"taoyuan","wifi":5,"seat":5,"quiet":5,"tasty":5,"cheap":4.5,"music":5,"url":"https:\/\/www.facebook.com\/%E7%BF%92%E4%BD%9C%E5%92%96%E5%95%A1%E9%83%A8-578442535616943\/","address":"\u6843\u5712\u5e02\u6843\u5712\u5340\u6797\u68ee\u8def6\u5df737\u865f","latitude":"24.98779050","longitude":"121.32038070","limited_time":"no","socket":"maybe","standing_desk":"no","mrt":"","open_time":""},{"id":"6ac8f950-dd4c-4767-a19e-fee87a08cdbf","name":"\u5d50\u5348\u5496\u5561","city":"taoyuan","wifi":5,"seat":4,"quiet":1,"tasty":3,"cheap":1,"music":3,"url":"https:\/\/www.facebook.com\/lattoocafe\/","address":"\u6843\u5712\u5e02\u4e2d\u58e2\u5340\u5be6\u8e10\u8def225-17\u865f","latitude":"24.95763490","longitude":"121.23843010","limited_time":"maybe","socket":"yes","standing_desk":"yes","mrt":"","open_time":""},{"id":"6c743e7f-966b-461a-9b96-754e8e41b58f","name":"Yang Cafe (\u4f51\u54c1)","city":"taoyuan","wifi":3,"seat":4,"quiet":3,"tasty":4,"cheap":3,"music":3,"url":"https:\/\/www.facebook.com\/yangcafe\/","address":"\u6843\u5712\u5e02\u4e2d\u58e2\u5340\u6c11\u6b0a\u8def364\u865f1\u6a13","latitude":"24.96388430","longitude":"121.21732900","limited_time":"no","socket":"no","standing_desk":"","mrt":"","open_time":"10:00 - 20:00"},{"id":"6ed0ffbe-30d8-493e-a387-b69511d37478","name":"\u9e7f\u9ede\u5496\u5561workshop ","city":"taoyuan","wifi":3,"seat":4,"quiet":3,"tasty":2,"cheap":1,"music":2,"url":"https:\/\/www.facebook.com\/caffepromisedlandworkshop\/","address":"\u6843\u5712\u5340\u6587\u5316\u4e8c\u8def34\u5df714\u5f046-5\u865f","latitude":"25.05858600","longitude":"121.36533700","limited_time":"no","socket":"yes","standing_desk":"yes","mrt":"","open_time":"11:00-19:00"},{"id":"73273237-9f48-492b-9d55-5c059ec2d1f1","name":"Raretreat Coffee Roaster \u5fae\u6a02\u5496\u5561\u9928","city":"taoyuan","wifi":0,"seat":0,"quiet":0,"tasty":0,"cheap":0,"music":0,"url":"","address":"\u6843\u5712\u7e23\u4e2d\u58e2\u5e02\u6069\u5fb7\u885752\u865f","latitude":"24.96118730","longitude":"121.22401370","limited_time":"","socket":"","standing_desk":"","mrt":"","open_time":""},{"id":"734eaa40-ca24-450f-9e8e-a9d173061e69","name":"\u56db\u5b63\u82b3\u5ead","city":"taoyuan","wifi":0,"seat":0,"quiet":4,"tasty":5,"cheap":5,"music":5,"url":"","address":"\u6843\u5712\u5e02\u8606\u7af9\u5340\u5357\u4e0a\u8def3\u865f2\u6a13","latitude":"25.04749030","longitude":"121.29450200","limited_time":"no","socket":"yes","standing_desk":"no","mrt":"","open_time":""},{"id":"78bdb503-f62c-4a34-8efa-5be3a2563d29","name":"Love in cafe","city":"taoyuan","wifi":5,"seat":3,"quiet":3,"tasty":4,"cheap":5,"music":4,"url":"https:\/\/www.facebook.com\/loveincafe\/","address":"\u4e2d\u58e2\u5e02\u6148\u60e0\u4e00\u8857126\u865f","latitude":"24.96100450","longitude":"121.22510040","limited_time":"no","socket":"maybe","standing_desk":"yes","mrt":"","open_time":""},{"id":"7aa18025-c4c9-4330-8f47-a020a737e957","name":"\u8c48\u5496\u5561","city":"taoyuan","wifi":5,"seat":5,"quiet":5,"tasty":5,"cheap":5,"music":5,"url":"https:\/\/www.facebook.com\/sipscofe\/","address":"\u6843\u5712\u5e02\u516b\u5fb7\u5340\u5fe0\u52c7\u885784\u5df78\u865f","latitude":"24.96008930","longitude":"121.30478170","limited_time":"no","socket":"maybe","standing_desk":"no","mrt":"","open_time":""},{"id":"7ad7636d-9305-4d9d-bd45-8adcf70210f0","name":"\u7d05\u679c\u5b50\u624b\u70d8\u5496\u5561\u574a","city":"taoyuan","wifi":1,"seat":5,"quiet":5,"tasty":5,"cheap":5,"music":5,"url":"www.facebook.com\/033389288.com.te\/","address":"\u6843\u5712\u5e02\u6843\u5712\u5340\u4e2d\u5c71\u6771\u8def70\u865f","latitude":"24.99665610","longitude":"121.31729900","limited_time":"no","socket":"no","standing_desk":"no","mrt":"","open_time":"\u6bcf\u6708\u96d9\u6578\u9031\u9031\u4e09\u516c\u4f11"},{"id":"7da3561d-0721-478a-a88f-0374e2ebca90","name":"\u3129\u3122\u02ca\u5496\u5561\u4e8b\u52d9\u6240","city":"taoyuan","wifi":5,"seat":5,"quiet":5,"tasty":4,"cheap":5,"music":5,"url":"https:\/\/www.facebook.com\/yuancoffee.tw","address":"\u6843\u5712\u5e02\u9f9c\u5c71\u5340\u5fa9\u8208\u4e8c\u8def131\u5df719\u865f","latitude":"25.05423230","longitude":"121.37087230","limited_time":"no","socket":"maybe","standing_desk":"no","mrt":"","open_time":"9:00-19:00\u79ae\u62dc\u4e00\u516c\u4f11"},{"id":"82dfc8cb-ef3a-4386-95c3-c2f2a296bdc3","name":"\u8def\u6613\u838e\u5496\u5561\u6843\u9daf\u5e97","city":"taoyuan","wifi":5,"seat":5,"quiet":4,"tasty":5,"cheap":5,"music":5,"url":"https:\/\/www.facebook.com\/louisacoffeetaoyuan\/","address":"\u6843\u5712\u5340\u6843\u9daf\u8def168-1\u865f","latitude":"24.98303640","longitude":"121.31874020","limited_time":"no","socket":"yes","standing_desk":"yes","mrt":"","open_time":"7:00-20:00"},{"id":"83182a01-aca9-4c5d-aa8f-805766895c57","name":"\u9ebb\u8336\u5143","city":"taoyuan","wifi":5,"seat":5,"quiet":5,"tasty":5,"cheap":3,"music":5,"url":"https:\/\/m.facebook.com\/MatchaMoto\/","address":"\u6843\u5712\u5e02\u8606\u7af9\u5340\u6843\u5712\u88572\u865f","latitude":"25.04298070","longitude":"121.29345960","limited_time":"maybe","socket":"maybe","standing_desk":"no","mrt":"","open_time":""},{"id":"854d949c-1df0-48c7-a9a0-3112dd59d8ce","name":" Jo's Corner Caf\u00e9","city":"taoyuan","wifi":4,"seat":3.5,"quiet":3.5,"tasty":3.5,"cheap":4,"music":5,"url":"https:\/\/www.facebook.com\/JosCornerCafe\/","address":"\u6843\u5712\u5e02\u6843\u5712\u5340\u570b\u5f37\u4e00\u8857135\u865f","latitude":"24.99248750","longitude":"121.28594620","limited_time":"maybe","socket":"no","standing_desk":"no","mrt":"","open_time":""},{"id":"86b35c6c-2094-4f5c-ab73-dd8d6b6dff74","name":"\u5561\u884c\u8a08\u756bcoffee&dessert","city":"taoyuan","wifi":5,"seat":5,"quiet":5,"tasty":5,"cheap":3,"music":5,"url":"https:\/\/www.facebook.com\/coffeedessertlife\/","address":"\u6843\u5712\u5e02\u6843\u5712\u5340\u656c\u4e8c\u885738\u865f","latitude":"25.02305160","longitude":"121.29316420","limited_time":"maybe","socket":"yes","standing_desk":"no","mrt":"","open_time":""},{"id":"880d3674-82ab-4c79-97d8-f2934dc8088a","name":"\u96f7\u723e\u68ee","city":"taoyuan","wifi":5,"seat":4,"quiet":4,"tasty":5,"cheap":4,"music":4,"url":"https:\/\/www.facebook.com\/%E9%9B%B7%E7%88%BE%E6%A3%AE%E5%92%96%E5%95%A1-145718265477350\/?fref=ts","address":"\u6843\u5712\u5e02\u4e2d\u58e2\u5340\u4e09\u5149\u8def205\u865f","latitude":"24.96378290","longitude":"121.21294310","limited_time":"no","socket":"maybe","standing_desk":"no","mrt":"","open_time":" \u9031\u4e09\u81f3\u9031\u56db13:00~20:00\u3001\u9031\u4e9413:00~21:00 \u9031\u516d13:30~21:00\u3001\u9031\u65e513:00~20:00"},{"id":"88e69d3f-e8e7-414e-b527-dbdef054e9d2","name":"Wooly caf\u00e9","city":"taoyuan","wifi":5,"seat":3,"quiet":4,"tasty":5,"cheap":4,"music":5,"url":"https:\/\/www.facebook.com\/woolycafe","address":"\u6843\u5712\u5e02\u6843\u5712\u5340\u5927\u540c\u8def60-1\u865f","latitude":"24.98950920","longitude":"121.31182490","limited_time":"","socket":"","standing_desk":"","mrt":"","open_time":""},{"id":"8b5c8b7b-3a35-4287-93ae-35cf242a7fca","name":"\u53cb\u7f8e\u5b50\u73c8\u7432Cafeyumiko","city":"taoyuan","wifi":5,"seat":4,"quiet":4,"tasty":5,"cheap":4,"music":5,"url":"https:\/\/www.facebook.com\/cafeyumiko\/","address":"\u6843\u5712\u5340\u540c\u5fb711\u8857127\u865f","latitude":"25.02009180","longitude":"121.29562770","limited_time":"maybe","socket":"maybe","standing_desk":"no","mrt":"","open_time":""},{"id":"8bb6c3fa-8ac8-4ce1-97a8-40588482471e","name":"190 Cafe\u0301 House \u73c8\u7432\u70d8\u7119\u5c4b","city":"taoyuan","wifi":5,"seat":4.5,"quiet":4,"tasty":5,"cheap":4,"music":4.5,"url":"https:\/\/www.facebook.com\/190CafeHouse\/","address":"\u6843\u5712\u5e02\u6843\u5712\u5340\u6148\u5149\u885751\u865f","latitude":"25.00512250","longitude":"121.29797540","limited_time":"no","socket":"yes","standing_desk":"no","mrt":"","open_time":"\u9031\u4e09\u516c\u4f11\uff0c\u9031\u4e00\u81f3\u9031\u65e510:30 - 19:30"},{"id":"926d5c19-4189-450f-a524-5c464aa04dd6","name":"Cafe Traveller \u65c5\u6d3b\u697d\u5496\u5561","city":"taoyuan","wifi":5,"seat":5,"quiet":5,"tasty":5,"cheap":5,"music":5,"url":"https:\/\/www.facebook.com\/CafeTraveller.LongTang\/","address":"\u6843\u5712\u5e02\u9f8d\u6f6d\u5340\u4e2d\u6b63\u8def103\u865f","latitude":"24.86803590","longitude":"121.21583600","limited_time":"","socket":"","standing_desk":"yes","mrt":"","open_time":""},{"id":"92a994a5-aa37-423c-a00c-11ab574f72c9","name":"\u65b0\u535712\u6587\u5275\u5be6\u9a57\u5546\u884c","city":"taoyuan","wifi":5,"seat":4.5,"quiet":5,"tasty":4,"cheap":4.5,"music":4.5,"url":"https:\/\/www.facebook.com\/sinnan12\/","address":"\u6843\u5712\u5e02\u5927\u6eaa\u5340\u4e2d\u5c71\u8def12\u865f","latitude":"24.88173360","longitude":"121.28705530","limited_time":"maybe","socket":"no","standing_desk":"no","mrt":"","open_time":""},{"id":"94216d83-9467-4c19-bca7-d3052c6767ce","name":"Louisa Coffee \u8def\u6613\uff0e\u838e\u5496\u5561(\u6843\u5712\u6843\u5927\u6975\u9580\u5e02)","city":"taoyuan","wifi":0,"seat":3,"quiet":2,"tasty":3,"cheap":4,"music":3,"url":"","address":"\u6843\u5712\u5e02\u516b\u5fb7\u5340\u91d1\u548c\u8def60\u865f","latitude":"24.95515830","longitude":"121.29689000","limited_time":"no","socket":"","standing_desk":"no","mrt":"","open_time":""},{"id":"95cf032c-e86b-40ec-b316-9d3a5d8f79ef","name":"\u4e39\u99ac\u514b\u5496\u5561","city":"taoyuan","wifi":4,"seat":3,"quiet":1,"tasty":3,"cheap":3,"music":4,"url":"https:\/\/www.facebook.com\/DamarkCaFe\/","address":"\u6843\u5712\u7e23\u4e2d\u58e2\u5e02\u6148\u60e0\u4e09\u8857157\u5df710\u865f","latitude":"24.96409280","longitude":"121.22484870","limited_time":"","socket":"","standing_desk":"","mrt":"","open_time":""},{"id":"97c692d2-37cb-4812-b4ae-0ea8af4a5735","name":"\u6674\u8015\u96e8\u8b80\u5c0f\u66f8\u9662","city":"taoyuan","wifi":5,"seat":5,"quiet":5,"tasty":5,"cheap":4,"music":5,"url":"https:\/\/www.facebook.com\/lifestylebookstore\/","address":"\u6843\u5712\u5e02\u5e73\u93ae\u5340\u798f\u9f8d\u8def\u4e00\u6bb5560\u5df712\u865f","latitude":"24.89633680","longitude":"121.22586130","limited_time":"maybe","socket":"maybe","standing_desk":"no","mrt":"","open_time":""},{"id":"980b8b4f-705d-4f33-887e-07a89dff6282","name":"MINE CAFE","city":"taoyuan","wifi":5,"seat":5,"quiet":5,"tasty":5,"cheap":4,"music":5,"url":"https:\/\/www.facebook.com\/MINE-CAFE-%E8%B3%A3%E5%92%96%E5%95%A1-1527754587536166\/","address":"\u4e2d\u58e2\u5340\u798f\u5dde\u8def63\u865f","latitude":"24.95250900","longitude":"121.23321300","limited_time":"no","socket":"maybe","standing_desk":"yes","mrt":"","open_time":""},{"id":"985e6450-118c-4b2c-8201-444e7812c9b0","name":"\u95b1\u8b80\u67d2\u5e74","city":"taoyuan","wifi":5,"seat":3,"quiet":5,"tasty":5,"cheap":3,"music":4,"url":"https:\/\/www.facebook.com\/sevenyear1156\/","address":"\u6843\u5712\u5e02\u6843\u5712\u5340\u4e2d\u6b63\u8def115\u5df76\u865f","latitude":"24.99300980","longitude":"121.31143360","limited_time":"","socket":"yes","standing_desk":"no","mrt":"","open_time":"11:00-21:00(\u9031\u4e8c\u4f11\u606f)"},{"id":"999a3f73-7db4-4430-8df2-354c530d32cb","name":"\u53ef\u6a02\u8fb2\u838a\u684c\u4e0a\u904a\u6232","city":"taoyuan","wifi":5,"seat":3,"quiet":3,"tasty":5,"cheap":3,"music":0,"url":"https:\/\/www.facebook.com\/AgricolaFarm\/?ref=page_internal","address":"\u6843\u5712\u5e02\u4e2d\u58e2\u5340\u6771\u660e\u885778\u865f1\u6a13","latitude":"24.95230280","longitude":"121.22975350","limited_time":"","socket":"","standing_desk":"","mrt":"","open_time":""},{"id":"99c23919-aaa0-4c61-8571-fe1734cb3414","name":"\u676f\u5b50\u3002\u624b\u6c96\u5496\u5561","city":"taoyuan","wifi":0,"seat":0,"quiet":0,"tasty":0,"cheap":0,"music":0,"url":"","address":"\u6843\u5712\u5e02\u9f8d\u6f6d\u5340\u6587\u5316\u8def(\u77f3\u9580\u570b\u5c0f\u65c1)","latitude":"24.84170910","longitude":"121.24083400","limited_time":"","socket":"","standing_desk":"","mrt":"","open_time":""},{"id":"9ac550f6-c0b3-498c-8227-281af137cb37","name":"Nuage\u30af\u30e9\u30a6\u30c9\u96f2\u6735\u9b06\u9905","city":"taoyuan","wifi":5,"seat":4.5,"quiet":4.5,"tasty":4.5,"cheap":2.5,"music":4.5,"url":"https:\/\/www.facebook.com\/newdaycofe\/","address":"\u6843\u5712\u5e02\u6843\u5712\u5340\u6c11\u751f\u8def55\u5df78\u865f","latitude":"24.99156610","longitude":"121.31415020","limited_time":"maybe","socket":"yes","standing_desk":"yes","mrt":"","open_time":""},{"id":"9c1461f5-5663-49dc-b11c-732d2a66cc74","name":"\u8def\u6613.\u838e\u5496\u5561(\u6843\u5712\u7e23\u5e9c\u5e97)","city":"taoyuan","wifi":4,"seat":4,"quiet":5,"tasty":5,"cheap":5,"music":0,"url":"http:\/\/www.louisacoffee.co\/","address":"\u6843\u5712\u5e02\u6843\u5712\u5340\u4e2d\u5c71\u8def426\u865f","latitude":"24.99227400","longitude":"121.30287200","limited_time":"no","socket":"maybe","standing_desk":"no","mrt":"","open_time":""},{"id":"9ffd9b76-26f7-47e1-8d8e-eb237f230063","name":" \u7ffb\u8f49\u751c\u9ede flipbakery","city":"taoyuan","wifi":5,"seat":5,"quiet":4.5,"tasty":4,"cheap":3,"music":4,"url":"https:\/\/www.facebook.com\/flipbakery\/","address":"\u6843\u5712\u5e02\u6843\u5712\u5340\u6b63\u5149\u8def71\u5df76\u865f","latitude":"24.99150860","longitude":"121.29509510","limited_time":"maybe","socket":"maybe","standing_desk":"no","mrt":"","open_time":""},{"id":"9ffea7d7-7323-4ab3-b29c-c4c48f1853d3","name":"Boss Coffee \u6843\u5712\u65d7\u8266\u5e97","city":"taoyuan","wifi":5,"seat":5,"quiet":4,"tasty":4,"cheap":5,"music":3,"url":"https:\/\/www.facebook.com\/Boss-Coffee-%E6%A1%83%E5%9C%92%E6%97%97%E8%89%A6%E9%BB%9E-403453739855910\/","address":"\u6843\u5712\u5e02\u6843\u5712\u5340\u65b0\u57d4\u516b\u885753\u865f","latitude":"25.01957840","longitude":"121.29888640","limited_time":"no","socket":"maybe","standing_desk":"no","mrt":"","open_time":""},{"id":"a1d34aec-1e35-42a7-bd71-78fb5375eb9f","name":"\u6070\u6b50 Coffee Ciao","city":"taoyuan","wifi":4,"seat":4,"quiet":3.5,"tasty":4,"cheap":3.5,"music":3.5,"url":"https:\/\/www.facebook.com\/ciaocoffeeciao\/","address":"\u6843\u5712\u5e02\u4e2d\u58e2\u5340\u6587\u5316\u8def130\u5df727\u865f","latitude":"24.97498510","longitude":"121.25513950","limited_time":"maybe","socket":"maybe","standing_desk":"no","mrt":"","open_time":"\u9031\u4e00\u516c\u4f11 \u5e73\u65e511:00-19:00\u5047\u65e511:00-20:00"},{"id":"a1da915a-fb0e-4ccd-8f4c-55d072080d98","name":" Collage\u5496\u697d\u805a-\u6843\u5712\u7e3d\u5e97","city":"taoyuan","wifi":0,"seat":0,"quiet":0,"tasty":0,"cheap":0,"music":0,"url":"https:\/\/www.facebook.com\/CollageBrunch\/","address":"\u6843\u5712\u5e02\u6843\u5712\u5340\u570b\u8c50\u4e09\u8857159\u865f","latitude":"24.99120250","longitude":"121.27849530","limited_time":"maybe","socket":"maybe","standing_desk":"no","mrt":"","open_time":""},{"id":"a71196ed-214f-4074-8a17-c509251c97f1","name":"\u4e39\u5b85","city":"taoyuan","wifi":4.5,"seat":4.5,"quiet":4.5,"tasty":4.5,"cheap":4.5,"music":4.5,"url":"https:\/\/www.facebook.com\/%E4%B8%B9%E5%AE%85-DANs-home-cuisine-788329184649240\/","address":"\u6843\u5712\u5e02\u6843\u5712\u5340\u5712\u4e8c\u885748\u865f","latitude":"24.99738170","longitude":"121.31470240","limited_time":"maybe","socket":"maybe","standing_desk":"no","mrt":"","open_time":""},{"id":"aaa7f9ce-5fac-43b7-b134-5038b31c4c10","name":"Numbear 13 Cafe","city":"taoyuan","wifi":5,"seat":5,"quiet":5,"tasty":4,"cheap":5,"music":4,"url":"https:\/\/www.facebook.com\/pg\/numbear13\/about\/?ref=page_internal","address":"\u6843\u5712\u5e02\u4e2d\u58e2\u5340\u5927\u4ec1\u4e94\u885732\u865f1\u6a13","latitude":"24.95663270","longitude":"121.24014760","limited_time":"maybe","socket":"no","standing_desk":"no","mrt":"","open_time":""},{"id":"abf1f8f3-9e25-4b93-8854-de0670e33a46","name":"\u9e7f\u9ede\u5496\u5561 Luna\u6843\u5712\u5e97","city":"taoyuan","wifi":0,"seat":3,"quiet":5,"tasty":5,"cheap":4,"music":5,"url":"https:\/\/www.facebook.com\/caffepromisedlandluna\/","address":"\u6843\u5712\u5e02\u6843\u5712\u5340\u6210\u529f\u8def\u4e09\u6bb5175\u865f","latitude":"25.00437200","longitude":"121.32447300","limited_time":"no","socket":"maybe","standing_desk":"yes","mrt":"","open_time":""},{"id":"ac52e3e5-a709-49db-9e11-adc6a27a5784","name":"hiii birdie \u77e5\u9ce5\u5496\u5561","city":"taoyuan","wifi":4.5,"seat":5,"quiet":4.5,"tasty":4.5,"cheap":4,"music":5,"url":"https:\/\/www.facebook.com\/hiiibirdiecafe\/","address":"\u6843\u5712\u5e02\u9f9c\u5c71\u5340\u8208\u83ef\u4e94\u885775\u865f","latitude":"25.05228970","longitude":"121.36585690","limited_time":"no","socket":"maybe","standing_desk":"no","mrt":"","open_time":"9:30~20:30"},{"id":"ae745ebd-b80a-4001-a641-500914a156fa","name":"9bar","city":"taoyuan","wifi":3,"seat":3,"quiet":3,"tasty":4,"cheap":4,"music":3,"url":"https:\/\/www.facebook.com\/9Bar-%E8%87%AA%E5%AE%B6%E7%83%98%E7%84%99%E5%92%96%E5%95%A1-148096171916268\/","address":"\u6843\u5712\u5e02\u9f9c\u5c71\u5340\u81ea\u5f37\u5357\u8def741\u865f","latitude":"24.99193070","longitude":"121.33299360","limited_time":"no","socket":"no","standing_desk":"yes","mrt":"","open_time":""},{"id":"ae75f954-1512-4319-8edf-c53421af8bbf","name":"Ten past ten \u5496\u5561\u8c46\u5c08\u8ce3\u5e97","city":"taoyuan","wifi":1,"seat":5,"quiet":5,"tasty":5,"cheap":5,"music":5,"url":"https:\/\/www.facebook.com\/Ten-Past-Ten-%E5%92%96%E5%95%A1%E8%B1%86%E5%B0%88%E8%B3%A3%E5%BA%97-199950360035279\/","address":"\u6843\u5712\u5e02\u8606\u7af9\u5340\u6d1b\u967d\u8857\u4e09\u865f","latitude":"25.04548800","longitude":"121.29263600","limited_time":"no","socket":"no","standing_desk":"yes","mrt":"","open_time":"10:00~21:00"},{"id":"ae88b92f-541d-486f-821e-2583b5466325","name":" WonderCoffee\u6c6a\u68ee\u5e02","city":"taoyuan","wifi":5,"seat":5,"quiet":5,"tasty":4,"cheap":5,"music":5,"url":"https:\/\/www.facebook.com\/WonderCoffee%E6%B1%AA%E6%A3%AE%E5%B8%82-297939741159621\/","address":"\u6843\u5712\u5e02\u6843\u5712\u5340\u5ef6\u58fd\u8857162\u865f","latitude":"24.99423700","longitude":"121.28974800","limited_time":"maybe","socket":"maybe","standing_desk":"no","mrt":"","open_time":""},{"id":"af1a425e-5c7b-4b4e-9062-a6cbef6c0223","name":"\u518d\u518d\u4e4b\u5728 Cafe Here Again \u5496\u5561\u8c46\u5c08\u8ce3\u5e97","city":"taoyuan","wifi":0,"seat":0,"quiet":0,"tasty":0,"cheap":0,"music":0,"url":"","address":"\u6843\u5712\u5e02\u4e2d\u58e2\u5340\u65b0\u751f\u8def\u4e8c\u6bb536\u865f","latitude":"24.97708690","longitude":"121.22296620","limited_time":"","socket":"","standing_desk":"","mrt":"","open_time":""},{"id":"b07689f7-b70f-4b80-972f-943fed2ffd06","name":"6\u865f\u5496\u5561\u9928","city":"taoyuan","wifi":5,"seat":4.5,"quiet":3.5,"tasty":5,"cheap":4.5,"music":5,"url":"","address":"\u6843\u5712\u5e02\u6843\u5712\u5340\u540c\u5fb7\u516d\u8857154\u865f","latitude":"25.01574720","longitude":"121.29745610","limited_time":"","socket":"","standing_desk":"","mrt":"","open_time":""},{"id":"b08e9598-26b2-4f6f-be42-7bdab5a3c800","name":"\u8c46\u8a9e\u7cbe\u54c1\u5496\u5561\u70d8\u7119\u574a","city":"taoyuan","wifi":0,"seat":0,"quiet":0,"tasty":0,"cheap":0,"music":0,"url":"","address":"\u6843\u5712\u5e02\u6843\u5712\u5340\u4fe1\u4e8c\u88574\u865f","latitude":"24.99556700","longitude":"121.30070500","limited_time":"","socket":"","standing_desk":"","mrt":"","open_time":""},{"id":"b251b975-29ef-46d9-a490-8b307d5cfdc9","name":"\u990a\u89aa\u8f45\u5496\u5561","city":"taoyuan","wifi":5,"seat":3,"quiet":5,"tasty":5,"cheap":4,"music":5,"url":"https:\/\/www.facebook.com\/jodie.home.cafe9319\/","address":"320\u6843\u5712\u5e02\u4e2d\u58e2\u5340\u74b0\u4e2d\u6771\u8def\u4e8c\u6bb5488\u865f","latitude":"24.94624250","longitude":"121.23195530","limited_time":"no","socket":"no","standing_desk":"no","mrt":"","open_time":""},{"id":"b3132bed-057d-42fe-813e-9a811b63f31a","name":"Rosephils Coffee","city":"taoyuan","wifi":0,"seat":0,"quiet":0,"tasty":0,"cheap":0,"music":0,"url":"https:\/\/www.facebook.com\/ROSEPHILS.COFFEE\/","address":"\u6843\u5712\u5e02\u4e2d\u58e2\u5340\u65b0\u751f\u8def225\u865f","latitude":"24.96266800","longitude":"121.22274400","limited_time":"","socket":"","standing_desk":"","mrt":"","open_time":""},{"id":"b344ef9f-ed2c-44a0-a1b6-93a4b8f1caea","name":"\u51b7\u6749\u5496\u5561 Silver Tree Coffee","city":"taoyuan","wifi":0,"seat":0,"quiet":0,"tasty":0,"cheap":0,"music":0,"url":"https:\/\/www.instagram.com\/_silvertreecoffee_\/","address":"\u6843\u5712\u5e02\u4e2d\u58e2\u5340\u6148\u60e0\u4e8c\u885756\u865f","latitude":"24.96045900","longitude":"121.22467460","limited_time":"","socket":"","standing_desk":"","mrt":"","open_time":""},{"id":"b4027d57-dabb-4980-9a9d-7fa3bf87a759","name":"\u65e5\u6696\u5496\u5561","city":"taoyuan","wifi":5,"seat":4,"quiet":5,"tasty":5,"cheap":5,"music":5,"url":"https:\/\/www.facebook.com\/rinuancafe\/","address":"330\u6843\u5712\u5e02\u6843\u5712\u5340\u6625\u65e5\u8def279\u865f","latitude":"24.99856270","longitude":"121.31487530","limited_time":"","socket":"","standing_desk":"","mrt":"","open_time":""},{"id":"b5e4f0f7-b64a-4d31-9a16-749ff7c1ac45","name":"\u6b50\u66fc","city":"taoyuan","wifi":5,"seat":5,"quiet":5,"tasty":5,"cheap":5,"music":5,"url":"https:\/\/www.facebook.com\/pg\/OhMyCoffee\/about\/?ref=page_internal","address":" \u6843\u5712\u5e02\u9f9c\u5c71\u5340\u81ea\u5f37\u6771\u8def204\u865f","latitude":"24.99659420","longitude":"121.34434520","limited_time":"no","socket":"maybe","standing_desk":"no","mrt":"","open_time":"12:00~20:00"},{"id":"b65b672a-52f3-4a6e-a398-fa0b24fa3d82","name":"\u9ed1\u74f6\u5496\u5561","city":"taoyuan","wifi":5,"seat":5,"quiet":5,"tasty":5,"cheap":5,"music":5,"url":"https:\/\/www.facebook.com\/blackbottlecafeTW\/","address":"\u6843\u5712\u5e02\u6843\u5712\u5340\u5927\u8208\u897f\u8def\u4e8c\u6bb5138\u865f","latitude":"25.01041790","longitude":"121.29627900","limited_time":"no","socket":"no","standing_desk":"yes","mrt":"","open_time":""},{"id":"b9360e78-790c-44ec-8fea-d4990b32809c","name":"\u9152\u8c46 Chotto","city":"taoyuan","wifi":0,"seat":0,"quiet":0,"tasty":0,"cheap":0,"music":0,"url":"https:\/\/www.facebook.com\/CHOTTO0938523002\/","address":"\u6843\u5712\u5e02\u4e2d\u58e2\u5340\u6210\u7ae0\u4e00\u8857181\u865f","latitude":"24.97563740","longitude":"121.25467460","limited_time":"","socket":"","standing_desk":"","mrt":"","open_time":""},{"id":"b9a5b618-1f7e-494e-9baa-3895eba685f2","name":"\u7da0\u6c90\u606c\u62fe","city":"taoyuan","wifi":0,"seat":4,"quiet":3.5,"tasty":3.5,"cheap":3.5,"music":5,"url":"https:\/\/www.facebook.com\/greenco2291\/","address":"\u6843\u5712\u5e02\u4e2d\u58e2\u5340\u4e2d\u592e\u897f\u8def\u4e8c\u6bb5229-1\u865f","latitude":"24.96090190","longitude":"121.21280200","limited_time":"","socket":"","standing_desk":"","mrt":"","open_time":""},{"id":"ba2d6758-b14f-476f-aa36-02ecc16a1b42","name":"Han's larger \u81ea\u5bb6\u70d8\u7119","city":"taoyuan","wifi":5,"seat":4,"quiet":4,"tasty":5,"cheap":4,"music":5,"url":"https:\/\/www.facebook.com\/hanskaffee777\/","address":"\u6843\u5712\u5e02\u9f9c\u5c71\u5340\u6587\u5316\u4e00\u8857\u5341\u5df741\u5f048\u865f\u4e00\u6a13","latitude":"25.04844790","longitude":"121.38572800","limited_time":"maybe","socket":"maybe","standing_desk":"yes","mrt":"","open_time":"11:00-22:00"},{"id":"ba63943a-caad-4a13-9dc9-f4a2f8e9f65f","name":"\u5feb\u6a02\u5929\u5802\u7fa9\u5f0f\u5496\u5561\u9928Happy Paradise","city":"taoyuan","wifi":0,"seat":0,"quiet":0,"tasty":0,"cheap":0,"music":0,"url":"https:\/\/www.facebook.com\/HappyParadiseIllyCafe","address":"\u6843\u5712\u5e02\u5927\u6eaa\u5340\u4e2d\u6b63\u8def41\u865f","latitude":"24.88301720","longitude":"121.28610160","limited_time":"","socket":"","standing_desk":"","mrt":"","open_time":""},{"id":"bbac8b94-f9ae-4cf3-966b-017a75682af7","name":" Hidden Dream \u5690\u5922\u751c\u9ede","city":"taoyuan","wifi":0,"seat":5,"quiet":5,"tasty":5,"cheap":4,"music":5,"url":"https:\/\/www.facebook.com\/JosCornerCafe\/","address":"\u6843\u5712\u5e02\u6843\u5712\u5340\u6c11\u5149\u8def127\u865f","latitude":"25.00335270","longitude":"121.30438180","limited_time":"","socket":"","standing_desk":"","mrt":"","open_time":""},{"id":"bc968773-a21f-4e32-a63f-c05697dcb14f","name":"\u5171\u5750 Cafe & Space","city":"taoyuan","wifi":5,"seat":5,"quiet":5,"tasty":5,"cheap":4,"music":4,"url":"https:\/\/cafeandspace.weebly.com\/","address":"\u6843\u5712\u5e02\u4e2d\u58e2\u5340\u5927\u4ec1\u4e94\u885735\u865f1\u6a13","latitude":"24.95635910","longitude":"121.24027830","limited_time":"no","socket":"yes","standing_desk":"no","mrt":"","open_time":"\u5076\u6709\u66f4\u52d5\u4ee5google map\u70ba\u6e96"},{"id":"bd36ed04-294e-457c-8aae-082e175f55db","name":"\u661f\u6d77\u4e4b\u6200\u5496\u5561\u9928","city":"taoyuan","wifi":5,"seat":3,"quiet":2,"tasty":3,"cheap":2,"music":3,"url":"","address":"\u6843\u5712\u5e02\u8606\u7af9\u5340\u5357\u5c71\u8def\u4e09\u6bb5446\u865f","latitude":"25.08880700","longitude":"121.28738400","limited_time":"","socket":"","standing_desk":"","mrt":"","open_time":""},{"id":"bf91a444-0575-4859-b7d6-9e49dddc610f","name":"Material caf\u00e9 \u7d20\u6750\u65e5\u5e38","city":"taoyuan","wifi":5,"seat":4,"quiet":4,"tasty":5,"cheap":5,"music":5,"url":"https:\/\/www.facebook.com\/material7761\/","address":"\u6843\u5712\u5e02\u4e2d\u58e2\u5340\u74b0\u4e2d\u6771\u8def\u6843\u5712\u5340320","latitude":"24.95868060","longitude":"121.25043640","limited_time":"maybe","socket":"maybe","standing_desk":"yes","mrt":"","open_time":""},{"id":"bf9c0fad-9c6f-49ff-bf6a-f4aba2e9527c","name":"OWL Dessert \u8c93\u982d\u9df9\u6cd5\u5f0f\u624b\u5de5\u751c\u9ede","city":"taoyuan","wifi":0,"seat":2,"quiet":4,"tasty":5,"cheap":3,"music":5,"url":"https:\/\/www.facebook.com\/koreaowldessert","address":"\u6843\u5712\u5e02\u516b\u5fb7\u5340\u6771\u52c7\u885778\u865f","latitude":"24.95908920","longitude":"121.30676970","limited_time":"no","socket":"no","standing_desk":"no","mrt":"","open_time":""},{"id":"bfee4702-4424-4642-a63f-d8d6cb2602e1","name":"MR.DODO\u81ea\u5bb6\u70d8\u7119\u5496\u5561\u9928","city":"taoyuan","wifi":5,"seat":5,"quiet":4,"tasty":4.5,"cheap":4,"music":5,"url":"https:\/\/www.facebook.com\/MRDODO3606\/","address":"\u6843\u5712\u5e02\u5e73\u93ae\u5340\u5317\u83ef\u91cc\u632f\u5e73\u88573\u865f","latitude":"24.94505110","longitude":"121.21961280","limited_time":"maybe","socket":"maybe","standing_desk":"no","mrt":"","open_time":"AM 11:30~ PM 7:00"},{"id":"c34b9faf-446c-4f4d-b278-10cf1a010223","name":"BUNA CAF'E\u5e03\u7d0d\u5496\u5561\u9928\u85dd\u6587\u5e97","city":"taoyuan","wifi":4,"seat":3,"quiet":3,"tasty":4,"cheap":3,"music":5,"url":"https:\/\/www.facebook.com\/bunacafe1061\/?ref=br_rs","address":"\u6843\u5712\u5e02\u6843\u5712\u5340\u4e2d\u6b63\u8def1061\u865f","latitude":"25.01578700","longitude":"121.29849720","limited_time":"no","socket":"maybe","standing_desk":"no","mrt":"","open_time":""},{"id":"c3a7cab2-0794-4cec-8b30-e757c695f00d","name":"\u5e74\u8f15\u7684\u8001\u982d","city":"taoyuan","wifi":5,"seat":3,"quiet":5,"tasty":5,"cheap":5,"music":5,"url":"http:\/\/youngoldcoffee.blogspot.com\/","address":"\u6843\u5712\u5e02\u9f8d\u6f6d\u5340\u8056\u4ead\u8def\u516b\u5fb7\u6bb522\u865f","latitude":"24.87325680","longitude":"121.20251800","limited_time":"","socket":"","standing_desk":"","mrt":"","open_time":""},{"id":"c42de0bb-f6fb-4957-b11e-c3b575bb3fba","name":"\u7f85\u4f2f\u5496\u5561-\u6843\u5712\u4e2d\u83ef\u96fb\u4fe1\u4e2d\u58e2\u4e2d\u5c71\u9580\u5e02","city":"taoyuan","wifi":5,"seat":5,"quiet":0,"tasty":5,"cheap":5,"music":0,"url":"https:\/\/www.facebook.com\/%E7%BE%85%E4%BC%AF%E5%92%96%E5%95%A1-%E6%A1%83%E5%9C%92%E4%B8%AD%E8%8F%AF%E9%9B%BB%E4%BF%A1%E4%B8%AD%E5%A3%A2%E4%B8%AD%E5%B1%B1%E9%96%80%E5%B8%82-1809127882470707\/","address":"\u6843\u5712\u5e02\u4e2d\u58e2\u5340\u4e2d\u5c71\u8def152\u865f","latitude":"24.95630490","longitude":"121.22436000","limited_time":"no","socket":"no","standing_desk":"no","mrt":"","open_time":""},{"id":"c565f052-21dc-4bb4-976d-a1b3215df181","name":"\u6a39\u820d308 Cafe","city":"taoyuan","wifi":5,"seat":4,"quiet":3,"tasty":5,"cheap":5,"music":4,"url":"https:\/\/www.facebook.com\/treatortreescafe\/?fref=ts","address":"\u6843\u5712\u5e02\u4e2d\u58e2\u5340\u5fa9\u83ef\u8857308\u865f","latitude":"24.97675590","longitude":"121.24829790","limited_time":"","socket":"no","standing_desk":"no","mrt":"","open_time":""},{"id":"c6112e60-2514-4bea-a589-948810fcb672","name":"Piepai Cafe'","city":"taoyuan","wifi":0,"seat":0,"quiet":0,"tasty":0,"cheap":0,"music":0,"url":"https:\/\/www.facebook.com\/piepaicafe\/","address":"\u6843\u5712\u5340\u5927\u8208\u8def120\u5df721\u865f","latitude":"25.01606060","longitude":"121.30973640","limited_time":"","socket":"","standing_desk":"","mrt":"","open_time":""},{"id":"c6514743-55be-4b19-b4ab-63d154817a5d","name":"\u65e5\u798f OH HAPPY DAY","city":"taoyuan","wifi":5,"seat":5,"quiet":5,"tasty":5,"cheap":4,"music":5,"url":"https:\/\/www.facebook.com\/ohhappydaynow\/","address":"\u6843\u5712\u5e02\u6843\u5712\u5340\u4e2d\u57d4\u4e03\u88577\u865f","latitude":"25.02062880","longitude":"121.29514710","limited_time":"maybe","socket":"maybe","standing_desk":"no","mrt":"","open_time":""},{"id":"c77d7cd5-23af-4f56-b682-542ef12f1054","name":"\u6563\u6b65\u5496\u5561 La Promenade Caf\u00e9","city":"taoyuan","wifi":4,"seat":3.5,"quiet":2.5,"tasty":5,"cheap":5,"music":4.5,"url":"https:\/\/www.facebook.com\/%E6%95%A3%E6%AD%A5%E5%92%96%E5%95%A1-La-Promenade-Caf%C3%A9-288910587876860\/","address":"\u6843\u5712\u5e02\u4e2d\u58e2\u5340\u4e09\u548c\u4e09\u885724\u865f","latitude":"24.95430490","longitude":"121.24070300","limited_time":"","socket":"maybe","standing_desk":"no","mrt":"","open_time":"12:00-9:00 (\u9031\u65e5\u516c\u4f11)"},{"id":"c85bac3e-9eb1-443d-99ea-6d75fc83ec9c","name":"7\u865f\u516c\u8def","city":"taoyuan","wifi":0,"seat":4,"quiet":5,"tasty":4,"cheap":4,"music":4,"url":"","address":"\u6843\u5712\u5e02\u5fa9\u8208\u5340\u6fa4\u4ec1\u91cc\u8a69\u671714-1\u865f","latitude":"24.82575310","longitude":"121.35615630","limited_time":"","socket":"","standing_desk":"","mrt":"","open_time":""},{"id":"c889ccea-fb4b-4d40-92b0-a2f3f8ab1154","name":"\u6708\u5149\u5496\u5561\u5ef3 ","city":"taoyuan","wifi":0,"seat":0,"quiet":0,"tasty":0,"cheap":0,"music":0,"url":"https:\/\/www.facebook.com\/moxonlight\/","address":"\u6843\u5712\u5e02\u6843\u5712\u5340\u6c11\u5bcc\u5341\u4e00\u8857108\u865f","latitude":"25.01078960","longitude":"121.31436550","limited_time":"no","socket":"maybe","standing_desk":"yes","mrt":"","open_time":"11:00~22:00\uff0c\u9031\u4e00\u516c\u4f11"},{"id":"c97f60b3-92d8-4ea8-a73e-013dde08da4c","name":"\u82ae\u6f22\u7cbe\u54c1\u5496\u5561","city":"taoyuan","wifi":0,"seat":0,"quiet":0,"tasty":0,"cheap":0,"music":0,"url":"","address":"\u6843\u5712\u5e02\u9f9c\u5c71\u5340\u5b8f\u6176\u885770\u865f","latitude":"25.01876740","longitude":"121.41139130","limited_time":"","socket":"","standing_desk":"","mrt":"","open_time":""},{"id":"cddccc59-03bc-49e5-b49c-7b65427d1887","name":"\u8001\u7aa9\u5496\u5561\u70d8\u57f9\u9928\uff0d\u6843\u5712\u4e2d\u5e73\u5e97","city":"taoyuan","wifi":5,"seat":5,"quiet":5,"tasty":5,"cheap":5,"music":5,"url":"https:\/\/www.facebook.com\/laoozhongping\/","address":"\u5b8f\u660c\u516d\u8857256\u865f","latitude":"24.98705110","longitude":"121.29115830","limited_time":"maybe","socket":"no","standing_desk":"no","mrt":"","open_time":""},{"id":"cee188d1-0882-42ce-9878-a3447507c0d9","name":"\u62fe\u4e8b\u5496\u5561","city":"taoyuan","wifi":5,"seat":5,"quiet":5,"tasty":5,"cheap":5,"music":5,"url":"","address":"\u6843\u5712\u5e02\u4e2d\u58e2\u5340\u798f\u661f\u516d\u885767\u865f","latitude":"24.96626890","longitude":"121.23283000","limited_time":"no","socket":"yes","standing_desk":"no","mrt":"","open_time":""},{"id":"d09bb3f8-9c40-4aa4-b7b5-b55e1183eb67","name":"SOLO Coffee","city":"taoyuan","wifi":5,"seat":4,"quiet":4,"tasty":5,"cheap":4,"music":5,"url":"https:\/\/www.facebook.com\/hellosolocoffee\/","address":"\u6843\u5712\u5340\u838a\u656c\u8def\u4e8c\u6bb534\u5df738\u4e4b\u4e00\u865f","latitude":"25.02332200","longitude":"121.29282000","limited_time":"no","socket":"yes","standing_desk":"yes","mrt":"","open_time":"10~17\uff0c\u5468\u56db\u516c\u4f11"},{"id":"d1fd635f-f3da-4f0d-bf0d-e014bf0e4126","name":"\u8c46\u8da3\u5496\u5561","city":"taoyuan","wifi":5,"seat":4,"quiet":4,"tasty":4.5,"cheap":5,"music":5,"url":"https:\/\/www.facebook.com\/excellentcoffeeshop\/","address":"\u6843\u5712\u5e02\u8606\u7af9\u5340\u5357\u5c71\u8def\u4e00\u6bb5212\u865f","latitude":"25.05480070","longitude":"121.29083330","limited_time":"no","socket":"yes","standing_desk":"no","mrt":"","open_time":"11:00-21:00"},{"id":"d290a611-9494-4860-bd78-1af3751db07e","name":"\u68ee\u9130\u6c34\u5cb8\u666f\u89c0\u5496\u5561\u9928","city":"taoyuan","wifi":0,"seat":0,"quiet":0,"tasty":0,"cheap":0,"music":0,"url":"","address":"\u6843\u5712\u5e02\u5fa9\u8208\u5340\u6fa4\u4ec1\u91cc\u4e00\u91306\u865f","latitude":"24.81408000","longitude":"121.34617400","limited_time":"","socket":"","standing_desk":"","mrt":"","open_time":""},{"id":"d64319eb-6f31-4e3d-8e97-7d8605fa2df8","name":"\u4e9e\u9df9\u5496\u5561\u9928","city":"taoyuan","wifi":0,"seat":0,"quiet":0,"tasty":0,"cheap":0,"music":0,"url":"https:\/\/www.facebook.com\/ya.eagle.coffee\/","address":"\u6843\u5712\u5e02\u5e73\u93ae\u5340\u4e2d\u8c50\u8def\u5c71\u9802\u6bb5236\u865f","latitude":"24.89865360","longitude":"121.21086840","limited_time":"","socket":"","standing_desk":"","mrt":"","open_time":""},{"id":"d681c558-931d-4b8b-818a-5cc0497a0abc","name":"\u5006\u6735\u82b1 two flowers coffee","city":"taoyuan","wifi":0,"seat":0,"quiet":0,"tasty":0,"cheap":0,"music":0,"url":"https:\/\/twoflowers.tw\/","address":"\u6843\u5712\u5e02\u6843\u5712\u5340\u4ecb\u58fd\u8def427\u865f1\u6a13","latitude":"24.97878210","longitude":"121.30419600","limited_time":"","socket":"","standing_desk":"","mrt":"","open_time":""},{"id":"d718220c-2108-4578-92f0-db80b9765781","name":"Sieg cafe","city":"taoyuan","wifi":0,"seat":5,"quiet":5,"tasty":5,"cheap":4,"music":5,"url":"https:\/\/m.facebook.com\/SiegCafe\/","address":"\u4e2d\u58e2\u5340\u4e2d\u548c\u8def271\u865f1\u6a13","latitude":"24.95361840","longitude":"121.22271560","limited_time":"no","socket":"","standing_desk":"yes","mrt":"","open_time":"11:00~22:00"},{"id":"d83a6326-d843-4b09-913c-8b7401b712ad","name":"\u7518\u65e5\u6d0b\u98df\u884c","city":"taoyuan","wifi":5,"seat":3,"quiet":3,"tasty":4,"cheap":5,"music":4,"url":"https:\/\/www.facebook.com\/GanRiBrunch\/","address":"\u6843\u5712\u5e02\u6843\u5712\u5340\u838a\u4e8c\u885769\u865f ","latitude":"25.02388200","longitude":"121.29424510","limited_time":"maybe","socket":"no","standing_desk":"no","mrt":"","open_time":""},{"id":"d9b9a447-5469-4c6d-95be-8a6247bedc4c","name":"\u7956\u539d\u5496\u5561\u00b7gugucoffee","city":"taoyuan","wifi":5,"seat":5,"quiet":4,"tasty":5,"cheap":4,"music":5,"url":"https:\/\/www.facebook.com\/GUGUCOFFEE\/","address":"\u4e2d\u58e2\u5340\u5409\u5b89\u885721\u865f","latitude":"24.94905600","longitude":"121.22862690","limited_time":"no","socket":"yes","standing_desk":"yes","mrt":"","open_time":"\u9031\u4e09\u516c\u4f11"},{"id":"dbe4370d-6d3a-49a0-afdd-426aa7f99436","name":"\u7fa9\u9ede\u8336\u8907\u5408\u5f0f\u9910\u98f2","city":"taoyuan","wifi":5,"seat":5,"quiet":4,"tasty":5,"cheap":5,"music":3,"url":"https:\/\/www.facebook.com\/APointDrink\/","address":"\u6843\u5712\u5e02\u4e2d\u58e2\u5340\u9f8d\u6771\u8def33\u865f","latitude":"24.92856190","longitude":"121.24984500","limited_time":"no","socket":"maybe","standing_desk":"no","mrt":"","open_time":""},{"id":"dbe47ed3-d2a9-40e8-955f-9ca3fdc4d023","name":"\u8c50\u6eff \u7e3d\u532f\u4e09\u660e\u6cbb \u6843\u5712\u7ad9\u524d\u5e97","city":"taoyuan","wifi":5,"seat":4,"quiet":4,"tasty":4,"cheap":5,"music":5,"url":"https:\/\/www.facebook.com\/Plumpsandwich033385756\/","address":"\u6843\u5712\u5e02\u6843\u5712\u5340\u6b66\u9675\u91cc\u9577\u58fd\u88574\u865f","latitude":"24.98912660","longitude":"121.31265070","limited_time":"maybe","socket":"no","standing_desk":"no","mrt":"","open_time":""},{"id":"de889a2e-4259-4b93-8ff1-d2dbc6602d4f","name":"\u5f15\u865finhowcafe","city":"taoyuan","wifi":5,"seat":5,"quiet":5,"tasty":4,"cheap":4,"music":5,"url":"https:\/\/www.facebook.com\/inhowcafe\/","address":"\u9f9c\u5c71\u5340\u5c71\u9daf\u8def22\u865f","latitude":"24.99127840","longitude":"121.32293740","limited_time":"maybe","socket":"","standing_desk":"","mrt":"","open_time":"10:30-22:00 "},{"id":"df171933-624b-4ec8-a16f-437b70e72cf5","name":"\u5361\u723e\u5730\u5496\u5561\u9928","city":"taoyuan","wifi":4,"seat":4,"quiet":4,"tasty":5,"cheap":4,"music":3,"url":"https:\/\/www.facebook.com\/%E5%8D%A1%E7%88%BE%E5%9C%B0%E5%92%96%E5%95%A1%E9%A4%A8-190102937702808\/","address":"\u6843\u5712\u5e02\u6843\u5712\u5340\u5927\u83ef\u4e94\u885727\u865f","latitude":"25.00207880","longitude":"121.30807330","limited_time":"maybe","socket":"maybe","standing_desk":"","mrt":"","open_time":""},{"id":"df7f3ecc-dc00-4fa5-870f-d5d61813e1cd","name":"\u8cb3\u62fe\u7a57\u5496\u5561","city":"taoyuan","wifi":5,"seat":5,"quiet":5,"tasty":5,"cheap":5,"music":5,"url":"","address":"\u6843\u5712\u5e02\u6843\u5712\u5340\u6a39\u4ec1\u4e09\u8857145-3\u865f","latitude":"24.97398420","longitude":"121.31979760","limited_time":"no","socket":"yes","standing_desk":"yes","mrt":"","open_time":""},{"id":"dfaaa4e1-69b6-4b4d-be06-cec28a164e17","name":"\u8001\u7aa9\u5496\u5561\u6843\u9daf\u5e97","city":"taoyuan","wifi":5,"seat":5,"quiet":4,"tasty":3,"cheap":3,"music":4,"url":"https:\/\/www.facebook.com\/LAOO.2016.com.tw\/?fref=nf","address":"\u6843\u5712\u5e02\u6843\u5712\u5340\u6843\u9daf\u8def384-6\u865f","latitude":"24.97687710","longitude":"121.32275580","limited_time":"","socket":"","standing_desk":"no","mrt":"","open_time":""},{"id":"e18496a3-2b72-44ea-a54f-b435c71821e9","name":"\u6b78 Return - \u5496\u5561\u3001\u9910\u98df","city":"taoyuan","wifi":0,"seat":0,"quiet":0,"tasty":0,"cheap":0,"music":0,"url":"","address":"\u6843\u5712\u5e02\u6843\u5712\u5340\u4e2d\u5c71\u5317\u8def198\u865f","latitude":"24.99699100","longitude":"121.30326000","limited_time":"","socket":"","standing_desk":"","mrt":"","open_time":""},{"id":"e190872a-f962-4ea3-af3a-c1d1846380ed","name":"\u8def\u6613\u838e","city":"taoyuan","wifi":0,"seat":0,"quiet":0,"tasty":0,"cheap":0,"music":0,"url":"","address":"\u516b\u5fb7\u5340\u8208\u8c50\u8def416\u865f","latitude":"24.92964690","longitude":"121.28913200","limited_time":"","socket":"","standing_desk":"","mrt":"","open_time":""},{"id":"e3ce0331-9a29-44a5-a456-54e25dbe3a36","name":"Cerro\u5e0c\u7f85\u7cbe\u54c1\u5496\u5561","city":"taoyuan","wifi":5,"seat":4,"quiet":4,"tasty":5,"cheap":3,"music":5,"url":"https:\/\/www.facebook.com\/cerrocoffee\/","address":"\u6843\u5712\u5340\u540c\u5fb7\u4e94\u8857218\u865f","latitude":"25.01336520","longitude":"121.29706030","limited_time":"no","socket":"yes","standing_desk":"no","mrt":"","open_time":""},{"id":"e8728e5f-1d9a-4eaa-b083-d55215bd49bc","name":"\u5ba2\u5ef3 coffee House","city":"taoyuan","wifi":5,"seat":5,"quiet":4,"tasty":5,"cheap":5,"music":4,"url":"https:\/\/www.facebook.com\/Coffee-House-%E5%AE%A2%E5%BB%B3-The-Living-Room-1404320303181740\/","address":"\u6843\u5712\u5e02\u694a\u6885\u5340\u81ea\u7acb\u885719\u865f","latitude":"24.91121170","longitude":"121.14966020","limited_time":"","socket":"","standing_desk":"","mrt":"","open_time":""},{"id":"e904a130-d967-4def-883d-8c6c560da15c","name":"Habbit coffee","city":"taoyuan","wifi":5,"seat":3.5,"quiet":4,"tasty":5,"cheap":4,"music":5,"url":"https:\/\/m.facebook.com\/habbit2015\/","address":"\u6843\u5712\u5e02\u4e2d\u58e2\u5340\u4e94\u65cf\u4e8c\u8857115\u865f","latitude":"24.95890050","longitude":"121.20577000","limited_time":"","socket":"maybe","standing_desk":"","mrt":"","open_time":""},{"id":"eb43567c-e024-4b25-9cfe-ccdcb4bb51b8","name":"\u8ae6\u98a8\u5496\u5561","city":"taoyuan","wifi":5,"seat":5,"quiet":5,"tasty":5,"cheap":4,"music":5,"url":"https:\/\/www.facebook.com\/tiffforum\/","address":"320\u6843\u5712\u5e02\u4e2d\u58e2\u5340\u5efa\u570b\u5317\u8def9\u865f","latitude":"24.95686510","longitude":"121.22599430","limited_time":"maybe","socket":"no","standing_desk":"no","mrt":"","open_time":""},{"id":"eb58d26a-f6fa-4e7d-9664-149a94af3da4","name":"Mr.Coffee Grano\u683c\u857e\u8afe","city":"taoyuan","wifi":5,"seat":5,"quiet":5,"tasty":5,"cheap":5,"music":5,"url":"@Mr.Coffeegrano","address":"\u6843\u5712\u5e02\u6843\u5712\u5340\u5927\u8208\u8def288\u865f","latitude":"25.01649200","longitude":"121.31530470","limited_time":"no","socket":"maybe","standing_desk":"yes","mrt":"","open_time":""},{"id":"ed2c762d-cce3-4b36-bdf5-3a6c3cb43b70","name":"Lai cafe \u8cf4\u5728\u5bb6\u5496\u5561","city":"taoyuan","wifi":5,"seat":5,"quiet":5,"tasty":5,"cheap":5,"music":5,"url":"","address":"\u6843\u5712\u5e02\u5927\u5712\u5340\u9752\u6607\u8def\u4e00\u6bb548\u5df728\u865f","latitude":"25.01372740","longitude":"121.22414450","limited_time":"no","socket":"yes","standing_desk":"yes","mrt":"","open_time":""},{"id":"ed58eab7-2904-4fb7-95a2-7ca404d21e2c","name":"\u79cb\u7a57","city":"taoyuan","wifi":0,"seat":0,"quiet":0,"tasty":0,"cheap":0,"music":0,"url":"https:\/\/www.instagram.com\/_ears.of_\/","address":"\u6843\u5712\u5e02\u6843\u5712\u5340\u6148\u5149\u8857164\u5df716\u865f","latitude":"25.00800350","longitude":"121.30089420","limited_time":"","socket":"","standing_desk":"","mrt":"","open_time":""},{"id":"f0922e04-f4a4-41b5-899f-b9410cff9006","name":"\u8457\u624b\u5496\u5561\u6843\u5712\u5e97","city":"taoyuan","wifi":0,"seat":3,"quiet":4,"tasty":5,"cheap":4,"music":5,"url":"https:\/\/www.facebook.com\/coffeeintrointaoyuan","address":"\u6843\u5712\u5e02\u4e2d\u58e2\u5340\u6210\u529f\u8def135\u865f","latitude":"24.97635660","longitude":"121.25978300","limited_time":"","socket":"","standing_desk":"","mrt":"","open_time":""},{"id":"f0b4b542-b9ae-4a8d-9a04-fb4c9bcfd6e5","name":"\u516b\u584a\u756b\u5ba4","city":"taoyuan","wifi":5,"seat":5,"quiet":4,"tasty":5,"cheap":5,"music":5,"url":"https:\/\/www.facebook.com\/8kuai.atelierkafe\/","address":"\u6843\u5712\u7e23\u516b\u5fb7\u5e02\u9577\u8208\u8def46\u865f","latitude":"24.93045750","longitude":"121.28346030","limited_time":"maybe","socket":"no","standing_desk":"no","mrt":"","open_time":""},{"id":"f3260035-6dd4-42ba-9a40-260ac3df2e05","name":"NxCoffee","city":"taoyuan","wifi":0,"seat":4,"quiet":3,"tasty":4,"cheap":5,"music":4,"url":"","address":"330\u6843\u5712\u5e02\u6843\u5712\u5340\u6210\u529f\u8def\u4e09\u6bb51\u865f","latitude":"24.99793190","longitude":"121.32380370","limited_time":"maybe","socket":"maybe","standing_desk":"no","mrt":"","open_time":""},{"id":"f386f5e9-7f7f-4e63-b4a2-26f0a3148fe7","name":"at  CAFE","city":"taoyuan","wifi":4.5,"seat":4,"quiet":3.5,"tasty":4,"cheap":4,"music":4,"url":"","address":"\u6843\u5712\u5e02\u4e2d\u58e2\u5340\u6148\u60e0\u4e09\u8857 157\u5df714\u865f","latitude":"24.96402180","longitude":"121.22504160","limited_time":"no","socket":"yes","standing_desk":"yes","mrt":"","open_time":""},{"id":"f40f8a28-7290-42cc-a7cd-abd8fd4fc8ee","name":"\u7c73\u8afe\u5496\u5561\u9928","city":"taoyuan","wifi":0,"seat":0,"quiet":0,"tasty":0,"cheap":0,"music":0,"url":"https:\/\/www.facebook.com\/%E7%B1%B3%E8%AB%BE%E5%92%96%E5%95%A1%E9%A4%A8-179587068729256\/?fref=ts","address":"\u6843\u5712\u7e23\u5927\u6eaa\u93ae\u50d1\u611b\u4e00\u88576\u5df715\u865f","latitude":"24.92130390","longitude":"121.29276220","limited_time":"","socket":"","standing_desk":"","mrt":"","open_time":""},{"id":"f5848e36-3319-40e1-ade9-ce9aed962e71","name":"\u65e5\u4e0d\u843d\u5496\u5561","city":"taoyuan","wifi":5,"seat":5,"quiet":4.5,"tasty":5,"cheap":4.5,"music":5,"url":"https:\/\/www.facebook.com\/White-Nights-coffee-shop%E6%97%A5%E4%B8%8D%E8%90%BD%E5%92%96%E5%95%A1-1115038001915322\/","address":"\u4e2d\u58e2\u5340\u6148\u60e0\u4e09\u8857148\u865f","latitude":"24.96472100","longitude":"121.22598500","limited_time":"no","socket":"maybe","standing_desk":"yes","mrt":"","open_time":""},{"id":"f5b24b21-c830-44ac-bf8b-a28cb84b9f6a","name":"\u5e78\u798f53\u5496\u5561","city":"taoyuan","wifi":0,"seat":0,"quiet":0,"tasty":0,"cheap":0,"music":0,"url":"https:\/\/www.facebook.com\/uncertaincafe\/?fref=ts","address":"\u6843\u5712\u5e02\u516b\u5fb7\u5340\u5efa\u5b89\u885753\u865f","latitude":"24.95093590","longitude":"121.31985600","limited_time":"","socket":"","standing_desk":"","mrt":"","open_time":""},{"id":"f757f824-6f06-45a3-acd5-1a5fe48bd631","name":"\u65b9\u4ead\u5496\u5561 - \u4e2d\u58e2\u8208\u570b\u5e97","city":"taoyuan","wifi":0,"seat":5,"quiet":5,"tasty":5,"cheap":4,"music":4,"url":"https:\/\/www.facebook.com\/fountainchungli\/?ref=page_internal","address":"\u6843\u5712\u5e02\u4e2d\u58e2\u5340\u8208\u570b\u8def77\u865f1\u6a13","latitude":"24.95964860","longitude":"121.22074880","limited_time":"","socket":"maybe","standing_desk":"no","mrt":"","open_time":""},{"id":"fa9151c8-5a87-4565-94f9-8b58032620a5","name":"\u83f2\u62c9\u5e16\u5561","city":"taoyuan","wifi":0,"seat":0,"quiet":0,"tasty":0,"cheap":0,"music":0,"url":"https:\/\/website-1708288507471630503128-coffeestore.business.site\/","address":"\u6843\u5712\u5dff\u6843\u5712\u5340\u570b\u969b\u8def\u4e8c\u6bb5555\u865f","latitude":"25.00588270","longitude":"121.28593790","limited_time":"no","socket":"yes","standing_desk":"yes","mrt":"","open_time":"\u5047\u65e5\u4e0d\u5b9a\u671f\u6703\u958b"},{"id":"fad1227c-9957-471a-b0b6-48d875e111a6","name":"\u5f0e\u5496 \u03b8RICA CAFE","city":"taoyuan","wifi":0,"seat":0,"quiet":0,"tasty":0,"cheap":0,"music":0,"url":"https:\/\/www.instagram.com\/thrica_2020","address":"\u6843\u5712\u5e02\u4e2d\u58e2\u5340\u6587\u5316\u4e8c\u8def305\u865f","latitude":"24.97856160","longitude":"121.25017680","limited_time":"","socket":"","standing_desk":"","mrt":"","open_time":""},{"id":"fc926141-b5be-44de-bab5-b1e68017ea73","name":"\u7a40\u7a40\u5496\u5561","city":"taoyuan","wifi":5,"seat":5,"quiet":5,"tasty":5,"cheap":4,"music":5,"url":"https:\/\/www.facebook.com\/goodgoodcoffee\/","address":"\u6843\u5712\u5e02\u9f9c\u5c71\u5340\u6587\u5fb7\u8def82\u865f","latitude":"25.05764350","longitude":"121.38231790","limited_time":"no","socket":"yes","standing_desk":"yes","mrt":"","open_time":"10:00-19:00"},{"id":"fcc250fb-8625-43f6-a0c8-c62b70487e16","name":"\u8ff4\u61b6\u5496\u5561","city":"taoyuan","wifi":5,"seat":5,"quiet":5,"tasty":5,"cheap":5,"music":5,"url":"https:\/\/www.facebook.com\/memoriescafee\/?fref=ts","address":"\u6843\u5712\u7e23\u4e2d\u58e2\u5e02\u5ef6\u5e73\u8def\u5edf\u524d31\u865f","latitude":"24.96336320","longitude":"121.23290920","limited_time":"maybe","socket":"maybe","standing_desk":"no","mrt":"","open_time":"10:00~21:00"},{"id":"fd47fed0-ddf2-440c-bad2-8613619e0e1e","name":"Backdoor Cafe","city":"taoyuan","wifi":4,"seat":3.5,"quiet":3.5,"tasty":3,"cheap":3,"music":3.5,"url":"https:\/\/www.facebook.com\/backdoorcafe","address":"\u6843\u5712\u5e02\u4e2d\u58e2\u5340\u4e2d\u592e\u8def216\u5df79\u865f","latitude":"24.96448990","longitude":"121.19118520","limited_time":"no","socket":"yes","standing_desk":"yes","mrt":"","open_time":""},{"id":"ff345107-9fa8-4f33-87d7-697204680acb","name":"\u6cb9\u7530\u5496\u5561","city":"taoyuan","wifi":0,"seat":4,"quiet":4,"tasty":5,"cheap":5,"music":3,"url":"https:\/\/www.facebook.com\/pg\/yotencoffee","address":"\u6843\u5712\u5e02\u516b\u5fb7\u5340\u4ecb\u58fd\u8def\u4e8c\u6bb5393\u865f","latitude":"24.94731430","longitude":"121.29756590","limited_time":"","socket":"","standing_desk":"","mrt":"","open_time":""},{"id":"ff558399-7ba6-4119-9a95-ab3e02411a66","name":"\u9ed1\u8272\u516c\u5bd3\u85dd\u6587\u5496\u5561","city":"taoyuan","wifi":5,"seat":5,"quiet":3,"tasty":5,"cheap":4,"music":5,"url":"https:\/\/www.facebook.com\/blackapartment","address":"\u6843\u5712\u5e02\u694a\u6885\u5340\u65b0\u8fb2\u88574\u5df710\u865f","latitude":"24.90881700","longitude":"121.14608700","limited_time":"maybe","socket":"maybe","standing_desk":"no","mrt":"","open_time":""},{"id":"ffb44614-8a0c-41d1-a201-d84eb3409ca4","name":"\u9e7f\u9ede\u5496\u5561","city":"taoyuan","wifi":3,"seat":4,"quiet":3,"tasty":3.5,"cheap":2.5,"music":4.5,"url":"https:\/\/www.facebook.com\/caffepromisedlandsince2013\/","address":"\u6843\u5712\u5e02\u4e2d\u58e2\u5340\u5efa\u570b\u5317\u8def15\u865f","latitude":"24.95692290","longitude":"121.22610420","limited_time":"","socket":"","standing_desk":"","mrt":"","open_time":"11~21\uff0c\u7121\u516c\u4f11"}]}