{"data":[{"id":"00647eb2-1248-4af7-9c8a-409c5e0371da","name":"CAF\u00c9 SLOW TRAIN \u5c0f\u706b\u8eca\u5496\u5561\u9928","city":"yilan","wifi":4,"seat":4,"quiet":4,"tasty":4,"cheap":4,"music":4,"url":"https:\/\/www.facebook.com\/cafeslowtrain","address":"260\u5b9c\u862d\u7e23\u5b9c\u862d\u5e02\u548c\u7766\u8def6\u5df723\u865f","latitude":"24.75360900","longitude":"121.75674100","limited_time":"","socket":"yes","standing_desk":"yes","mrt":"","open_time":""},{"id":"033728b5-37f1-4dab-943c-3774403cea04","name":"Jessica kafa","city":"yilan","wifi":5,"seat":4.5,"quiet":4.5,"tasty":5,"cheap":5,"music":5,"url":"https:\/\/www.facebook.com\/Jessica-Kafa-669446293115311\/","address":"\u5b9c\u862d\u5e02\u5973\u4e2d\u8def\u4e8c\u6bb5516\u865f","latitude":"24.74480130","longitude":"121.74909230","limited_time":"no","socket":"","standing_desk":"no","mrt":"","open_time":"13:00~21:00"},{"id":"03afe2ec-2d55-4570-b1f1-5dc7eb6ce76e","name":"\u6600\u9802\u5496\u5561\u574a","city":"yilan","wifi":5,"seat":5,"quiet":4.5,"tasty":5,"cheap":5,"music":4.5,"url":"https:\/\/www.facebook.com\/coolandy0402\/","address":"\u5b9c\u862d\u7e23\u5b9c\u862d\u5e02\u6587\u5316\u8def11\u865f","latitude":"24.74927510","longitude":"121.74793000","limited_time":"no","socket":"maybe","standing_desk":"no","mrt":"","open_time":""},{"id":"056a997a-ca5a-43a2-a5bd-c56d035794eb","name":"\u65e5\u81fb\u5496\u5561 Zhen's Cafe","city":"yilan","wifi":4.5,"seat":4.5,"quiet":4.5,"tasty":4.5,"cheap":4,"music":4.5,"url":"https:\/\/www.facebook.com\/zhenscafe0402\/","address":"\u5b9c\u862d\u5e02\u5d50\u5cf0\u8def\u4e00\u6bb5290\u865f","latitude":"24.74219860","longitude":"121.74870170","limited_time":"no","socket":"yes","standing_desk":"no","mrt":"","open_time":"\u2605\u91cd\u8981\u516c\u544a\u2605 \u95c6\u5a18\u8981\u958b\u59cb\u6e96\u5099\u642c\u5bb6\u548c\u6210\u7acb\u65b0\u5de5\u4f5c\u5ba4, \u7121\u6cd5\u5f85\u5728\u5e97\u9762\u4e00\u6574\u5929, \u56e0\u6b64\u2026  10\/21~12\/10 \u5c0f\u5e97\u6539\u70ba\u9810\u7d04\u5236, \u6642\u9593\u7686\u53ef\u914d\u5408, \u4f46\u9700\u63d0\u524d2~5\u5929\u9810\u8a02, \u9810\u7d04\u5236\u671f\u9593\u5168\u54c1\u980585\u6298, \u9b06\u9905\u548c\u8f15\u98df\u8acb\u63d0\u524d2\u5929\u9810\u8a02\u3002  *\u8a3b\uff1a\u9810\u7d04\u5236\u671f\u9593\u4e5f\u63d0\u4f9b\u55ae\u7d14\u5834\u5730\u4f7f\u7528 (\u6559\u5b78. \u958b\u6703. \u684c\u904a...)  \u4eba\u6578\u6700\u591a10\u4eba, 100\u5143\/\u4eba (\u5834\u5730\u8cbb+\u6e05\u6f54\u8cbb, \u53ef\u6d88\u8cbb\u6298\u62b5\u98f2\u54c1)  #\u8a73\u60c5\u8acb\u53c3\u95b1\u7c89\u7d72\u9801\u670d\u52d9\u5167\u5bb9  12\/11~12\/31 \u5496\u5561\u9928\u4f11\u606f\u3002 -------------- #\u5f88\u91cd\u8981  1\/1\u8d77\u65e5\u81fb\u73c8\u7432\u5c07\u6539\u8b8a\u7d93\u71df\u6a21\u5f0f, \u5d50\u5cf0"},{"id":"06f03baf-1654-4f49-84bc-6e359c6d1cc9","name":"Cherry \u7d93\u5178\u5496\u5561","city":"yilan","wifi":5,"seat":5,"quiet":4.5,"tasty":4.5,"cheap":4,"music":4.5,"url":"https:\/\/www.facebook.com\/CherryCafe.Yilan\/","address":"\u5b9c\u862d\u7e23\u5b9c\u862d\u5e02\u4e2d\u83ef\u8def8\u865f","latitude":"24.74447480","longitude":"121.75484710","limited_time":"no","socket":"no","standing_desk":"no","mrt":"","open_time":""},{"id":"08d9bd4f-3e0b-4470-90f0-456558be3320","name":"\u6b46\u7aa9\u300esing\u2027cafe\u300f","city":"yilan","wifi":5,"seat":5,"quiet":4,"tasty":4,"cheap":4,"music":4,"url":"https:\/\/www.facebook.com\/%E6%AD%86%E7%AA%A9SingCafe-844062925712181\/","address":"\u5b9c\u862d\u5e02\u5065\u5eb7\u8def\u4e8c\u6bb559\u865f","latitude":"24.74670340","longitude":"121.75169930","limited_time":"no","socket":"maybe","standing_desk":"no","mrt":"","open_time":""},{"id":"0bcd5ba2-0796-4e04-8aa9-050ec35addfb","name":"\u746a\u5fb7\u7433 caf\u00e9 de madeleine","city":"yilan","wifi":0,"seat":0,"quiet":0,"tasty":0,"cheap":0,"music":0,"url":"","address":"\u5b9c\u862d\u7e23\u7901\u6eaa\u9109\u8305\u57d4\u8def17\u865f","latitude":"24.79837060","longitude":"121.78713350","limited_time":"","socket":"","standing_desk":"","mrt":"","open_time":""},{"id":"100a5e2d-b287-4487-9a59-d2455c746f64","name":"\u79be\u5b50\u5496\u5561","city":"yilan","wifi":5,"seat":5,"quiet":5,"tasty":5,"cheap":4,"music":4,"url":"https:\/\/www.facebook.com\/hzcoffee\/","address":"\u5b9c\u862d\u5e02\u8fb2\u6b0a\u8def\u4e09\u6bb5197\u5df71\u5f042\u865f Yilan City","latitude":"24.74894920","longitude":"121.73751190","limited_time":"no","socket":"","standing_desk":"no","mrt":"","open_time":""},{"id":"13ede237-555c-4dbf-a793-c9be8beecb10","name":"GOROGORO","city":"yilan","wifi":4.5,"seat":4,"quiet":5,"tasty":4,"cheap":4,"music":4,"url":"http:\/\/gorogoro187.pixnet.net\/blog","address":"\u5b9c\u862d\u7e23\u5b9c\u862d\u5e02\u4e2d\u5c71\u8def\u4e8c\u6bb5187\u5df725\u865f","latitude":"24.75008210","longitude":"121.75291360","limited_time":"no","socket":"maybe","standing_desk":"no","mrt":"","open_time":""},{"id":"16857a35-054c-4d03-892f-32c3c76072de","name":"\u54e5\u502b\u5e03\u5496\u5561","city":"yilan","wifi":0,"seat":5,"quiet":5,"tasty":4,"cheap":4,"music":0,"url":"https:\/\/www.facebook.com\/pages\/%E5%93%A5%E5%80%AB%E5%B8%83%E5%92%96%E5%95%A1%E5%BB%B3\/109254592490721","address":"\u5b9c\u862d\u7e23\u5b9c\u862d\u5e02\u4e2d\u83ef\u8def56\u865f","latitude":"24.74631800","longitude":"121.75418510","limited_time":"no","socket":"no","standing_desk":"no","mrt":"","open_time":""},{"id":"16908944-6f01-426e-a7ad-5a4618095bb3","name":"GK Coffee\uff08\u5e73\u5b89\u5c45\u5496\u5561\u6c11\u5bbf\uff09","city":"yilan","wifi":5,"seat":5,"quiet":5,"tasty":5,"cheap":4,"music":4,"url":"http:\/\/www.gkcoffee.com.tw","address":"\u5b9c\u862d\u7e23\u51ac\u5c71\u9109\u5fa9\u8208\u8def166\u865f","latitude":"24.67308510","longitude":"121.74758130","limited_time":"maybe","socket":"maybe","standing_desk":"yes","mrt":"","open_time":"10:00-20:00"},{"id":"1edabf40-9dd8-4a8e-89fa-d0d48983536b","name":"\u8c50\u5496\u5561\u4e94\u7d50\u5e97","city":"yilan","wifi":0,"seat":5,"quiet":5,"tasty":5,"cheap":4,"music":5,"url":"","address":"\u5b9c\u862d\u7e23\u4e94\u7d50\u9109\u4e2d\u8208\u8def3\u6bb5115\u865f","latitude":"24.69274480","longitude":"121.77027770","limited_time":"","socket":"","standing_desk":"","mrt":"","open_time":""},{"id":"235065e9-d2a3-47fd-9df6-73487bad5271","name":"\u8a9e\u5f8c\u5496\u5561 Ameagari Cafe","city":"yilan","wifi":5,"seat":5,"quiet":5,"tasty":5,"cheap":5,"music":5,"url":"https:\/\/www.facebook.com\/AmeagariCafe\/","address":"\u5b9c\u862d\u5e02\u5ef6\u5e73\u8def42\u5df76\u865f","latitude":"24.75488100","longitude":"121.76406300","limited_time":"no","socket":"yes","standing_desk":"no","mrt":"","open_time":""},{"id":"23cb017d-6d35-4ca1-a11a-3adde3f00601","name":"\u90c1\u898b\u5e78\u798f","city":"yilan","wifi":5,"seat":4,"quiet":4,"tasty":4,"cheap":5,"music":3,"url":"https:\/\/www.facebook.com\/yubakingstudio\/","address":"\u5b9c\u862d\u5e02\u5065\u5eb7\u8def\u4e8c\u6bb5117\u865f","latitude":"24.74816090","longitude":"121.75116550","limited_time":"no","socket":"no","standing_desk":"no","mrt":"","open_time":""},{"id":"30b39380-5a20-42c2-81fa-9547712a2ba7","name":"\u6d77\u795e\u5496\u5561 Poseidon Cafe","city":"yilan","wifi":5,"seat":5,"quiet":4.5,"tasty":5,"cheap":4.5,"music":4.5,"url":"https:\/\/www.facebook.com\/poseidoncafe.2018\/","address":"270\u5b9c\u862d\u7e23\u8607\u6fb3\u93ae\u9020\u8239\u8def106\u865f","latitude":"24.57910710","longitude":"121.87236000","limited_time":"maybe","socket":"maybe","standing_desk":"no","mrt":"","open_time":""},{"id":"32882a8c-a93c-4f6c-b765-a645f9652c5b","name":"\u7046\u5496\u5561Seaview Coffee","city":"yilan","wifi":5,"seat":4,"quiet":5,"tasty":4,"cheap":4,"music":4,"url":"https:\/\/www.facebook.com\/seaviewcoffee2017\/","address":"\u5b9c\u862d\u7e23\u982d\u57ce\u93ae\u5354\u5929\u8def636\u5df736-2\u865f","latitude":"24.85635000","longitude":"121.83195600","limited_time":"no","socket":"no","standing_desk":"no","mrt":"","open_time":""},{"id":"3c716d57-5475-40e7-a4ec-2b602c3a29d2","name":"\u590f\u81f3\u5496\u5561","city":"yilan","wifi":5,"seat":5,"quiet":4,"tasty":4,"cheap":4,"music":4,"url":"https:\/\/www.facebook.com\/gesicafe","address":"\u5b9c\u862d\u5e02\u4e2d\u83ef\u8def48\u865f1\u6a13","latitude":"24.74565400","longitude":"121.75459500","limited_time":"no","socket":"no","standing_desk":"no","mrt":"","open_time":""},{"id":"3fae93c2-bfb3-4b94-857e-c639f32f3ec7","name":"\u5e73\u5b89\u5c45\u6c11\u5bbf + GK coffee\u81ea\u5bb6\u70d8\u7119\u5496\u5561","city":"yilan","wifi":0,"seat":0,"quiet":0,"tasty":0,"cheap":0,"music":0,"url":"","address":"\u5b9c\u862d\u7e23\u51ac\u5c71\u9109\u5fa9\u8208\u8def166\u865f","latitude":"24.67290820","longitude":"121.74752110","limited_time":"","socket":"","standing_desk":"","mrt":"","open_time":""},{"id":"4038e542-25be-4f40-8a90-cd2de5a108e6","name":"\u63a2\u96aa\u5bb6\u5496\u5561","city":"yilan","wifi":0,"seat":0,"quiet":0,"tasty":0,"cheap":0,"music":0,"url":"https:\/\/www.facebook.com\/explorers2015","address":"\u5b9c\u862d\u7e23\u8607\u6fb3\u93ae\u65b0\u69ae\u8def13\u5df733\u865f","latitude":"24.62001210","longitude":"121.83386370","limited_time":"","socket":"","standing_desk":"","mrt":"","open_time":""},{"id":"4292cb1d-ad51-49a7-a191-b0c9138822a1","name":"\u5c0d\u7684\u5496\u5561\u5b78\u904a\u5de5\u5834 THE COFFEE CENTER","city":"yilan","wifi":0,"seat":3,"quiet":4,"tasty":4,"cheap":4,"music":2,"url":"","address":"\u5b9c\u862d\u7e23\u5b9c\u862d\u5e02\u6771\u6e2f\u8def5-7\u865f","latitude":"24.74841210","longitude":"121.78044680","limited_time":"","socket":"","standing_desk":"","mrt":"","open_time":""},{"id":"482e174c-7a26-4e19-bdb3-25586bb4e0ad","name":"\u5c0f\u773c\u775b\uff0e\u624b\u4f5c\uff0e\u5496\u5561\u9928","city":"yilan","wifi":5,"seat":5,"quiet":5,"tasty":5,"cheap":5,"music":5,"url":"https:\/\/www.facebook.com\/Smalleyescafe\/","address":"\u5b9c\u862d\u7e23\u54e1\u5c71\u9109\u6795\u5c71\u6751\u5761\u57ce\u8def5-5\u865f","latitude":"24.77356710","longitude":"121.70975000","limited_time":"no","socket":"no","standing_desk":"no","mrt":"","open_time":""},{"id":"4939eff6-9684-44e3-99d6-21708ac567b6","name":"\u9cf4\u8349\u5496\u5561","city":"yilan","wifi":5,"seat":3,"quiet":3,"tasty":4,"cheap":4,"music":4,"url":"https:\/\/www.facebook.com\/thesoundofgrass\/","address":"\u5b9c\u862d\u5e02\u78a7\u971e\u885720-1\u865f","latitude":"24.75976110","longitude":"121.75142900","limited_time":"no","socket":"no","standing_desk":"no","mrt":"","open_time":""},{"id":"4c30f27b-5731-4f48-8fcb-237013ddce39","name":"No.100\u5496\u5561\u96a8\u884c\u5427","city":"yilan","wifi":4,"seat":3,"quiet":3,"tasty":4,"cheap":4,"music":4,"url":"https:\/\/www.facebook.com\/NO.100cafe\/","address":"265 \u5b9c\u862d\u7e23\u7f85\u6771\u93ae\u4e2d\u6b63\u5357\u8def100\u865f","latitude":"24.66994300","longitude":"121.77155900","limited_time":"no","socket":"no","standing_desk":"yes","mrt":"","open_time":""},{"id":"4d48c951-e7ec-4f79-8e7b-a9d213d1f2c9","name":"HaoHaoKaffe(\u884c\u53e3\u6587\u65c5\u5e97)","city":"yilan","wifi":4.5,"seat":4.5,"quiet":4,"tasty":4.5,"cheap":3.5,"music":4,"url":"","address":"\u5b9c\u862d\u7e23\u5b9c\u862d\u5e02\u5eb7\u6a02\u8def14\u865f","latitude":"24.75567740","longitude":"121.75758790","limited_time":"no","socket":"maybe","standing_desk":"yes","mrt":"","open_time":"16:30\u4e4b\u5f8c\u90e8\u5206\u54c1\u9805\u672a\u4f9b\u61c9"},{"id":"4db108b9-f037-4fb7-84cf-bb92e4aaf57c","name":"\u5561Style\u7fa9\u5f0f\u5496\u5561\u63a8\u5ee3\u4e2d\u5fc3","city":"yilan","wifi":0,"seat":0,"quiet":0,"tasty":0,"cheap":0,"music":0,"url":"","address":"268\u5b9c\u862d\u7e23\u4e94\u7d50\u9109\u4e94\u7d50\u8def\u4e09\u6bb5\u4e00\u865f","latitude":"24.68427040","longitude":"121.79496770","limited_time":"","socket":"","standing_desk":"","mrt":"","open_time":""},{"id":"51ffe071-f7ce-46ec-8f70-bc4da90b6c65","name":"\u5408\u76db\u592a\u5e73\u5496\u5561","city":"yilan","wifi":0,"seat":0,"quiet":0,"tasty":0,"cheap":0,"music":0,"url":"","address":"\u5b9c\u862d\u7e23\u5b9c\u862d\u5e02\u4e2d\u5c71\u8def\u4e09\u6bb5145\u865f","latitude":"24.75929070","longitude":"121.75285870","limited_time":"","socket":"","standing_desk":"","mrt":"","open_time":""},{"id":"5c8fc6fe-911a-45ce-8454-6c202f6c21ae","name":"\u96b1\u85cf\u7248\u5c0f\u5496\u5561","city":"yilan","wifi":5,"seat":5,"quiet":5,"tasty":5,"cheap":4,"music":4,"url":"https:\/\/www.facebook.com\/lil.secretcafe\/","address":"\u5b9c\u862d\u7e23\u7f85\u6771\u93ae\u5b89\u5e73\u8def100\u865f","latitude":"24.67600520","longitude":"121.77273250","limited_time":"no","socket":"maybe","standing_desk":"yes","mrt":"","open_time":""},{"id":"5dec1642-6cbf-4d9e-b9ff-021f7dd9ce1e","name":"esencia cafe \u827e\u8056\u5e2d\u4e9e\u5496\u5561\u5c4b","city":"yilan","wifi":5,"seat":4,"quiet":5,"tasty":5,"cheap":5,"music":5,"url":"https:\/\/www.facebook.com\/esenciacafe\/","address":"\u5b9c\u862d\u7e23\u5b9c\u862d\u5e02\u6c11\u6b0a\u65b0\u8def281\u865f","latitude":"24.75164300","longitude":"121.74490900","limited_time":"no","socket":"maybe","standing_desk":"no","mrt":"","open_time":""},{"id":"6604d080-499c-41e9-b25e-16158ab3b212","name":"\u8001\u623f\u5b50\u5496\u5561","city":"yilan","wifi":0,"seat":0,"quiet":0,"tasty":0,"cheap":0,"music":0,"url":"","address":"\u7f85\u6771\u93ae\u6587\u5316\u885753\u865f","latitude":"24.67176800","longitude":"121.77010500","limited_time":"","socket":"","standing_desk":"","mrt":"","open_time":""},{"id":"67b4e52c-e359-4bba-9e4f-5e5dfcc3fe41","name":"\u5df7\u5149\u5496\u5561 to light coffee roasters","city":"yilan","wifi":0,"seat":4,"quiet":5,"tasty":5,"cheap":3,"music":5,"url":"https:\/\/www.facebook.com\/weTLCR\/","address":"265 \u5b9c\u862d\u7e23\u7f85\u6771\u93ae\u516c\u6b63\u885722\u865f","latitude":"24.67737530","longitude":"121.77118820","limited_time":"maybe","socket":"no","standing_desk":"no","mrt":"","open_time":""},{"id":"68ae98ae-e8ad-4581-800d-a84b8e82cead","name":"\u9999\u8349\u666f\u89c0\u5496\u5561 Vanilla Cafe-\u5b9c\u862d\u982d\u57ce\u5e97","city":"yilan","wifi":0,"seat":0,"quiet":0,"tasty":0,"cheap":0,"music":0,"url":"","address":"\u5b9c\u862d\u7e23\u982d\u57ce\u93ae\u5317\u5b9c\u8def\u4e00\u6bb5398\u865f","latitude":"24.85411950","longitude":"121.79647630","limited_time":"","socket":"","standing_desk":"","mrt":"","open_time":""},{"id":"696408a5-ed3c-4e48-8820-2cb43152f758","name":"\u7acb\u6b50\u5eda\u623f leo's cafe","city":"yilan","wifi":0,"seat":0,"quiet":0,"tasty":0,"cheap":0,"music":0,"url":"https:\/\/www.facebook.com\/Leos-Cafe-\u7acb\u6b50\u5eda\u623f-110450210468262\/","address":"\u5b9c\u862d\u7e23\u5b9c\u862d\u5e02\u8fb2\u6b0a\u8def\u4e09\u6bb5\u4e00\u865f\u4e00\u6a13","latitude":"24.74880010","longitude":"121.74273910","limited_time":"maybe","socket":"no","standing_desk":"no","mrt":"","open_time":""},{"id":"6c0f6d02-cedf-40a9-a619-dc4c830039a4","name":"\u5357\u6fb3\u597d\u7ce7\u98df\u5802 Good Eats Cafe","city":"yilan","wifi":5,"seat":4,"quiet":5,"tasty":3,"cheap":4,"music":3,"url":"https:\/\/www.facebook.com\/goodeatscafe\/","address":"\u8607\u6fb3\u93ae\u5357\u6fb3\u8def13-1\u865f","latitude":"24.46422340","longitude":"121.80490920","limited_time":"","socket":"","standing_desk":"","mrt":"","open_time":""},{"id":"740200e9-eaa6-47ba-91b4-672c1070c968","name":"Pocafes\u6ce2\u5496\u5561","city":"yilan","wifi":5,"seat":5,"quiet":4,"tasty":5,"cheap":4,"music":4,"url":"https:\/\/www.facebook.com\/Pocafes\/","address":"\u5b9c\u862d\u7e23\u7f85\u6771\u93ae\u7d14\u7cbe\u8def\u4e00\u6bb5192\u865f","latitude":"24.67316990","longitude":"121.76402620","limited_time":"no","socket":"maybe","standing_desk":"yes","mrt":"","open_time":"\u516c\u4f11\u65e5\u901a\u5e38\u70ba\u79ae\u62dc\u4e00\uff0c\u78ba\u5207\u6642\u9593\u516c\u5e03\u5728\u7c89\u5c08"},{"id":"74898d91-0dbd-4089-bfab-67510ac7f948","name":"\u8212\u5ba4\u5496\u5561","city":"yilan","wifi":4,"seat":5,"quiet":4,"tasty":4,"cheap":5,"music":4,"url":"https:\/\/www.facebook.com\/ShuZoom\/","address":"\u5b9c\u862d\u5e02\u6148\u5b89\u8def61\u865f","latitude":"24.75989390","longitude":"121.76314300","limited_time":"no","socket":"maybe","standing_desk":"no","mrt":"","open_time":""},{"id":"7509c810-3a15-4306-92ea-90dbe5dba74f","name":"ZeraCafe \u982d\u57ce\u7ad9\u820d","city":"yilan","wifi":0,"seat":0,"quiet":0,"tasty":0,"cheap":0,"music":0,"url":"","address":"\u5b9c\u862d\u7e23\u982d\u57ce\u93ae\u7ad9\u820d\u5df71\u865f","latitude":"24.85797390","longitude":"121.82249720","limited_time":"","socket":"","standing_desk":"","mrt":"","open_time":""},{"id":"76f77c16-b544-4673-a9ce-21ed6f098ee7","name":"\u4e5d\u865f\u5496\u5561\u97f3\u6a02\u5ee3\u5834","city":"yilan","wifi":0,"seat":5,"quiet":3,"tasty":4,"cheap":4,"music":4,"url":"https:\/\/www.facebook.com\/NO9cofee\/","address":"\u5b9c\u862d\u7e23\u7901\u6eaa\u9109\u6eab\u6cc9\u8def85\u865f","latitude":"24.82878170","longitude":"121.77333360","limited_time":"","socket":"","standing_desk":"","mrt":"","open_time":"10:30 - 23:00"},{"id":"7a84b5bd-14aa-435f-87d8-f5e85bafa432","name":"\u79ae\u7269\u5496\u5561","city":"yilan","wifi":0,"seat":5,"quiet":5,"tasty":4,"cheap":4,"music":4,"url":"https:\/\/www.facebook.com\/pages\/%E7%A6%AE%E7%89%A9%E5%92%96%E5%95%A1\/240856706059892?rf=437026456382427","address":"\u5b9c\u862d\u7e23\u7f85\u6771\u93ae\u5fa9\u8208\u8def\u4e00\u6bb56\u865f","latitude":"24.68218410","longitude":"121.77110390","limited_time":"no","socket":"no","standing_desk":"no","mrt":"","open_time":""},{"id":"7d02ca70-7be7-4ae7-9858-24c31701ee5d","name":"\u8dd1\u99ac\u5496\u5561 Paoma Cafe","city":"yilan","wifi":0,"seat":0,"quiet":0,"tasty":0,"cheap":0,"music":0,"url":"","address":"\u5b9c\u862d\u7e23\u7901\u6eaa\u9109\u5065\u5eb7\u4e00\u8857116\u865f","latitude":"24.83075200","longitude":"121.77313040","limited_time":"","socket":"","standing_desk":"","mrt":"","open_time":""},{"id":"81c6158e-a677-49d7-b552-5bc91152f074","name":"Deer's Caf\u00e9 \u9e7f \u5496\u5561\u5de5\u574a","city":"yilan","wifi":0,"seat":0,"quiet":0,"tasty":0,"cheap":0,"music":0,"url":"","address":"265\u5b9c\u862d\u7e23\u7f85\u6771\u93ae\u6797\u68ee\u8def105\u865f","latitude":"24.67975600","longitude":"121.76845000","limited_time":"","socket":"yes","standing_desk":"","mrt":"","open_time":""},{"id":"82b82cb4-3190-4039-9966-93a2ae848c76","name":"\u85cf\u9152\u9152\u838a","city":"yilan","wifi":5,"seat":5,"quiet":4.5,"tasty":3.5,"cheap":4,"music":3.5,"url":"","address":"\u5b9c\u862d\u7e23\u982d\u57ce\u93ae\u66f4\u65b0\u8def126-50\u865f","latitude":"24.90714720","longitude":"121.84946790","limited_time":"no","socket":"maybe","standing_desk":"no","mrt":"","open_time":""},{"id":"886a5e92-9e49-4df9-934c-c76e556a345f","name":"\u96c6\u5496\u5561","city":"yilan","wifi":0,"seat":0,"quiet":0,"tasty":0,"cheap":0,"music":0,"url":"","address":"\u5b9c\u862d\u7e23\u5b9c\u862d\u5e02\u8056\u5f8c\u8857177\u865f","latitude":"24.75886540","longitude":"121.75321060","limited_time":"","socket":"","standing_desk":"","mrt":"","open_time":""},{"id":"904c5a82-d64a-4346-90f6-e7375b5dd1a9","name":"\u7834\u5e03\u70cf\u5496\u5561 Popuwoo Cafe","city":"yilan","wifi":5,"seat":5,"quiet":5,"tasty":5,"cheap":5,"music":5,"url":"https:\/\/www.facebook.com\/%E7%A0%B4%E5%B8%83%E7%83%8F%E5%92%96%E5%95%A1-Popuwoo-Cafe-1176803449112932\/","address":"\u5b9c\u862d\u7e23\u4e09\u661f\u9109\u4e09\u661f\u8def\u516d\u6bb5465\u865f","latitude":"24.66341100","longitude":"121.63665200","limited_time":"no","socket":"maybe","standing_desk":"no","mrt":"","open_time":""},{"id":"93f2ae9d-50f3-452b-9dc7-190dfa3264e7","name":"NORIMORI Shop & House","city":"yilan","wifi":0,"seat":0,"quiet":0,"tasty":0,"cheap":0,"music":0,"url":"","address":"\u5b9c\u862d\u7e23\u51ac\u5c71\u9109\u4e38\u5c71\u4e94\u8def60\u5df713\u865f","latitude":"24.64263230","longitude":"121.75677390","limited_time":"","socket":"","standing_desk":"","mrt":"","open_time":""},{"id":"94e6bbee-cec2-4727-a5a2-f9c8fa4079a9","name":"\u5149\u89ba\u5496\u5561 Lighten Cafe","city":"yilan","wifi":4.5,"seat":5,"quiet":4,"tasty":5,"cheap":5,"music":5,"url":"https:\/\/www.facebook.com\/lightenCafe\/","address":" \u5b9c\u862d\u8607\u6fb3\u93ae\u4e2d\u539f\u8def228\u865f","latitude":"0.00000000","longitude":"0.00000000","limited_time":"no","socket":"maybe","standing_desk":"yes","mrt":"","open_time":""},{"id":"96439313-5b67-4cf4-8155-33f3cf1a710c","name":"Ori","city":"yilan","wifi":0,"seat":0,"quiet":0,"tasty":0,"cheap":0,"music":0,"url":"","address":"\u5b9c\u862d\u5e02\u6771\u6e2f\u8def\u4e8c\u6bb5441\u865f","latitude":"24.75590150","longitude":"121.76158370","limited_time":"","socket":"","standing_desk":"","mrt":"","open_time":""},{"id":"99a7cfc5-f2ef-47ca-a374-d6752b8d3bb9","name":"PonPon \u4e53\u4e53\u96dc\u8ca8\u5496\u5561","city":"yilan","wifi":0,"seat":0,"quiet":0,"tasty":0,"cheap":0,"music":0,"url":"","address":"\u5b9c\u862d\u7e23\u7901\u6eaa\u9109\u4fe1\u7fa9\u8def71\u865f","latitude":"24.82677810","longitude":"121.76988350","limited_time":"","socket":"","standing_desk":"","mrt":"","open_time":""},{"id":"a51e8a50-3247-4eb8-83f4-88d5fc541aca","name":"\u864e\u5496\u5561","city":"yilan","wifi":5,"seat":4.5,"quiet":4.5,"tasty":5,"cheap":4,"music":4.5,"url":"https:\/\/www.facebook.com\/whocafe\/","address":"\u5b9c\u862d\u7e23\u5b9c\u862d\u5e02\u570b\u69ae\u8def104\u865f","latitude":"24.75320810","longitude":"121.74711700","limited_time":"maybe","socket":"yes","standing_desk":"no","mrt":"","open_time":""},{"id":"a965e583-6a47-4032-9ebb-4dca56dc76c3","name":"\u597d\u68ee\u5496\u5561x \u8a3b\u66f8\u5e97","city":"yilan","wifi":5,"seat":5,"quiet":5,"tasty":3,"cheap":5,"music":5,"url":"https:\/\/www.facebook.com\/TREE.GIII\/","address":"\u5b9c\u862d\u7e23\u7f85\u6771\u93ae\u6797\u68ee\u8def117-1\u865f","latitude":"24.67982010","longitude":"121.76814800","limited_time":"no","socket":"yes","standing_desk":"no","mrt":"","open_time":""},{"id":"b293b180-81ea-442e-9fad-05070e12a960","name":" \u73a9\u9017\u6a39\u684c\u904a\u5496\u5561","city":"yilan","wifi":5,"seat":4,"quiet":4,"tasty":4,"cheap":5,"music":5,"url":"https:\/\/www.facebook.com\/pg\/oldmajorcoffee\/about\/?ref=page_internal","address":"\u5b9c\u862d\u7e23\u7f85\u6771\u93ae\u4e2d\u83ef\u8def154\u865f2F","latitude":"24.68144780","longitude":"121.76819060","limited_time":"no","socket":"maybe","standing_desk":"no","mrt":"","open_time":""},{"id":"b81068ce-daf0-4462-9105-2bd533c95978","name":"\u5c0f\u63ed\u5546\u884c Coffee Street CO.","city":"yilan","wifi":5,"seat":4,"quiet":2,"tasty":4,"cheap":5,"music":4,"url":"https:\/\/www.facebook.com\/CoffeeStreetCo24\/","address":"265 \u5b9c\u862d\u7e23\u7f85\u6771\u93ae\u516c\u6b63\u885717\u865f","latitude":"24.67745510","longitude":"121.77068670","limited_time":"no","socket":"no","standing_desk":"no","mrt":"","open_time":"\u71df\u696d\u6642\u9593\u8acb\u8a18\u5f97\u770b\u7c89\u7d72\u5718\u54e6"},{"id":"bdb5248a-5782-4b49-ac32-dcd1bcb06f0a","name":"\u9038\u5883 X \u5fc3\u5883","city":"yilan","wifi":5,"seat":5,"quiet":5,"tasty":4,"cheap":4,"music":5,"url":"","address":"\u5b9c\u862d\u5e02\u4e03\u5f35\u8def117\u865f","latitude":"24.75840200","longitude":"121.78355990","limited_time":"maybe","socket":"yes","standing_desk":"no","mrt":"","open_time":""},{"id":"bde1cb5b-8711-4f8d-ba73-48116757d42c","name":"\u65e5\u5409\u5496\u5561gooddaycafe'","city":"yilan","wifi":4,"seat":4,"quiet":4,"tasty":4,"cheap":4,"music":3,"url":"https:\/\/www.facebook.com\/gooddayDBM\/","address":"\u5b9c\u862d\u7e23\u5b9c\u862d\u5e02\u6771\u6e2f\u8def59-11\u865f","latitude":"24.75564790","longitude":"121.76176330","limited_time":"no","socket":"maybe","standing_desk":"no","mrt":"","open_time":"\u5982\u679c\u6709\u62ff\u5e97\u5bb6\u540d\u7247,\u4e0a\u9762\u6642\u9593\u5df2\u7d93\u66f4\u6539\u70ba\u7db2\u7ad9\u70ba\u4e3b,\u6253\u70ca\u6642\u9593\u70ba18:00\u6574"},{"id":"c1f8b4d0-4bfb-4c4c-b222-9f23e4fb851a","name":"DOG SPACE - \u5bf5\u7269\u7a7a\u9593","city":"yilan","wifi":5,"seat":5,"quiet":5,"tasty":5,"cheap":4,"music":4.5,"url":"https:\/\/www.facebook.com\/www.dogspace.com.tw\/","address":"\u5b9c\u862d\u7e23\u7901\u6eaa\u9109\u5fa9\u8208\u885741\u865f","latitude":"24.82410100","longitude":"121.77146350","limited_time":"no","socket":"yes","standing_desk":"yes","mrt":"","open_time":""},{"id":"c250c327-176f-44eb-8c2e-dd75c0069f46","name":"Stay\u65c5\u4eba\u66f8\u5e97","city":"yilan","wifi":0,"seat":5,"quiet":5,"tasty":0,"cheap":0,"music":5,"url":"https:\/\/www.facebook.com\/pg\/staytravelerbookstore\/about\/?ref=page_internal","address":"\u5b9c\u862d\u5e02\u78a7\u971e\u885714\u865f\u3001\u5b9c\u862d\u5e02\u5eb7\u6a02\u8def14\u865f\u884c\u53e3\u6587\u65c5","latitude":"24.75564600","longitude":"121.75751910","limited_time":"no","socket":"maybe","standing_desk":"yes","mrt":"","open_time":""},{"id":"c3583caf-322a-4b17-9c6f-601d5d2b4494","name":"\u63e1\u5496\u5561Oh\uff01cafe \u5b9c\u862d\u7f85\u6771\u5e97","city":"yilan","wifi":5,"seat":4,"quiet":4,"tasty":5,"cheap":5,"music":5,"url":"https:\/\/www.facebook.com\/pg\/ohcafeilan\/about\/?ref=page_internal","address":"265\u5b9c\u862d\u7e23\u7f85\u6771\u93ae\u7d14\u7cbe\u8def\u4e09\u6bb5453\u865f","latitude":"24.68821200","longitude":"121.77025610","limited_time":"no","socket":"maybe","standing_desk":"yes","mrt":"","open_time":""},{"id":"c5fcaf08-335f-405d-a674-a325767e01cc","name":"\u820a\u66f8\u6ac3-\u4e8c\u624b\u66f8 \u5496\u5561 \u8f15\u98df","city":"yilan","wifi":4,"seat":4,"quiet":4,"tasty":4,"cheap":4,"music":4,"url":"https:\/\/www.facebook.com\/yilanbooks\/","address":"\u5b9c\u862d\u5e02\u5b9c\u8208\u8def\u4e00\u6bb5280\u865f","latitude":"24.75617080","longitude":"121.75824040","limited_time":"","socket":"no","standing_desk":"yes","mrt":"","open_time":"11\uff1a00:-21:30 \u9031\u4e8c\u4f11"},{"id":"cc17538e-d5b4-4486-b7f0-4132d71614a9","name":"dew 36 \u7dbb\u9732 coffee elite","city":"yilan","wifi":5,"seat":4,"quiet":4,"tasty":4,"cheap":4,"music":4,"url":"https:\/\/www.facebook.com\/dew36elite\/","address":"\u5b9c\u862d\u5e02\u5973\u4e2d\u8def\u4e8c\u6bb5385\u865f","latitude":"24.74508000","longitude":"121.75227910","limited_time":"no","socket":"no","standing_desk":"no","mrt":"","open_time":""},{"id":"cc1b0661-b929-4149-a0a1-d438fd0f29d6","name":"Aqua Cafe \u6c34\u8272\u5496\u5561","city":"yilan","wifi":0,"seat":0,"quiet":0,"tasty":0,"cheap":0,"music":0,"url":"","address":"\u82b1\u84ee\u7e23\u5409\u5b89\u9109\u5409\u7965\u4e03\u885713\u865f","latitude":"23.97385100","longitude":"121.58083890","limited_time":"","socket":"no","standing_desk":"no","mrt":"","open_time":""},{"id":"cd78321f-ce02-463d-8e66-aa41058a8ea0","name":"\u54c1\u54c199 \u5496\u5561 \u8f15\u98df","city":"yilan","wifi":0,"seat":0,"quiet":0,"tasty":0,"cheap":0,"music":0,"url":"","address":"268\u5b9c\u862d\u7e23\u4e94\u7d50\u9109\u93ae\u5b89\u8def63\u5df72\u865f","latitude":"24.70662580","longitude":"121.76735150","limited_time":"","socket":"","standing_desk":"","mrt":"","open_time":""},{"id":"cde192a3-8668-4094-a3c0-ee8a670c946c","name":"\u9017\u9017\u5546\u865f","city":"yilan","wifi":5,"seat":4,"quiet":4,"tasty":4,"cheap":4,"music":4,"url":"https:\/\/www.facebook.com\/DouKafe\/","address":"\u5b9c\u862d\u7e23\u5b9c\u862d\u5e02\u5f18\u5fd7\u8def81\u865f","latitude":"24.74830690","longitude":"121.75214800","limited_time":"no","socket":"maybe","standing_desk":"no","mrt":"","open_time":""},{"id":"cebc038b-2fa6-4717-a212-a214d25ee2b9","name":"\u548c\u5e73\u8857\u5c4b","city":"yilan","wifi":0,"seat":3,"quiet":4,"tasty":5,"cheap":3,"music":0,"url":"https:\/\/www.facebook.com\/%E5%92%8C%E5%B9%B3%E8%A1%97%E5%B1%8B-188237697932692\/","address":"\u5b9c\u862d\u7e23\u982d\u57ce\u93ae\u548c\u5e73\u8857135\u4e4b2\u865f","latitude":"24.85817300","longitude":"121.82432700","limited_time":"no","socket":"","standing_desk":"","mrt":"","open_time":""},{"id":"ced6ba61-2234-4373-adc7-25214c53b2c8","name":"\u888b\u9f20\u5496\u5561","city":"yilan","wifi":0,"seat":4.5,"quiet":4,"tasty":5,"cheap":4,"music":4,"url":"","address":"265\u5b9c\u862d\u7e23\u7f85\u6771\u93ae\u5fe0\u5b5d\u8def99\u865f","latitude":"24.67781400","longitude":"121.76523800","limited_time":"","socket":"","standing_desk":"","mrt":"","open_time":""},{"id":"d0f4ba73-c744-457c-b4cf-a8a1a0e29bff","name":"\u5927\u624b\u5c0f\u624b\u5496\u5561\u5c4b","city":"yilan","wifi":0,"seat":0,"quiet":0,"tasty":0,"cheap":0,"music":0,"url":"","address":"260\u5b9c\u862d\u7e23\u5b9c\u862d\u5e02\u5efa\u696d\u8def85\u865f","latitude":"24.72729500","longitude":"121.75755310","limited_time":"","socket":"","standing_desk":"","mrt":"","open_time":""},{"id":"d1f38364-bc6c-4d2d-b7e7-0f981cc8d029","name":"\u6563\u6b65Cafe Sanpo","city":"yilan","wifi":5,"seat":5,"quiet":4,"tasty":5,"cheap":5,"music":5,"url":"https:\/\/www.facebook.com\/sanpo2015\/","address":"\u5b9c\u862d\u7e23\u5b9c\u862d\u5e02\u548c\u7766\u8def2-20\u865f","latitude":"24.75049400","longitude":"121.75502800","limited_time":"no","socket":"maybe","standing_desk":"no","mrt":"","open_time":""},{"id":"d4cac5dc-768d-464e-a47d-f8694c399c9b","name":"Resort Brew Coffee Co.","city":"yilan","wifi":5,"seat":4.5,"quiet":3.5,"tasty":3,"cheap":3,"music":4,"url":"","address":"\u5b9c\u862d\u5e02\u8fb2\u6b0a\u8def\u4e8c\u6bb530\u865f","latitude":"24.74721480","longitude":"121.74861370","limited_time":"no","socket":"maybe","standing_desk":"yes","mrt":"","open_time":"\u4e00~\u4e9410:30-18:30 \/ \u516d.\u65e5 9:30-18:30"},{"id":"d83b252c-295c-441e-870f-1cd36c271189","name":"\u6b50\u9e9f\u5496\u5561\u9928","city":"yilan","wifi":4,"seat":4,"quiet":4,"tasty":4,"cheap":4,"music":4,"url":"https:\/\/www.facebook.com\/oulincoffeeshop\/","address":"\u5b9c\u862d\u5e02\u5973\u4e2d\u8def\u4e8c\u6bb5389\u865f1\u6a13","latitude":"24.74505310","longitude":"121.75219270","limited_time":"no","socket":"no","standing_desk":"no","mrt":"","open_time":"\u71df\u696d\u6642\u9593\u4ee5\u7c89\u7d72\u5718\u70ba\u4e3b"},{"id":"dc365e64-79d3-43de-bb30-ec976cc37813","name":"\u5b9a\u90a6\u5496\u5561","city":"yilan","wifi":0,"seat":0,"quiet":0,"tasty":0,"cheap":0,"music":0,"url":"","address":"\u5b9c\u862d\u7e23\u7901\u6eaa\u9109\u767d\u96f2\u4e8c\u8def173\u865f","latitude":"24.83068530","longitude":"121.78475710","limited_time":"","socket":"","standing_desk":"","mrt":"","open_time":""},{"id":"dd65c9c1-cf82-44d0-a472-f45ef5eb6d83","name":"\u4e00\u5f04\u5496\u5561","city":"yilan","wifi":5,"seat":5,"quiet":5,"tasty":4,"cheap":4,"music":3,"url":"https:\/\/www.facebook.com\/%E4%B8%80%E5%BC%84%E5%92%96%E5%95%A1-747592638662867\/","address":"\u5b9c\u862d\u7e23\u5b9c\u862d\u5e02\u9032\u58eb\u8def151\u5df71\u5f042\u865f","latitude":"24.74413750","longitude":"121.74736750","limited_time":"no","socket":"no","standing_desk":"no","mrt":"","open_time":""},{"id":"e20a777a-d43c-45f7-a3ab-0d492e3d21e6","name":"\u6587\u9ce5\u516c\u5bd3","city":"yilan","wifi":5,"seat":4,"quiet":4,"tasty":5,"cheap":4,"music":4,"url":"https:\/\/www.facebook.com\/buncho.apartment","address":"\u65b0\u5317\u5e02\u677f\u6a4b\u5340\u570b\u6cf0\u8857120\u865f","latitude":"0.00000000","longitude":"0.00000000","limited_time":"no","socket":"maybe","standing_desk":"yes","mrt":"","open_time":"\u81e8\u6642\u516c\u4f11\u6703\u65bc\u7c89\u7d72\u5c08\u9801\u516c\u544a"},{"id":"e2a42637-3120-4201-a5c0-0d47b4c448ae","name":"Full House Coffee","city":"yilan","wifi":0,"seat":5,"quiet":5,"tasty":5,"cheap":3,"music":5,"url":"https:\/\/www.facebook.com\/FullHouseCoffee\/","address":"\u5b9c\u862d\u7e23\u5b9c\u862d\u5e02\u64fa\u5398\u8def9-8\u865f","latitude":"24.74266920","longitude":"121.75255260","limited_time":"","socket":"no","standing_desk":"yes","mrt":"","open_time":""},{"id":"e526bfd5-abc6-4667-bf27-a14fafc02ac1","name":"\u4e4b\u9593\uff1b","city":"yilan","wifi":5,"seat":5,"quiet":5,"tasty":5,"cheap":5,"music":5,"url":"https:\/\/www.facebook.com\/zhijianbookscafe","address":"\u5b9c\u862d\u7e23\u5b9c\u862d\u5e02\u6b66\u71df\u885772\u865f\u4e00\u6a13","latitude":"24.75701720","longitude":"121.75036690","limited_time":"no","socket":"no","standing_desk":"no","mrt":"","open_time":"\uff08\u6bcf\u9031\u4e94\u70ba\u516c\u4f11\u65e5\uff0c\u5076\u6703\u6709\u81e8\u6642\u5e97\u4f11\u3002\uff09"},{"id":"ea989c8d-b177-4ac7-bf9a-9e24a93a2688","name":"\u91cc\u6d77\u5496\u5561","city":"yilan","wifi":0,"seat":0,"quiet":0,"tasty":0,"cheap":0,"music":0,"url":"","address":"\u5b9c\u862d\u7e23\u7901\u6eaa\u9109\u548c\u5e73\u8def107\u865f","latitude":"24.82320430","longitude":"121.76652390","limited_time":"","socket":"","standing_desk":"","mrt":"","open_time":""},{"id":"eea24637-a454-4067-9771-5393a93b0839","name":"Caf\u00e9 SoDavid","city":"yilan","wifi":4,"seat":5,"quiet":5,"tasty":4.5,"cheap":4,"music":5,"url":"","address":"\u5b9c\u862d\u7e23\u7f85\u6771\u93ae\u4e2d\u83ef\u8def255\u865f","latitude":"24.68608290","longitude":"121.76946880","limited_time":"no","socket":"maybe","standing_desk":"yes","mrt":"","open_time":"14:00-19:00"},{"id":"eef9222f-0210-48c9-872d-46bd65828a79","name":"Link88","city":"yilan","wifi":5,"seat":5,"quiet":4.5,"tasty":4.5,"cheap":4.5,"music":4.5,"url":"","address":"\u5b9c\u862d\u7e23\u8607\u6fb3\u93ae\u4e2d\u5c71\u8def\u4e00\u6bb588\u865f","latitude":"24.59604630","longitude":"121.85082100","limited_time":"","socket":"maybe","standing_desk":"no","mrt":"","open_time":""},{"id":"f4d501f2-71a9-4de8-a1f7-c477c9c684f1","name":"\u767b\u51fa\u5496\u5561","city":"yilan","wifi":4,"seat":5,"quiet":5,"tasty":4.5,"cheap":4.5,"music":4.5,"url":"https:\/\/www.facebook.com\/Logout_workshop-106581557628671\/","address":"260\u5b9c\u862d\u7e23\u5b9c\u862d\u5e02\u6c11\u6b0a\u8def\u4e8c\u6bb57\u865f","latitude":"24.75310300","longitude":"121.75107580","limited_time":"no","socket":"maybe","standing_desk":"yes","mrt":"","open_time":"\u71df\u696d\u6642\u9593\u53c3\u8003\u5e97\u5bb6\u7c89\u7d72\u5718"},{"id":"fab4d0b8-114a-4459-b5cf-f415ab35a1bf","name":"\u718a\u4f86\u4e86","city":"yilan","wifi":5,"seat":4,"quiet":4,"tasty":4,"cheap":4.5,"music":4.5,"url":"https:\/\/www.facebook.com\/wemacafe\/","address":"\u5b9c\u862d\u7e23\u5b9c\u862d\u5e02\u6c11\u6b0a\u8def\u4e8c\u6bb5178\u865f","latitude":"24.75662020","longitude":"121.74747140","limited_time":"no","socket":"no","standing_desk":"no","mrt":"","open_time":""}]}