{"data":[{"id":"06044732-8a40-4487-b0dc-6f848bc0dd9e","name":"Easy Coffee \u73fe\u70d8\u624b\u6c96\u5496\u5561\u5e97","city":"yunlin","wifi":0,"seat":0,"quiet":0,"tasty":0,"cheap":0,"music":0,"url":"","address":"\u96f2\u6797\u7e23\u9ea5\u5bee\u9109\u4e2d\u6b63\u8def89\u865f","latitude":"23.74858400","longitude":"120.25359000","limited_time":"","socket":"","standing_desk":"","mrt":"","open_time":""},{"id":"0a647b97-6de9-4889-bb30-03014f827df9","name":"\u9d3b\u8c46\u738b\u570b-\u53f0\u7063\u7cbe\u54c1\u5496\u5561\u9928","city":"yunlin","wifi":0,"seat":0,"quiet":0,"tasty":0,"cheap":0,"music":0,"url":"","address":"640\u96f2\u6797\u7e23\u6597\u516d\u5e02\u4ec1\u7fa9\u8def3\u4e4b10\u865f","latitude":"23.68994580","longitude":"120.53860380","limited_time":"","socket":"","standing_desk":"","mrt":"","open_time":""},{"id":"12af0fb3-2b5f-4ef2-be45-f2c7d022151e","name":"AJ CAFE","city":"yunlin","wifi":5,"seat":5,"quiet":4.5,"tasty":4.5,"cheap":4.5,"music":5,"url":"https:\/\/www.facebook.com\/pages\/AJ-Cafe\/155461324567731?fref=ts","address":"632\u96f2\u6797\u7e23\u864e\u5c3e\u93ae\u6c11\u4e3b\u8def18-7\u865f","latitude":"23.70453620","longitude":"120.43163400","limited_time":"no","socket":"maybe","standing_desk":"no","mrt":"","open_time":""},{"id":"1711ef87-8c56-4948-a52f-da323477d542","name":"\u5b63\u7bc0\u5496\u5561","city":"yunlin","wifi":0,"seat":5,"quiet":5,"tasty":5,"cheap":5,"music":3,"url":"","address":"\u96f2\u6797\u7e23\u5317\u6e2f\u93ae\u6587\u660c\u8def93\u865f","latitude":"23.57482570","longitude":"120.29980520","limited_time":"no","socket":"no","standing_desk":"no","mrt":"","open_time":""},{"id":"176c71a3-fb15-4bc2-b1be-29a2ab42aab2","name":"\u6a3a\u9109\u5496\u5561\u838a\u5712","city":"yunlin","wifi":5,"seat":4,"quiet":5,"tasty":5,"cheap":3,"music":5,"url":"http:\/\/blog.xuite.net\/mr.coffee\/cafe","address":"\u96f2\u6797\u7e23\u53e4\u5751\u9109\u6843\u6e901-5\u865f","latitude":"23.59949540","longitude":"120.60394740","limited_time":"no","socket":"yes","standing_desk":"","mrt":"","open_time":"\u8001\u95c6\u51fa\u570b\u65c5\u884c\u5c31\u6c92\u71df\u696d"},{"id":"1f65d6de-2f73-4f04-9b92-8ce2ac9b6156","name":"\u798f\u65af\u5496\u5561","city":"yunlin","wifi":0,"seat":0,"quiet":0,"tasty":0,"cheap":0,"music":0,"url":"https:\/\/m.facebook.com\/758892514154266\/","address":"632\u96f2\u6797\u7e23\u864e\u5c3e\u93ae\u4e2d\u6b63\u8def396\u865f","latitude":"23.70297320","longitude":"120.42792110","limited_time":"maybe","socket":"maybe","standing_desk":"yes","mrt":"","open_time":""},{"id":"23bb15d0-47a9-4dbe-8645-d0d3d2d3e470","name":"\u543e\u611b\u543e\u5bb6","city":"yunlin","wifi":5,"seat":5,"quiet":4,"tasty":5,"cheap":4,"music":5,"url":"","address":"\u96f2\u6797\u7e23\u6597\u516d\u5e02\u5927\u540c\u8def59\u865f","latitude":"23.70964540","longitude":"120.54321310","limited_time":"no","socket":"yes","standing_desk":"no","mrt":"","open_time":""},{"id":"2c486934-7d1a-459f-bdd4-e0a9bf26987e","name":"\u6d77\u5bb4\u4f11\u9592\u8fb2\u838a","city":"yunlin","wifi":3,"seat":4,"quiet":3,"tasty":5,"cheap":5,"music":4,"url":"http:\/\/www.hiya218.com.tw","address":"\u96f2\u6797\u7e23\u53e4\u5751\u9109\u6842\u6797\u6751\u6843\u6e90\u8def1-8\u597d","latitude":"23.59874640","longitude":"120.60302850","limited_time":"no","socket":"maybe","standing_desk":"no","mrt":"","open_time":"10:00-21:00"},{"id":"2f1eec58-f99f-48ae-b95b-487e3c891514","name":"\u5c71\u598d\u6155\u590f\u838a\u5712\u5496\u5561","city":"yunlin","wifi":0,"seat":0,"quiet":0,"tasty":0,"cheap":0,"music":0,"url":"","address":"646\u96f2\u6797\u7e23\u53e4\u5751\u9109\u83ef\u5c71\u675155\u4e4b1\u865f","latitude":"23.59633600","longitude":"120.59336150","limited_time":"","socket":"","standing_desk":"","mrt":"","open_time":""},{"id":"2fcbe1e1-ab3e-4923-854f-c214b2cdda81","name":"\u4e38\u5496\u5561","city":"yunlin","wifi":0,"seat":3,"quiet":5,"tasty":5,"cheap":5,"music":5,"url":"https:\/\/www.facebook.com\/%E4%B8%B8%E5%92%96%E5%95%A1%E5%A4%96%E5%B8%B6%E5%90%A7-1040503635980174\/","address":"\u6597\u5357\u93ae\u5357\u660c\u8def104\u865f","latitude":"23.67325240","longitude":"120.47957740","limited_time":"no","socket":"maybe","standing_desk":"yes","mrt":"","open_time":""},{"id":"35e35216-0b10-4272-9fd4-6312121737fc","name":"\u6aac\u6995MonRon","city":"yunlin","wifi":0,"seat":4,"quiet":4,"tasty":5,"cheap":5,"music":5,"url":"","address":"\u96f2\u6797\u7e23\u5317\u6e2f\u93ae\u6c11\u4eab\u8def33-5\u865f","latitude":"23.57460450","longitude":"120.30069100","limited_time":"no","socket":"no","standing_desk":"no","mrt":"","open_time":""},{"id":"376398c1-42d2-4501-a503-4abd1afbd7a5","name":"\u9a37\u5496\u5561","city":"yunlin","wifi":4.5,"seat":4.5,"quiet":1.5,"tasty":2,"cheap":4,"music":2,"url":"","address":"\u96f2\u6797\u7e23\u6597\u516d\u5e02\u6587\u5316\u8def15\u865f","latitude":"23.71098410","longitude":"120.54390840","limited_time":"","socket":"","standing_desk":"","mrt":"","open_time":""},{"id":"49427378-6178-4e1f-9be9-8a9f8b9725b7","name":"","city":"yunlin","wifi":0,"seat":0,"quiet":0,"tasty":0,"cheap":0,"music":0,"url":"","address":"","latitude":"0.00000000","longitude":"0.00000000","limited_time":"maybe","socket":"yes","standing_desk":"no","mrt":"","open_time":""},{"id":"4e24cc72-7ab3-41b4-bf39-9916142e225b","name":"AOKI\u5496\u5561","city":"yunlin","wifi":0,"seat":0,"quiet":0,"tasty":0,"cheap":0,"music":0,"url":"","address":"\u96f2\u6797\u7e23\u5317\u6e2f\u93ae\u592a\u5e73\u8def89\u865f","latitude":"23.57952400","longitude":"120.30580220","limited_time":"","socket":"","standing_desk":"","mrt":"","open_time":""},{"id":"4e52bb1f-c9b9-4583-a832-d01976ede1b2","name":"\u9b54\u8853\u5e3d\u81ea\u5bb6\u70d8\u7119\u5496\u5561","city":"yunlin","wifi":5,"seat":5,"quiet":5,"tasty":5,"cheap":4,"music":4,"url":"https:\/\/m.facebook.com\/magichatcafe\/?locale2=zh_TW","address":"\u96f2\u6797\u7e23\u5317\u6e2f\u93ae\u8208\u9686\u885756\u865f","latitude":"23.58172400","longitude":"120.30312290","limited_time":"maybe","socket":"yes","standing_desk":"no","mrt":"","open_time":"\u4e0d\u5b9a\u6642\u516c\u4f11\u9808\u53c3\u8003\u7c89\u7d72\u5718"},{"id":"55ea33ce-e2b6-424c-9dcf-6f49b497df0d","name":"57 Coffee Roasting","city":"yunlin","wifi":0,"seat":0,"quiet":0,"tasty":0,"cheap":0,"music":0,"url":"http:\/\/57.liteshop.tw","address":"","latitude":"23.57027660","longitude":"120.30045640","limited_time":"","socket":"","standing_desk":"no","mrt":"","open_time":"\u7cbe\u54c1\u5496\u5561\u8c46\u96f6\u552e\u6279\u767c\uff0c\u7121\u5167\u7528"},{"id":"57c03c3e-fbf6-4d7b-8b99-f43188428cdd","name":"\u963f\u90e8\u662d\u73c8\u7432\u838a\u5712","city":"yunlin","wifi":0,"seat":0,"quiet":0,"tasty":0,"cheap":0,"music":0,"url":"","address":"646\u96f2\u6797\u7e23\u53e4\u5751\u9109607\u865f","latitude":"23.64497810","longitude":"120.56374100","limited_time":"","socket":"","standing_desk":"","mrt":"","open_time":""},{"id":"5f51f637-d035-4771-b58b-ede546e96619","name":"\u6c38\u5149\u6545\u4e8b\u5c4b-\u96a8\u8208\u6c96\u5496\u5561","city":"yunlin","wifi":0,"seat":0,"quiet":0,"tasty":0,"cheap":0,"music":0,"url":"","address":"\u96f2\u6797\u7e23\u53e4\u5751\u9109\u6587\u660c\u8def58-4\u865f","latitude":"23.62497640","longitude":"120.55431420","limited_time":"","socket":"","standing_desk":"","mrt":"","open_time":""},{"id":"68a86d0c-5c4a-405e-a035-ebda486133ef","name":"\u8cb3\u6708 February Drink&Food","city":"yunlin","wifi":0,"seat":0,"quiet":0,"tasty":0,"cheap":0,"music":0,"url":"","address":"\u96f2\u6797\u7e23\u864e\u5c3e\u93ae\u4e2d\u5c71\u91cc\u65b0\u8208\u8def30\u865f","latitude":"23.70793000","longitude":"120.43542060","limited_time":"","socket":"","standing_desk":"","mrt":"","open_time":""},{"id":"6cc61c66-dc59-43ae-b291-4c8b28ea3da2","name":"\u5154\u5b50\u306e\u7aa9 Coffee House","city":"yunlin","wifi":0,"seat":5,"quiet":5,"tasty":5,"cheap":5,"music":4,"url":"https:\/\/www.facebook.com\/%E5%85%94%E5%AD%90%E3%81%AE%E7%AA%A9-Coffee-House-1390857114468380\/","address":"\u96f2\u6797\u7e23\u864e\u5c3e\u93ae\u65b0\u8208\u8def23\u865f","latitude":"23.70758470","longitude":"120.43550780","limited_time":"","socket":"no","standing_desk":"","mrt":"","open_time":""},{"id":"6cd8ea22-803e-463a-9a57-046e253c46cf","name":"\u539f\u57df\u5496\u5561","city":"yunlin","wifi":5,"seat":4.5,"quiet":4.5,"tasty":5,"cheap":4,"music":4.5,"url":"https:\/\/www.facebook.com\/cafeoriginalzone\/?fref=ts","address":"\u96f2\u6797\u7e23\u6597\u516d\u5e02\u5e9c\u524d\u8857103\u865f","latitude":"23.70550880","longitude":"120.54189990","limited_time":"no","socket":"maybe","standing_desk":"yes","mrt":"","open_time":""},{"id":"7a432294-9b7a-4a64-bea0-f171ecbaeb2e","name":"\u7389\u6d25\u5496\u5561\u864e\u5c3e\u5e97","city":"yunlin","wifi":0,"seat":0,"quiet":0,"tasty":0,"cheap":0,"music":0,"url":"","address":"632\u96f2\u6797\u7e23\u864e\u5c3e\u93ae\u81ea\u5f37\u885729\u865f","latitude":"23.70480350","longitude":"120.42763300","limited_time":"maybe","socket":"yes","standing_desk":"no","mrt":"","open_time":""},{"id":"8334a2bb-6708-4a95-a7c5-4fe6a8a263d0","name":"\u96a8\u8208\u6c96\u3002\u5496\u5561","city":"yunlin","wifi":5,"seat":5,"quiet":3,"tasty":5,"cheap":5,"music":3,"url":"https:\/\/m.facebook.com\/Casual0314\/","address":"\u96f2\u6797\u7e23\u53e4\u5751\u9109\u6c38\u660c\u6751\u6c38\u8208\u8def38\u865f","latitude":"23.62624820","longitude":"120.55218940","limited_time":"no","socket":"yes","standing_desk":"","mrt":"","open_time":""},{"id":"8e28a373-64a2-4a7b-98fc-587a4e233d9a","name":"\u5e03\u91cc\u5409\u5496\u5561","city":"yunlin","wifi":5,"seat":5,"quiet":4.5,"tasty":5,"cheap":5,"music":5,"url":"","address":"651\u96f2\u6797\u7e23\u5317\u6e2f\u93ae\u6c11\u4e3b\u8def120-122\u865f","latitude":"23.56892270","longitude":"120.30094570","limited_time":"no","socket":"","standing_desk":"","mrt":"","open_time":""},{"id":"973d2de3-daa5-4bd0-ab54-a55fbb016df5","name":"\u8292\u679c\u5496\u5561 \u83bf\u6850\u672c\u5e97","city":"yunlin","wifi":5,"seat":5,"quiet":5,"tasty":4.5,"cheap":3.5,"music":4.5,"url":"https:\/\/www.facebook.com\/mango5841987\/?fref=ts","address":"\u96f2\u6797\u7e23\u83bf\u6850\u9109\u4e2d\u5c71\u8def114\u865f","latitude":"23.75779140","longitude":"120.50014870","limited_time":"no","socket":"maybe","standing_desk":"yes","mrt":"","open_time":""},{"id":"9c748da4-bf84-46f8-b7b8-31adfacda6a0","name":"\u6e2c\u8a66\u8cc7\u6599","city":"yunlin","wifi":0,"seat":0,"quiet":0,"tasty":0,"cheap":0,"music":0,"url":"","address":"\u6e2c\u8a66\u8cc7\u6599","latitude":"22.92290330","longitude":"120.28856640","limited_time":"","socket":"","standing_desk":"","mrt":"","open_time":""},{"id":"a2372763-8000-4d72-8c85-5d0f6158bdcf","name":"Maimenla Caf\u00e9","city":"yunlin","wifi":4,"seat":5,"quiet":4.5,"tasty":4.5,"cheap":4,"music":4.5,"url":"","address":"\u96f2\u6797\u7e23\u6597\u516d\u5e02\u8b66\u6c11\u885738-1\u865f","latitude":"23.71324600","longitude":"120.55303400","limited_time":"no","socket":"yes","standing_desk":"no","mrt":"","open_time":""},{"id":"a77d8f92-2fce-470c-8bbd-6a9d429fb379","name":"\u6625\u5929\u66c9\u92ea \u5ba2\u88fd\u70d8\u7119\u5496\u5561","city":"yunlin","wifi":5,"seat":5,"quiet":3,"tasty":4,"cheap":4,"music":5,"url":"https:\/\/www.facebook.com\/%E6%98%A5%E5%A4%A9%E6%9B%89%E9%8B%AA-%E5%AE%A2%E8%A3%BD%E7%83%98%E7%84%99%E5%92%96%E5%95%A1-1578035342417708\/","address":"\u96f2\u6797\u7e23\u864e\u5c3e\u93ae\u6c38\u5b89\u885757\u865f","latitude":"23.70575950","longitude":"120.43455700","limited_time":"","socket":"","standing_desk":"","mrt":"","open_time":""},{"id":"ace5a2a3-2d6e-46b7-abfb-7891c5424ccc","name":"\u624b\u539a\u5546\u865f \/ Soohome ","city":"yunlin","wifi":5,"seat":5,"quiet":5,"tasty":5,"cheap":5,"music":5,"url":"https:\/\/www.facebook.com\/SooHomeCafe","address":"\u96f2\u6797\u7e23\u5317\u6e2f\u93ae\u83ef\u8208\u885741\u865f","latitude":"23.57375370","longitude":"120.30137500","limited_time":"no","socket":"maybe","standing_desk":"yes","mrt":"","open_time":""},{"id":"ad0b2726-0f06-4042-8e4b-1fd211178226","name":"\u539f\u57df\u5496\u5561\u9928\u96f2\u79d1\u4e8c\u5e97","city":"yunlin","wifi":5,"seat":4,"quiet":3,"tasty":4,"cheap":4,"music":4,"url":"https:\/\/www.facebook.com\/cafeoriginalzone\/","address":"\u96f2\u6797\u7e23\u6597\u516d\u5e02\u9f8d\u6f6d\u8def3-1\u865f","latitude":"23.69238390","longitude":"120.53136580","limited_time":"","socket":"","standing_desk":"","mrt":"","open_time":""},{"id":"b5ece7f5-488e-4689-bceb-b5846112cdfb","name":"Kohimomento-\u4e00\u77ac\u5496\u5561(\u5df2\u6b47\u696d)","city":"yunlin","wifi":5,"seat":5,"quiet":5,"tasty":5,"cheap":5,"music":5,"url":"https:\/\/www.facebook.com\/Kohimomento\/","address":"\u96f2\u6797\u7e23\u6597\u516d\u5e02\u4e2d\u5805\u897f\u8def270\u865f","latitude":"23.70126740","longitude":"120.53399490","limited_time":"no","socket":"maybe","standing_desk":"no","mrt":"","open_time":"1300\uff5e2200"},{"id":"b9c65d59-c16b-4fd4-969d-0eeb396b1b70","name":"\u897f\u87ba\u8001\u8857\u9418\u6a13","city":"yunlin","wifi":4,"seat":5,"quiet":4,"tasty":5,"cheap":4,"music":5,"url":"https:\/\/www.facebook.com\/%E8%A5%BF%E8%9E%BA%E8%80%81%E8%A1%97%E9%90%98%E6%A8%93-469228256502278\/","address":"\u96f2\u6797\u7e23\u897f\u87ba\u93ae\u5ef6\u5e73\u8def76\u865f","latitude":"23.80203830","longitude":"120.46279580","limited_time":"no","socket":"maybe","standing_desk":"","mrt":"","open_time":"\u5468\u56db\uff5e\u5468\u4e00\/ am:11:00\uff5epm18:00.  \u5468\u4e8c\uff0c\u5468\u4e09\/\u516c\u4f11 "},{"id":"bd1ba60c-7543-449c-8000-0f2a6b02028e","name":"\u6c5f\u9ce5\u5496\u5561\u8c46\u5c08\u8ce3\u5e97- \u6597\u516d\u4e2d\u83ef\u5e97","city":"yunlin","wifi":0,"seat":0,"quiet":0,"tasty":0,"cheap":0,"music":0,"url":"","address":"640\u96f2\u6797\u7e23\u6597\u516d\u5e02\u4e2d\u83ef\u8def82\u865f","latitude":"23.70848910","longitude":"120.54370000","limited_time":"","socket":"","standing_desk":"","mrt":"","open_time":""},{"id":"be392db7-3f16-4476-abbe-3c33641cd66b","name":"\u970d\u59c6\u65af\u5eab\u5496\u5561\u9928","city":"yunlin","wifi":0,"seat":0,"quiet":0,"tasty":0,"cheap":0,"music":0,"url":"https:\/\/www.facebook.com\/homes158cafe","address":"\u96f2\u6797\u7e23\u6597\u516d\u5e02\u6b66\u660c\u8def158\u865f","latitude":"23.71322780","longitude":"120.54256660","limited_time":"maybe","socket":"yes","standing_desk":"no","mrt":"","open_time":"\u7c89\u7d72\u9801\u70ba\u4e3b"},{"id":"c3ffd7e5-f544-4f02-a55b-7e22c6ac763b","name":"Mr. Lobby Coffee Project","city":"yunlin","wifi":3,"seat":3,"quiet":3,"tasty":5,"cheap":5,"music":5,"url":"https:\/\/www.facebook.com\/lobbyhandmade\/?fref=ts","address":"\u96f2\u6797\u7e23\u6597\u516d\u5e02\u96f2\u4e2d\u885718\u865f","latitude":"23.70850220","longitude":"120.53998320","limited_time":"maybe","socket":"maybe","standing_desk":"yes","mrt":"","open_time":"11:00~21:00,Monday Off"},{"id":"d475c8d4-8604-4f37-8a59-1427f9c8127e","name":"\u6620\u661f\u5712\u5496\u5561\u81ea\u5bb6\u70d8\u57f9 instarland coffee","city":"yunlin","wifi":0,"seat":5,"quiet":5,"tasty":5,"cheap":5,"music":4,"url":"","address":"\u96f2\u6797\u7e23\u5317\u6e2f\u93ae\u4e2d\u83ef\u8def2-9\u865f","latitude":"23.56717830","longitude":"120.30473280","limited_time":"no","socket":"no","standing_desk":"no","mrt":"","open_time":""},{"id":"db490895-824b-44e8-8d77-41d09048d0ec","name":"\u6597\u5357\u5c1a\u8c46\u5496\u5561","city":"yunlin","wifi":5,"seat":5,"quiet":5,"tasty":5,"cheap":5,"music":4,"url":"","address":"\u96f2\u6797\u7e23\u6597\u5357\u93ae\u65b0\u751f\u4e09\u8def128\u865f","latitude":"23.67598120","longitude":"120.47406240","limited_time":"no","socket":"maybe","standing_desk":"yes","mrt":"","open_time":""},{"id":"e461f62d-090f-440e-b399-1ffde391c2a8","name":"\u7d05\u679c\u7cbe\u54c1\u5496\u5561","city":"yunlin","wifi":5,"seat":4.5,"quiet":4.5,"tasty":5,"cheap":3,"music":4,"url":"","address":"\u96f2\u6797\u7e23\u6597\u516d\u5e02\u5e9c\u4e2d\u885713\u865f","latitude":"23.69891690","longitude":"120.52798320","limited_time":"no","socket":"maybe","standing_desk":"no","mrt":"","open_time":""},{"id":"ee81c5f4-2d0b-4111-8d23-0aaeaffd49a2","name":"\u8292\u679c\u5496\u5561 \u6597\u516d\u5e97","city":"yunlin","wifi":4,"seat":5,"quiet":4.5,"tasty":4,"cheap":3.5,"music":5,"url":"http:\/\/www.mangocafegroup.com\/","address":"\u96f2\u6797\u7e23\u6597\u516d\u5e02\u5927\u5b78\u8def\u4e09\u6bb5310\u865f","latitude":"23.69517700","longitude":"120.52439850","limited_time":"maybe","socket":"maybe","standing_desk":"no","mrt":"","open_time":""},{"id":"f29cb3d0-ce07-4dce-accf-03efcf3c9b4e","name":"\u7766\u5496\u5561","city":"yunlin","wifi":5,"seat":5,"quiet":5,"tasty":5,"cheap":5,"music":5,"url":"https:\/\/www.facebook.com\/pages\/%E7%9D%A6-%E5%92%96%E5%95%A1\/1551835121809040?pnref=story","address":"\u96f2\u6797\u7e23\u6597\u516d\u5e02\u5b89\u548c\u885773\u865f","latitude":"23.70205200","longitude":"120.53418100","limited_time":"no","socket":"maybe","standing_desk":"yes","mrt":"","open_time":"Mon~Fri. 13:30-21:00 Sat.Sun 10:00-21:00"},{"id":"f68bfb75-b52a-4a0e-8e19-bed9c19416a7","name":"Wow cafe \u7aa9\u6597\u516d\u5496\u5561\u70d8\u8c46\u6240","city":"yunlin","wifi":0,"seat":0,"quiet":0,"tasty":0,"cheap":0,"music":0,"url":"","address":"\u96f2\u6797\u7e23\u6597\u516d\u5e02\u6c11\u751f\u5357\u8def\u96f2\u6797\u6eaa\u7f8e\u98df\u5ee3\u58342\u865f ","latitude":"23.70615200","longitude":"120.53838730","limited_time":"","socket":"","standing_desk":"","mrt":"","open_time":""},{"id":"f9fb54ec-d208-48ae-870b-0707ab8b17b8","name":"Mishka Coffee & Antique \u5496\u5561 \u53e4\u8463\u50a2\u4ff1","city":"yunlin","wifi":0,"seat":0,"quiet":0,"tasty":0,"cheap":0,"music":0,"url":"","address":"\u96f2\u6797\u7e23\u864e\u5c3e\u93ae\u5149\u660e\u8def111\u865f","latitude":"23.70757570","longitude":"120.44506930","limited_time":"","socket":"","standing_desk":"","mrt":"","open_time":""},{"id":"fbed1424-d5d4-4be9-ba65-6fcc8d37986d","name":"\u5f8c\u8857\u5496\u5561","city":"yunlin","wifi":5,"seat":5,"quiet":3,"tasty":4,"cheap":0,"music":2,"url":"","address":"\u96f2\u6797\u7e23\u9ea5\u5bee\u9109\u4e2d\u5c71\u8def279\u865f","latitude":"23.74925300","longitude":"120.25333830","limited_time":"no","socket":"maybe","standing_desk":"no","mrt":"","open_time":""}]}